time,Barometer_relativeAltitude,Barometer_pressure,Location_altitude,Location_speedAccuracy,Location_bearingAccuracy,Location_latitude,Location_altitudeAboveMeanSeaLevel,Location_bearing,Location_horizontalAccuracy,Location_verticalAccuracy,Location_longitude,Location_speed,Orientation_yaw,Orientation_qx,Orientation_qz,Orientation_roll,Orientation_qw,Orientation_qy,Orientation_pitch,Magnetometer_z,Magnetometer_y,Magnetometer_x,GyroscopeUncalibrated_z,GyroscopeUncalibrated_y,GyroscopeUncalibrated_x,MagnetometerUncalibrated_z,MagnetometerUncalibrated_y,MagnetometerUncalibrated_x,Accelerometer_z,Accelerometer_y,Accelerometer_x,AccelerometerUncalibrated_z,AccelerometerUncalibrated_y,AccelerometerUncalibrated_x,Gyroscope_z,Gyroscope_y,Gyroscope_x,Gravity_z,Gravity_y,Gravity_x
3.1,-0.30783004760742183,1010.3820037841798,57.65724182128906,-1.0,-1.0,49.274822249181305,76.6958122253418,-1.0,49.0,33.00075912475586,-122.87199266460128,-1.0,-0.613276535564265,0.6518246306385493,0.1258860012723209,-0.41433854587203356,-0.7345735557606416,-0.012498669225394145,-1.2764861589724097,-8.550048065185546,49.372062110900885,10.035363388061523,1.0389160342514514,1.7024607957340776,-0.11654947027564044,30.075054550170897,72.0127109527588,140.8255897521973,0.8831983330752604,4.1950237758792195,-6.22796744330855,-0.039645004272460954,1.3639186859130858,-0.7773735046386718,1.0386849626898766,1.7725763119757176,-0.08496678331866869,-1.2938076086853187,9.273909063276797,-1.4064645325528784
3.2,-0.3091510772705078,1010.3821563720704,57.65724182128906,-1.0,-1.0,49.274822249181305,76.6958122253418,-1.0,49.0,33.00075912475586,-122.87199266460128,-1.0,-0.11083750896158188,0.6668041676596165,0.0724791419708034,0.09510329136351328,-0.7310104987850583,-0.07172309819723953,-1.4010361531171236,-8.434017372131347,48.073831176757814,19.733883666992188,-0.9775684081017971,2.4156058682128787,-1.8599200069904327,30.567891693115236,70.80269927978516,150.18871536254883,-1.456141762922499,3.8318876668283353,-5.104628383991308,-0.23889923095703125,1.3315330505371095,-0.5164657592773437,-1.0046698540449142,2.554219726473093,-1.79939178917557,-0.9361295327870618,9.63504004305035,0.0667717118574539
3.3,-0.31047210693359373,1010.3823089599609,57.65724182128906,-1.0,-1.0,49.274822249181305,76.6958122253418,-1.0,49.0,33.00075912475586,-122.87199266460128,-1.0,-1.5163198536843834,0.6377704402495044,0.2834027459383556,-0.9688550036453287,-0.7050975516381577,-0.09352461639801814,-1.2823670854818516,-2.186574935913086,52.459452056884764,5.877674865722656,0.8520343076670542,-3.5415340185165407,1.0844530053436756,36.070516967773436,75.11241302490234,136.33013153076172,8.445839588913657,-2.471058631413281,2.3890313594593104,0.6850799560546875,0.7949798583984375,0.00387115478515625,0.8890145570039749,-4.011021113395691,0.8855130553245545,-1.5949213647779448,9.39740933234781,-2.2360716839917005
3.4,-0.3117931365966797,1010.3824615478516,57.65724182128906,-1.0,-1.0,49.274822249181305,76.6958122253418,-1.0,49.0,33.00075912475586,-122.87199266460128,-1.0,-1.5478036638710728,0.6667335909792689,0.19831483657577115,-1.2127427172932417,-0.7059939309694084,-0.033157573389567936,-1.3254349507745073,-3.4361663341522215,52.282408714294434,6.870523071289062,0.5263597764191218,-1.6701759420335294,0.3959349747747183,34.9830023514597,74.9198551780299,137.45674755698758,3.2771711748312695,-2.6446198101089893,3.737307096826862,0.23306808471679685,0.7274116516113281,0.16146011352539064,0.5646676247240976,-1.8691731847822664,0.2919292895123362,-0.940041329856679,9.497213887728527,-2.075278443434648
3.5,-0.31311416625976557,1010.3826141357422,57.65724182128906,-1.0,-1.0,49.274822249181305,76.6958122253418,-1.0,49.0,33.00075912475586,-122.87199266460128,-1.0,-1.579287474057762,0.6956967417090334,0.11322692721318664,-1.4566304309411549,-0.7068903103006592,0.027209469618882265,-1.368502816067163,-4.685757732391357,52.1053653717041,7.863371276855469,0.2006852451711893,0.20118213444948196,-0.29258305579423904,33.89548773514597,74.72729733115749,138.5833635832134,-1.8914972392511182,-2.8181809888046976,5.085582834194414,-0.21894378662109376,0.6598434448242188,0.319049072265625,0.2403206924442202,0.2726747438311577,-0.30165447629988196,-0.28516129493541315,9.597018443109244,-1.9144852028775958
3.6,-0.3144351959228515,1010.3827667236328,57.65724182128906,-1.0,-1.0,49.274822249181305,76.6958122253418,-1.0,49.0,33.00075912475586,-122.87199266460128,-1.0,-0.6388137761640534,0.6579161655138823,0.03215355190114179,-0.5506574745062971,-0.7342808733399289,-0.029250134430532045,-1.3119848389303541,-9.040980529785156,47.480529212951666,16.001648330688475,1.3024605305399748,-0.34008176280185576,0.8573272714391351,29.07978622258058,69.13401745355617,148.48181350886472,1.5175307707014025,1.3955044959595053,-0.6765620462704032,0.04618225097656253,1.0930473327636718,-0.06940307617187497,1.2901973585831001,-0.31365714445710186,0.8362695397809147,-1.0692689145649261,9.344775401203854,-0.04785603140800476
3.7,-0.31575622558593747,1010.3829193115234,57.65724182128906,-1.0,-1.0,49.274822249181305,76.6958122253418,-1.0,49.0,33.00075912475586,-122.87199266460128,-1.0,0.3016599217296551,0.6201355893187313,-0.04891982341090307,0.35531548192856066,-0.7616714363791985,-0.08570973847994635,-1.2554668617935452,-13.396203327178956,42.85569305419922,24.139925384521483,2.40423581590876,-0.8813456600531936,2.0072375986725093,24.26408471001519,63.540737575954864,158.38026343451605,4.926558780653923,5.609189980723708,-6.43870692673522,0.31130828857421877,1.526251220703125,-0.457855224609375,2.34007402472198,-0.8999890327453614,1.9741935558617114,-1.8533765341944393,9.092532359298467,1.818773140061586
3.8,-0.3170772552490234,1010.383071899414,57.65724182128906,-1.0,-1.0,49.274822249181305,76.6958122253418,-1.0,49.0,33.00075912475586,-122.87199266460128,-1.0,0.9345070330694387,0.605911421003972,-0.0790068458264276,1.0703617885408634,-0.7713628930892951,-0.1727402191205395,-1.1399528845217355,-12.611223220825195,37.64565811157227,35.28383178710938,-1.792030394077301,-0.03413542509078984,-2.2842718720436097,26.823023478190105,61.06448533799913,165.42387220594617,2.013368493307978,-7.120524313417673,-7.823322746177614,0.00979461669921875,0.1637847900390625,-0.4296051025390625,-1.8691217124462127,-0.11295082196593284,-2.310820984840393,-1.998898566250503,8.885170647035837,3.5465754597574466
3.9,-0.31839828491210936,1010.3832244873046,57.65724182128906,-1.0,-1.0,49.274822249181305,76.6958122253418,-1.0,49.0,33.00075912475586,-122.87199266460128,-1.0,-0.0826054799207725,0.6325842971926957,0.056988880018184765,0.19265609628185643,-0.7369488636920555,-0.1328420774508155,-1.2454955422405964,-7.736295700073242,44.30849952697754,23.702885055541994,-1.8809982622042298,0.5707859605550767,-1.3951790049672126,31.19969163861191,67.41306831404479,153.89624822070027,2.0585467162315547,0.7576024014193559,-4.634866301614661,0.064715576171875,1.0163105010986329,-0.3532470703125,-1.8907324351370334,0.5492261141538619,-1.4039422824978827,-1.5093655123295324,9.210356950046718,1.2111804887661917
4.0,-0.3197193145751953,1010.3833770751952,57.65724182128906,-1.0,-1.0,49.274822249181305,76.6958122253418,-1.0,49.0,33.00075912475586,-122.87199266460128,-1.0,-1.099717992910984,0.6592571733814194,0.19298460586279714,-0.6850495959771504,-0.7025348342948159,-0.09294393578109149,-1.3510381999594574,-2.861368179321289,50.97134094238281,12.121938323974609,-1.9699661303311586,1.175707346200943,-0.5060861378908157,35.57635979903372,73.76165129009046,142.36862423545435,2.103724939155131,8.635729116256385,-1.4464098570517077,0.11963653564453125,1.8688362121582032,-0.2768890380859375,-1.9123431578278542,1.2114030502736568,-0.4970635801553726,-1.0198324584085616,9.535543253057599,-1.1242144822250633
4.1,-0.42937564849853516,1010.3964996337891,57.65724182128906,-1.0,-1.0,49.274822249181305,76.6958122253418,-1.0,49.0,33.00075912475586,-122.87199266460128,-1.0,-1.267184977947538,0.6740152365261467,0.1582838551335325,-0.9657014542557849,-0.7079999342295112,-0.05086797575661408,-1.3770596596894422,-3.385970401763916,51.57900505065918,11.125203704833984,-0.47290486511774366,-0.04917123988270755,-0.20158697627484795,35.04992306357936,74.21307891042608,141.82546888652598,-0.11626920722588885,4.404900627380981,1.737882300132122,-0.08297348022460938,1.4211311340332031,0.03532104492187499,-0.42711761090904465,-0.05685530137270689,-0.194917519018054,-0.7583625733356203,9.59634218050897,-1.3351512920218518
4.2,-0.539031982421875,1010.4096221923828,57.65724182128906,-1.0,-1.0,49.274822249181305,76.6958122253418,-1.0,49.0,33.00075912475586,-122.87199266460128,-1.0,-1.4346519629840917,0.6887732996708741,0.12358310440426783,-1.2463533125344195,-0.7134650341642066,-0.008792015732136666,-1.4030811194194268,-3.910572624206543,52.186669158935544,10.128469085693359,1.0241564000956713,-1.2740498259663582,0.10291218534111976,34.523486328125,74.66450653076171,141.28231353759764,-2.3362633536069093,0.17407213850557782,4.922174457315951,-0.28558349609375,0.9734260559082031,0.3475311279296875,1.0581079360097647,-1.3251136530190706,0.10722854211926461,-0.49689268826267907,9.657141107960342,-1.5460881018186405
4.3,-0.5491208163174716,1010.410849831321,57.65724182128906,-1.0,-1.0,49.274822249181305,76.6958122253418,-1.0,49.0,33.00075912475586,-122.87199266460128,-1.0,0.9212319324127364,0.6289397746730624,-0.13914961819235036,0.680053679110413,-0.7569688244080522,0.028300357219471113,-1.3278125734902309,-16.423711395263673,45.222346496582034,21.313037109375,2.6882341623306276,-2.836514782905579,4.922068297863007,19.736824883355034,66.6923590766059,152.70223829481336,-2.042538605208322,8.700943960453866,-2.569376243478395,-0.44360809326171874,1.8528472900390625,-0.1258758544921875,2.669762444496155,-2.1377370595932006,4.925629287958145,-1.9387642694137988,9.381039504566193,1.2273664255046566
4.4,-0.5592096502130682,1010.4120774702593,57.65724182128906,-1.0,-1.0,49.274822249181305,76.6958122253418,-1.0,49.0,33.00075912475586,-122.87199266460128,-1.0,0.9874012998307558,0.6121784222956483,-0.1382120484992203,0.8771537707768301,-0.7642795933490704,-0.06121941526185829,-1.2047693005065736,-16.09076609611511,40.170844936370855,29.085977172851564,0.520833658473566,-0.6801589883863928,1.4191815802827477,21.401648493538126,62.304863556086666,160.0456574646353,2.050381062337011,3.957064403131156,-6.876774129800889,-0.0070858001708984375,1.3105667114257813,-0.4319679260253906,0.4407934647053482,-0.35469777546823034,1.3958209857344626,-2.1070413218210216,8.96722889864996,2.5653033323969927
4.5,-0.5692984841086648,1010.4133051091975,57.65724182128906,-1.0,-1.0,49.274822249181305,76.6958122253418,-1.0,49.0,33.00075912475586,-122.87199266460128,-1.0,1.0535706672487752,0.5954170699182342,-0.13727447880609023,1.0742538624432472,-0.7715903622900885,-0.1507391877431877,-1.0817260275229161,-15.757820796966552,35.11934337615967,36.858917236328125,-1.6465668453834952,1.4761968061327932,-2.0837051372975113,23.066472103721217,57.917368035567435,167.38907663445724,6.143300729882344,-0.7868151541915536,-11.184172016123384,0.42943649291992186,0.7682861328125,-0.7380599975585938,-1.7881755150854588,1.4283415086567401,-2.1339873164892196,-2.2753183742282443,8.553418292733728,3.903240239289328
4.6,-0.5793873180042614,1010.4145327481357,57.65724182128906,-1.0,-1.0,49.274822249181305,76.6958122253418,-1.0,49.0,33.00075912475586,-122.87199266460128,-1.0,-0.20202593443086525,0.6277033971710582,0.04124870155804433,0.028855305170684797,-0.7379170795475931,-0.11817118245325925,-1.220957225725111,-9.110416364669799,43.57303915023804,23.686426162719727,-1.2141333707608282,1.1102518312633036,-0.9509673712775113,29.664261366191663,66.35053506148489,154.1020418267501,4.603650314694693,0.5629316384559868,-3.853650571212098,0.30841522216796874,0.9921443939208985,-0.2776622772216797,-1.225141378887929,0.9557203058153391,-0.9579183559864759,-1.6457563535035973,9.055414284068345,1.156290686948866
4.7,-0.5894761518998579,1010.4157603870739,57.65724182128906,-1.0,-1.0,49.274822249181305,76.6958122253418,-1.0,49.0,33.00075912475586,-122.87199266460128,-1.0,-1.4576225361105057,0.659989724423882,0.21977188192217892,-1.0165432521018776,-0.7042437968050976,-0.0856031771633308,-1.3601884239273054,-2.463011932373047,52.02673492431641,10.513935089111328,-0.7816998961381614,0.7443068563938141,0.18177039474248885,36.26205062866211,74.78370208740235,140.81500701904298,3.0639998995070434,1.9126784311035272,3.4768708736991885,0.18739395141601561,1.2160026550292968,0.18273544311523438,-0.6621072426903993,0.483099102973938,0.21815060451626778,-1.0161943327789502,9.557410275402962,-1.5906588653915956
4.8,-0.5995649857954546,1010.4169880260122,57.65724182128906,-1.0,-1.0,49.274822249181305,76.6958122253418,-1.0,49.0,33.00075912475586,-122.87199266460128,-1.0,-1.4566170216029033,0.6980247088876426,0.08030341864608995,-1.3380417275833747,-0.7114519699580865,-0.0033577388853301094,-1.4585101191141177,-3.8625251770019533,51.662286376953126,13.185606384277344,0.2929423436522484,-0.20642576105892657,0.5962951272726059,34.42194281684028,74.23157416449652,143.95870123969183,-3.4479434699004883,3.2985123777243492,4.6031284325453266,-0.38396148681640624,1.2771835327148438,0.34351043701171874,0.2774495452642441,-0.15563634298741819,0.5977086514234543,-0.2490031898228649,9.744499307226537,-1.052362732636854
4.9,-0.6096538196910511,1010.4182156649504,57.65724182128906,-1.0,-1.0,49.274822249181305,76.6958122253418,-1.0,49.0,33.00075912475586,-122.87199266460128,-1.0,-0.4227183404469521,0.656592771768944,-0.01698964372665801,-0.4048261967808755,-0.736373239419849,-0.03040116448354628,-1.340498291778161,-9.762864732742308,46.375681209564206,20.04154052734375,1.523344810307026,-0.4409040996804833,1.317430213652551,28.529146152072485,68.75059428744845,150.99924846225315,1.472547832887909,4.788336275651753,1.041635351281939,0.025785827636718717,1.4239246368408203,0.160546875,1.5131265699863432,-0.4039577813819051,1.2900838356465103,-1.1654839667439327,9.337086658719105,0.552383045907449
5.0,-0.6197426535866477,1010.4194433038886,57.65724182128906,-1.0,-1.0,49.274822249181305,76.6958122253418,-1.0,49.0,33.00075912475586,-122.87199266460128,-1.0,0.6111803407089992,0.6151608346502455,-0.11428270609940597,0.5283893340216238,-0.7612945088816115,-0.05744459008176245,-1.2224864644422042,-15.663204288482666,41.08907604217529,26.897474670410155,2.7537472769618034,-0.67538243830204,2.0385653000324964,22.636349487304688,63.26961441040039,158.03979568481446,6.393039135676306,6.278160173579156,-2.519857729981448,0.43553314208984373,1.5706657409667968,-0.02241668701171875,2.7488035947084426,-0.652279219776392,1.982459019869566,-2.0819647436650004,8.929674010211675,2.157128824451752
5.1,-0.6298314874822443,1010.4206709428267,57.65724182128906,-1.0,-1.0,49.274822249181305,76.6958122253418,-1.0,49.0,33.00075912475586,-122.87199266460128,-1.0,0.601017952673109,0.6296171402971276,-0.06157831713188398,0.5159408755615096,-0.7379062159145748,-0.11111408815969863,-1.2132266218899455,-11.124653530120849,40.798095512390134,28.464487838745114,-0.2741072813980283,2.130066350847483,0.7154022062197327,27.890113509328742,63.78062983061138,158.7027989236932,1.8838913070784606,7.010088693103045,-4.875870505511658,0.03013305664062499,1.628852081298828,-0.26023521423339846,-0.2691355045884847,2.107188501395285,0.7621835660189389,-1.548231726022883,8.956419437635317,2.269153582144582
5.2,-0.6399203213778409,1010.421898581765,57.65724182128906,-1.0,-1.0,49.274822249181305,76.6958122253418,-1.0,49.0,33.00075912475586,-122.87199266460128,-1.0,0.5908555646372189,0.6440734459440097,-0.008873928164362003,0.5034924171013953,-0.7145179229475381,-0.1647835862376348,-1.2039667793376865,-6.586102771759033,40.50711498260498,30.031501007080077,-3.3019618397578596,4.935515139997006,-0.6077608875930309,33.14387753135279,64.29164525082237,159.36580216257195,-2.625256521519385,7.7420172126269335,-7.231883281041869,-0.37526702880859375,1.6870384216308594,-0.49805374145507814,-3.2870746038854124,4.866656222566962,-0.458091887831688,-1.0144987083807657,8.983164865058958,2.3811783398374122
5.3,-0.6500091552734375,1010.4231262207032,57.65724182128906,-1.0,-1.0,49.274822249181305,76.6958122253418,-1.0,49.0,33.00075912475586,-122.87199266460128,-1.0,-1.4372820680920289,0.6428506603507789,0.2410420604282369,-0.8921892504450778,-0.70888740996107,-0.13628710659515222,-1.3894350996626046,-2.0725387573242187,52.23580780029297,11.88841552734375,1.6624021649360656,-4.755455277860165,-2.4002453327178954,36.51744079589844,74.84323628743489,142.6164076063368,13.289861642947605,-6.518178188583552,2.3417240301655977,1.2746673583984376,0.36627044677734377,0.1243682861328125,1.6701040029525758,-4.588512375950813,-2.593960499763489,-1.2806658329933882,9.611621231992244,-1.0828677281364611
5.4,-0.686473274230957,1010.4274902343751,57.65724182128906,-1.0,-1.0,49.274822249181305,76.6958122253418,-1.0,49.0,33.00075912475586,-122.87199266460128,-1.0,-0.9588619650854944,0.6740007442076286,0.1478662934975217,-0.7686350419090134,-0.7056642965382072,-0.09350336511018023,-1.4583361823252354,-1.9661561965942382,51.28272666931152,15.020933151245117,1.2889882451854646,-3.4798961587250234,-1.1462104522710432,36.534603881835935,73.86852213541667,145.76423369513617,4.855661225604694,-2.4321277784466737,2.776730685065036,0.4524971008300782,0.7561382293701171,0.22141304016113283,1.3044596910476685,-3.4332195214927195,-1.2375724234152585,-0.6285522385696648,9.702517600708902,-0.5733094393746604
5.5,-0.7229373931884766,1010.431854248047,57.65724182128906,-1.0,-1.0,49.274822249181305,76.6958122253418,-1.0,49.0,33.00075912475586,-122.87199266460128,-1.0,-0.4804418620789598,0.7051508280644783,0.05469052656680652,-0.6450808333729491,-0.7024411831153443,-0.050719623625208245,-1.5272372649878663,-1.8597736358642578,50.32964553833008,18.153450775146485,0.9155743254348636,-2.204337039589882,0.10782442817580887,36.55176696777344,72.89380798339843,148.91205978393555,-3.578539191738218,1.6539226316902043,3.211737339964474,-0.36967315673828127,1.1460060119628905,0.31845779418945314,0.9388153791427613,-2.277926667034626,0.11881565293297172,0.023561355854058625,9.793413969425558,-0.06375115061285953
5.6,-0.759401512145996,1010.4362182617189,57.65724182128906,-1.0,-1.0,49.274822249181305,76.6958122253418,-1.0,49.0,33.00075912475586,-122.87199266460128,-1.0,0.3630526831663051,0.660529345126436,-0.06476020787873889,0.19404503401304363,-0.7293469460894924,-0.05779155607014774,-1.3411402923413447,-9.883920268008584,44.61347925286544,24.79944829438862,0.6327109790407122,-1.1422381308628247,0.24376211565977426,28.72793193616365,67.0749581587942,155.72720507571572,2.475669410837041,0.9478337052484014,-0.8677883081302808,0.1164409637451172,1.0328311920166016,0.06992645263671876,0.6807756601979857,-1.0948738079714149,0.3464804084407852,-1.0603839569888336,9.34270333494086,1.5522842942462287
5.7,-0.7958656311035156,1010.4405822753907,57.65724182128906,-1.0,-1.0,49.274822249181305,76.6958122253418,-1.0,49.0,33.00075912475586,-122.87199266460128,-1.0,1.2065472284115701,0.6159078621883938,-0.1842109423242843,1.0331709013990362,-0.7562527090636405,-0.06486348851508725,-1.1550433196948233,-17.90806690015291,38.8973129674008,31.445445813630755,0.34984763264656066,-0.08013922213576735,0.3796998031437397,20.904096904553864,61.25610833418997,162.54235036749589,8.5298780134123,0.2417447788065986,-4.9473139562250354,0.6025550842285157,0.9196563720703125,-0.17860488891601561,0.42273594125321035,0.08817905109179647,0.5741451639485986,-2.144329269831726,8.89199270045616,3.1683197391053173
5.8,-0.8323297500610352,1010.4449462890626,57.65724182128906,-1.0,-1.0,49.274822249181305,76.6958122253418,-1.0,49.0,33.00075912475586,-122.87199266460128,-1.0,0.8023210959577407,0.7239210598498049,-0.021088631671110962,0.8550085932175678,-0.6770451467040763,-0.05821975553061524,-1.3787888062247335,-1.8747272491455078,47.123494720458986,24.356471252441406,-4.091046643257141,5.609968262910843,0.7502345025539399,37.868704901801216,70.86711798773871,153.0532684326172,-8.564092656126617,19.00498643274188,-3.121405352248484,-0.7874710083007812,3.0014602661132814,-0.16566925048828124,-4.193847131729126,5.103299905359745,0.04983522891998291,0.5618028618416051,9.59593804207444,1.0887134931959677
5.9,-0.8687938690185547,1010.4493103027345,57.65724182128906,-1.0,-1.0,49.274822249181305,76.6958122253418,-1.0,49.0,33.00075912475586,-122.87199266460128,-1.0,0.25041078028406094,0.706989076977135,0.040275813129963846,0.3883178250943438,-0.6923096790165295,-0.056496342287751966,-1.4298121021490768,-2.3088530540466308,49.14183712005615,19.901592254638672,-1.6984313737601044,1.3379492372274395,0.10102745490148668,36.706507449679904,72.2704520755344,149.728112411499,-2.940524562121256,5.1873726670277875,-0.2579868083518022,-0.2773746490478516,1.5326744079589845,0.015707015991210938,-1.7546443728730083,1.2498207338154317,-0.16237086467444897,0.10078812876619053,9.670878745994418,0.2607179038552798
6.0,-0.9052579879760743,1010.4536743164064,57.65724182128906,-1.0,-1.0,49.274822249181305,76.6958122253418,-1.0,49.0,33.00075912475586,-122.87199266460128,-1.0,-0.30149953538961877,0.690057094104465,0.10164025793103866,-0.07837294302888018,-0.7075742113289826,-0.054772929044888695,-1.4808353980734204,-2.7429788589477537,51.16017951965332,15.446713256835938,0.6941838957369327,-2.9340697884559632,-0.5481795927509665,35.54430999755859,73.67378616333008,146.40295639038087,2.6830435318841035,-8.630241098686307,2.60543173554488,0.23272171020507812,0.0638885498046875,0.19708328247070311,0.6845583859831095,-2.603658437728882,-0.3745769582688808,-0.36022660430922404,9.745819449914396,-0.567277685485408
6.1,-0.9417221069335937,1010.4580383300782,57.65724182128906,-1.0,-1.0,49.274822249181305,76.6958122253418,-1.0,49.0,33.00075912475586,-122.87199266460128,-1.0,-0.24020327284584309,0.6835059933534411,0.03220680926710694,-0.15320990514793453,-0.7180921110830571,-0.028951555321083438,-1.4598911968486945,-5.810106182098389,49.951154708862305,17.62512969970703,1.2395347207784653,-2.1561535015702247,0.6355563773773609,31.820982320685133,72.0366466923764,148.8071770316676,0.48343869632543957,0.5325432806462054,2.8572694144880453,-0.015905761718749994,1.036026382446289,0.28267364501953124,1.1725397745147348,-1.966976448148489,0.5324085609056056,-0.5671273352101841,9.706091703642532,-0.027461431604403286
6.2,-0.9781862258911133,1010.4624023437501,57.65724182128906,-1.0,-1.0,49.274822249181305,76.6958122253418,-1.0,49.0,33.00075912475586,-122.87199266460128,-1.0,-0.17890701030206743,0.6769548926024171,-0.0372266393968248,-0.22804686726698892,-0.7286100108371318,-0.0031301815972781797,-1.4389469956239689,-8.877233505249023,48.74212989807129,19.803546142578124,1.7848855458199977,-1.3782372146844863,1.8192923475056886,28.097654643811676,70.3995072214227,151.21139767295435,-1.7161661392332241,9.695327659978718,3.109107093431211,-0.26453323364257814,2.0081642150878904,0.36826400756835936,1.66052116304636,-1.3302944585680962,1.439394080080092,-0.7740280661111442,9.666363957370669,0.5123548222766013
6.3,-1.0146503448486328,1010.466766357422,57.65724182128906,-1.0,-1.0,49.274822249181305,76.6958122253418,-1.0,49.0,33.00075912475586,-122.87199266460128,-1.0,1.0089723807831608,0.5636999581053584,-0.19058513967652607,0.9235652982708927,-0.7888088011465122,-0.13273279661318846,-1.0015984808405218,-21.611167907714844,33.423225784301756,35.80868072509766,-0.22492156624794007,4.0347247704863545,-1.8772173464298247,18.778797912597657,55.85319061279297,167.76656951904297,16.541374990142437,-5.319515399111807,-9.296607568010241,1.3963729858398437,0.23632049560546875,-0.5473983764648438,0.08919506967067718,3.4371066749095918,-0.6897415235638619,-3.1368983734493705,8.252471878679394,4.139272472593188
6.4,-1.0514225959777832,1010.4711723327638,57.65724182128906,-1.0,-1.0,49.274822249181305,76.6958122253418,-1.0,49.0,33.00075912475586,-122.87199266460128,-1.0,0.6193237502396371,0.6232183188396814,-0.06525508740132782,0.5400401509984665,-0.7430269173359807,-0.12027225531580923,-1.1723690969238167,-12.145883989334106,40.33648309707641,29.123795700073245,-1.0726313900202513,3.1365536794066426,-1.1095749109983444,27.633637960333573,63.415630661813836,159.51417224281712,9.630510559180966,0.9109949591854214,-5.612827356325267,0.8278610229492187,0.9620292663574219,-0.32666893005371095,-0.9846971506252886,2.9521493889391426,-0.5254871524870396,-1.7510507254984569,8.878367703635767,2.449297487445052
6.5,-1.0881948471069336,1010.4755783081056,57.65724182128906,-1.0,-1.0,49.274822249181305,76.6958122253418,-1.0,49.0,33.00075912475586,-122.87199266460128,-1.0,0.22967511969611354,0.6827366795740044,0.06007496487387044,0.1565150037260403,-0.6972450335254491,-0.10781171401843,-1.3431397130071117,-2.680600070953369,47.24974040985107,22.438910675048827,-1.9203412137925624,2.238382588326931,-0.341932475566864,36.48847800806949,70.9780707108347,151.26177496659128,2.719646128219497,7.1415053174826495,-1.9290471446402928,0.25934906005859376,1.687738037109375,-0.10593948364257813,-2.058589370921254,2.467192102968693,-0.3612327814102173,-0.36520307754754316,9.504263528592139,0.7593225022969162
6.6,-1.124967098236084,1010.4799842834474,57.65724182128906,-1.0,-1.0,49.274822249181305,76.6958122253418,-1.0,49.0,33.00075912475586,-122.87199266460128,-1.0,-0.05608100136913785,0.6974277712491166,0.053353229678493236,-0.03786592837834821,-0.6974802022110764,-0.06924785450916522,-1.4282382423599074,-2.419495916366577,49.018221378326416,19.83351936340332,-0.8825895134359598,0.6127996247261762,-0.2159323972184211,36.39966302168997,72.17078841359992,149.62447999653062,-1.199392018888378,3.9071131351999187,0.5338084453970753,-0.12738609313964838,1.3917060852050782,0.09629631042480466,-0.9615198137238621,0.5833157144486905,-0.31497611906379464,-0.08663839333494106,9.646421005729586,0.26771043125058935
6.7,-1.1617393493652344,1010.4843902587892,57.65724182128906,-1.0,-1.0,49.274822249181305,76.6958122253418,-1.0,49.0,33.00075912475586,-122.87199266460128,-1.0,-0.3418371224343893,0.7121188629242288,0.04663149448311603,-0.2322468604827367,-0.6977153708967037,-0.030683994999900453,-1.513336771712703,-2.158391761779785,50.78670234680176,17.228128051757814,0.15516218692064285,-1.0127833388745784,-0.08993231886997821,36.31084803531044,73.36350611636513,147.98718502646997,-5.118430165996253,0.672720952917188,2.9966640354344434,-0.5141212463378906,1.0956741333007813,0.2985321044921875,0.13554974347352977,-1.300560674071312,-0.26871945671737196,0.19192629087766108,9.788578482867033,-0.22390163979573757
6.8,-1.1985116004943848,1010.488796234131,57.65724182128906,-1.0,-1.0,49.274822249181305,76.6958122253418,-1.0,49.0,33.00075912475586,-122.87199266460128,-1.0,0.7856922760253955,0.6742468402593103,-0.05952398097236714,0.7444509543259772,-0.7302624604608343,-0.03105740122627611,-1.4087504224579215,-9.217426872253418,47.59280624389648,22.602204895019533,3.91874098777771,-4.721869689226151,1.9262348748743534,26.98268280029297,68.61286773681641,154.9432342529297,0.12127119484469288,4.717309617983401,2.3660450069212913,-0.11495819091796874,1.5794326782226562,0.32977447509765623,3.795304703712463,-4.151740151643753,1.3894987232983111,-0.8614535616564936,9.629165422702432,1.2024676182078577
6.9,-1.2352838516235352,1010.4932022094727,57.65724182128906,-1.0,-1.0,49.274822249181305,76.6958122253418,-1.0,49.0,33.00075912475586,-122.87199266460128,-1.0,1.0435676451671962,0.6411207980292202,-0.1291883616334435,0.951304778280375,-0.7413752953505774,-0.06633787348233779,-1.2403810641191724,-13.654913043975831,41.33712673187256,28.929749298095704,1.102937588566228,-1.1844357431327044,0.23899093025216933,24.43570745367753,63.455806170011826,160.16842779862253,3.9237674223857835,3.4371752322921156,-3.3368400187138474,0.2599816171746505,1.2792018288060238,-0.11256011159796464,1.108689597994089,-0.9889508917927738,0.142380077764392,-1.5202133791151922,9.072644308875873,2.5053076469063758
7.0,-1.2720561027526855,1010.4976081848145,57.65724182128906,-1.0,-1.0,49.274822249181305,76.6958122253418,-1.0,49.0,33.00075912475586,-122.87199266460128,-1.0,1.301443014308997,0.60799475579913,-0.19885274229451982,1.1581586022347727,-0.7524881302403206,-0.10161834573839945,-1.072011705780423,-18.092399215698244,35.081447219848634,35.257293701171875,-1.7128658106452541,2.3529982029607424,-1.448253014370015,21.88873210706209,58.29874460320724,165.3936213443154,7.7262636499268735,2.1570408466008306,-9.039725044348986,0.6349214252672697,0.9789709793893915,-0.5548946982935855,-1.577925507724285,2.1738383680582047,-1.1047385677695274,-2.1789731965738905,8.516123195049314,3.808147675604894
7.1,-1.308828353881836,1010.5020141601562,57.65724182128906,-1.0,-1.0,49.274822249181305,76.6958122253418,-1.0,49.0,33.00075912475586,-122.87199266460128,-1.0,0.030343142046004967,0.6456550072812945,-0.03473805772545985,0.11079914510447653,-0.7285113452117039,-0.0924095502256172,-1.2686811472864257,-9.868539714813233,43.08095436096191,25.770472717285156,-1.0089887586373247,0.9622531686517362,-0.5934384694617046,29.358009739925986,66.12824731124076,155.8389772114001,4.444576678171595,0.7939040603131056,-2.8883132412168617,0.34323700352718955,0.9912928932591488,-0.14066908986944904,-0.8956391005776823,0.7442746594548226,-0.4254608534276485,-1.3003763528158054,9.126538016209526,1.6476043975587227
7.2,-1.3456006050109863,1010.506420135498,57.65724182128906,-1.0,-1.0,49.274822249181305,76.6958122253418,-1.0,49.0,33.00075912475586,-122.87199266460128,-1.0,-1.240756730216987,0.6833152587634592,0.12937662684360013,-0.9365603120258197,-0.7045345601830872,-0.08320075471283495,-1.465350588792428,-1.6446802139282226,51.080461502075195,16.283651733398436,-0.30511170662939546,-0.42849186565727004,0.2613760754466057,36.82728737278988,73.95775001927426,146.2843330784848,1.1628897064163162,-0.5692327259746193,3.2630985619152617,0.05155258178710938,1.0036148071289062,0.2735565185546875,-0.21335269343107938,-0.6852890491485596,0.25381686091423034,-0.42177950905772044,9.736952837369738,-0.5129388804874491
7.3,-1.3823728561401367,1010.5108261108398,57.65724182128906,-1.0,-1.0,49.274822249181305,76.6958122253418,-1.0,49.0,33.00075912475586,-122.87199266460128,-1.0,-2.412017609560081,0.7201833162604991,0.033086577603462855,0.12488214485858742,-0.6861950081992599,0.01667185213114868,-1.4616403474363628,-2.9665691375732424,51.25482177734375,15.501345825195312,-1.960312302969396,4.429704189300537,0.2676945626735687,36.193328857421875,74.24407196044922,144.82144012451172,-0.00873024358779242,8.914215247473418,9.794117049707467,0.04319305419921876,1.8510467529296875,0.8926116943359375,-1.949355985969305,4.579247677326203,0.3376351773738861,0.3973690838134389,9.735717450355887,-0.6654598539534583
7.4,-1.419145107269287,1010.5152320861816,57.65724182128906,-1.0,-1.0,49.274822249181305,76.6958122253418,-1.0,49.0,33.00075912475586,-122.87199266460128,-1.0,-0.9423984114566291,0.6853263572831079,-0.011337637329853809,0.22394729755792137,-0.699507532455584,-0.05840594599584635,-1.3150358458212126,-4.78898196220398,45.904248809814455,21.726854705810545,0.5067528580315412,1.1965841330587863,0.8766205217689276,33.69905250950863,68.17343480963456,152.51163526836194,3.641445202784217,7.279298988000452,3.1548644843892912,0.3482872009277344,1.6712032318115235,0.3993152618408203,0.4976512160152198,1.21565642952919,0.8488433301448821,-0.26403477619382293,9.26864808862172,0.8454274674519989
7.5,-1.4559173583984375,1010.5196380615234,57.65724182128906,-1.0,-1.0,49.274822249181305,76.6958122253418,-1.0,49.0,33.00075912475586,-122.87199266460128,-1.0,0.527220786646823,0.6504693983057165,-0.05576185226317047,0.32301245025725533,-0.7128200567119078,-0.13348374412284136,-1.1684313442060625,-6.611394786834717,40.55367584228516,27.952363586425783,2.9738180190324783,-2.0365359231829645,1.4855464808642864,31.204776161595394,62.1027976588199,160.20183041221216,7.2916206491562265,5.644382728527486,-3.484388080928884,0.65338134765625,1.4913597106933594,-0.09398117065429687,2.9446584179997446,-2.147934818267822,1.3600514829158783,-0.9254386362010848,8.801578726887554,2.356314788857456
7.6,-1.5172191619873048,1010.5269775390625,57.65724182128906,-1.0,-1.0,49.274822249181305,76.6958122253418,-1.0,49.0,33.00075912475586,-122.87199266460128,-1.0,0.5889654724250619,0.6596440702314406,-0.0468832089955768,0.5421040918118825,-0.7081821999735032,-0.12422111699045954,-1.1972771208602913,-6.701906347274781,41.22654285430909,28.4274959564209,-0.1364686235785486,0.7202600996941326,0.5693188291043043,31.875631633557774,63.927559300472865,159.14236570659438,2.197532631481174,7.739986758938729,-3.9884714666036,0.14008979797363286,1.7076400756835937,-0.1718883514404297,-0.1370938215404749,0.6552091687917709,0.44650074280798435,-0.7907821300490689,8.946274110391736,2.230745728312142
7.7,-1.578520965576172,1010.5343170166016,57.65724182128906,-1.0,-1.0,49.274822249181305,76.6958122253418,-1.0,49.0,33.00075912475586,-122.87199266460128,-1.0,0.6507101582033007,0.6688187421571647,-0.03800456572798312,0.7611957333665097,-0.7035443432350985,-0.1149584898580777,-1.2261228975145197,-6.792417907714844,41.89940986633301,28.902628326416014,-3.246755266189575,3.4770561225712298,-0.3469088226556779,32.54648710552015,65.75232094212582,158.08290100097656,-2.896555386193879,9.835590789349972,-4.492554852278316,-0.3732017517089844,1.9239204406738282,-0.2497955322265625,-3.2188460610806944,3.458353155851364,-0.4670499972999096,-0.6561256238970532,9.090969493895917,2.1051766677668273
7.8,-1.639822769165039,1010.5416564941406,57.65724182128906,-1.0,-1.0,49.274822249181305,76.6958122253418,-1.0,49.0,33.00075912475586,-122.87199266460128,-1.0,-1.755047609922648,0.6825284945908902,0.13473802174328647,-1.507316484309023,-0.7094361749978935,-0.03803330397073691,-1.3972593116476968,-4.140514755249024,52.14612808227539,11.830000305175782,2.054297351837158,-5.595913743972778,-3.2292858362197876,35.134027099609376,74.59427947998047,143.2730514526367,11.10432254121296,-9.000234073281586,4.649203830810859,1.11929931640625,0.09411163330078125,0.3646026611328125,2.0939406752586365,-5.5892606496810915,-3.192456269264221,-0.5672016923311026,9.632333005274832,-1.1802599708115962
7.9,-1.7011245727539064,1010.5489959716797,57.65724182128906,-1.0,-1.0,49.274822249181305,76.6958122253418,-1.0,49.0,33.00075912475586,-122.87199266460128,-1.0,-0.7044275937543865,0.701039219886773,0.07818881948021408,-0.4004705964563384,-0.6993508125040104,-0.02440689138090532,-1.4368159655087793,-3.1738540649414064,51.41768608093261,14.675405883789061,1.3870604027062654,-2.9752028889954087,-1.4772980682551862,35.618896243446756,73.92377403660825,145.76365272120427,4.012403107028305,-2.668127424655184,4.4593154040132506,0.4190734863281249,0.7193145751953125,0.3885890960693359,1.4343043140601366,-3.030990879237652,-1.4595768230501562,-0.0906297778725833,9.694854606413394,-0.6548541113754583
8.0,-1.7624263763427737,1010.5563354492188,57.65724182128906,-1.0,-1.0,49.274822249181305,76.6958122253418,-1.0,49.0,33.00075912475586,-122.87199266460128,-1.0,0.3461924224138751,0.7195499451826558,0.021639617217141686,0.7063752913963459,-0.6892654500101273,-0.010780478791073734,-1.4763726193698616,-2.207193374633789,50.68924407958984,17.520811462402342,0.7198234535753727,-0.3544920340180397,0.2746896997094154,36.10376538728413,73.25326859323602,148.2542539897718,-3.07951632715635,3.663979223971217,4.269426977215642,-0.28115234375,1.3445175170898438,0.41257553100585936,0.7746679528616369,-0.47272110879421236,0.27330262316390874,0.38594213658593596,9.757376207551955,-0.12944825193932047
8.1,-1.823728179931641,1010.5636749267577,57.65724182128906,-1.0,-1.0,49.274822249181305,76.6958122253418,-1.0,49.0,33.00075912475586,-122.87199266460128,-1.0,0.7821820034390181,0.6596068873665835,-0.0921188584523231,0.881969745844574,-0.723995003259815,-0.05364908481086776,-1.2741745814383467,-10.515974617004394,43.13155136108398,25.932421112060545,0.5441222999244928,-0.24342976268380878,0.3537358677946031,27.79665254291735,65.46148681640625,156.83961767899365,3.598089934671213,2.6279555148123945,-1.1904711197865332,0.25883598327636725,1.1950950622558594,0.06855545043945316,0.5171315291430801,-0.20260129892267298,0.30473749875091016,-1.0053565604371508,9.140420849481,1.8473390118199504
8.2,-1.8850299835205082,1010.5710144042968,57.65724182128906,-1.0,-1.0,49.274822249181305,76.6958122253418,-1.0,49.0,33.00075912475586,-122.87199266460128,-1.0,1.218171584464161,0.5996638295505112,-0.20587733412178788,1.057564200292802,-0.7587245565095028,-0.09651769083066179,-1.0719765435068318,-18.824755859375,35.573858642578124,34.34403076171875,0.368421146273613,-0.1323674913495779,0.4327820358797908,19.489539698550576,57.66970503957648,165.42498136821547,10.275696196498776,1.5919318056535718,-6.650369216788708,0.7988243103027344,1.045672607421875,-0.2754646301269531,0.25959510542452335,0.06751851094886642,0.33617237433791153,-2.3966552574602376,8.523465491410047,3.8241262755792214
8.3,-1.9463317871093753,1010.5783538818358,57.65724182128906,-1.0,-1.0,49.274822249181305,76.6958122253418,-1.0,49.0,33.00075912475586,-122.87199266460128,-1.0,0.6234669232834902,0.7145591815963497,0.021982755804748563,0.7713819702460883,-0.6780485760143765,-0.08165274147047087,-1.3785853914388064,-1.0511428833007812,47.328543472290036,23.502165222167967,-4.175828531384468,6.569501513242722,1.70101596750319,37.71121673583984,70.4528579711914,153.222705078125,-7.860646573112905,23.31097156253636,-2.7006011373716587,-0.85177001953125,3.3431106567382813,-0.2125457763671875,-4.085001105815172,6.659430587291718,1.9013162076473236,0.3874902916731476,9.586062194035053,0.8707128742729499
8.4,-2.0076335906982425,1010.5856933593749,57.65724182128906,-1.0,-1.0,49.274822249181305,76.6958122253418,-1.0,49.0,33.00075912475586,-122.87199266460128,-1.0,0.11512931863116982,0.7095389249489845,0.0351058321348079,0.5566478490724333,-0.685747098552546,-0.053883678088955486,-1.4173892420824366,-1.9336825370788575,49.05638561248779,20.28901481628418,-1.9560069750994442,1.8342426411807544,0.4002607936039566,36.76876015914114,71.91256252088044,150.5401132684005,-2.175367829025686,7.120421028399768,-0.055041058044396074,-0.22043113708496087,1.7040027618408204,0.018403625488281256,-1.9356953123584386,1.8519985809922215,0.5110179947689175,0.23909841890972222,9.657728786268233,0.34555877172546856
8.5,-2.06893539428711,1010.593032836914,57.65724182128906,-1.0,-1.0,49.274822249181305,76.6958122253418,-1.0,49.0,33.00075912475586,-122.87199266460128,-1.0,-0.3932082860211505,0.7045186683016192,0.04822890846486723,0.34191372789877816,-0.6934456210907154,-0.026114614707440104,-1.4561930927260667,-2.8162221908569336,50.784227752685545,17.075864410400392,0.2638145811855793,-2.901016230881214,-0.9004943802952766,35.826303582442435,73.37226707056949,147.857521458676,3.5099109150615333,-9.070129505736826,2.5905190212828666,0.4109077453613281,0.06489486694335937,0.24935302734375,0.21361048109829425,-2.955433425307274,-0.8792802181094885,0.09070654614629686,9.729395378501414,-0.17959533082201262
8.6,-2.13314380645752,1010.6007232666014,57.65724182128906,-1.0,-1.0,49.274822249181305,76.6958122253418,-1.0,49.0,33.00075912475586,-122.87199266460128,-1.0,-0.019591894794172282,0.6930201035629666,0.0037545302590129975,0.1900829534812142,-0.6992123728929078,-0.034002455709607846,-1.3837711329802582,-4.431264638900757,48.69530935287476,19.14243392944336,1.254674092307687,-1.8349924087524414,0.44761540349572904,33.62846414666427,70.97646171168277,150.10323132966693,0.8347257703542428,1.324059189100712,3.097186127967369,0.03910255432128906,1.1114929199218748,0.361492919921875,1.260346112959087,-1.6965178474783897,0.4480576621368526,-0.21482952482394851,9.529926859867498,0.37972211574603043
8.7,-2.19735221862793,1010.608413696289,57.65724182128906,-1.0,-1.0,49.274822249181305,76.6958122253418,-1.0,49.0,33.00075912475586,-122.87199266460128,-1.0,0.354024496432806,0.6815215388243139,-0.04071984794684123,0.038252179063650256,-0.7049791246951002,-0.04189029671177559,-1.3113491732344498,-6.04630708694458,46.606390953063965,21.209003448486328,2.245533603429794,-0.7689685866236686,1.7957251872867346,31.430624710886104,68.58065635279605,152.3489412006579,-1.8404593743530473,11.718247883938252,3.603853234651871,-0.33270263671875,2.1580909729003905,0.4736328125,2.3070817448198797,-0.43760226964950544,1.775395542383194,-0.5203655957941938,9.33045834123358,0.9390395623140735
8.8,-2.26156063079834,1010.6161041259766,57.65724182128906,-1.0,-1.0,49.274822249181305,76.6958122253418,-1.0,49.0,33.00075912475586,-122.87199266460128,-1.0,1.086993252441537,0.5607158115295332,-0.19411976517551416,1.1303668573218406,-0.7718939167490027,-0.2226797446677078,-0.8943686132521727,-17.495960235595703,27.72384719848633,42.92399444580078,-0.34469452425837516,1.4414076805114746,-2.140432929992676,21.76429138183594,50.42867431640625,173.85741424560547,15.199305600254982,-2.946379907859862,-12.377542573632002,1.481903076171875,0.48299102783203124,-0.6971298217773437,-0.4091984063386917,0.790024870634079,-2.2546670973300933,-2.630779354674518,7.636486169358193,5.521401836381554
8.9,-2.32576904296875,1010.6237945556641,57.65724182128906,-1.0,-1.0,49.274822249181305,76.6958122253418,-1.0,49.0,33.00075912475586,-122.87199266460128,-1.0,0.5689504660175112,0.6099029106932605,-0.057725419732384015,0.746580841768607,-0.738111671792913,-0.17976134251749992,-1.0891606870919885,-10.730337190628052,36.67554788589477,33.58299217224121,-1.5756953552365305,1.6811793856322765,-1.1837191969156264,28.26960489373458,59.68823338558799,163.7607038397538,10.106556792554493,4.210000863354281,-7.380475772449291,0.9484088897705079,1.294007110595703,-0.4218425750732422,-1.585942168161273,1.2827820111066104,-1.2334091693162916,-1.7226199053821214,8.46967977449551,3.2734921310388154
9.0,-2.38997745513916,1010.6314849853516,57.65724182128906,-1.0,-1.0,49.274822249181305,76.6958122253418,-1.0,49.0,33.00075912475586,-122.87199266460128,-1.0,0.050907679593485265,0.6590900098569878,0.07866892571074612,0.36279482621537334,-0.7043294268368234,-0.13684294036729208,-1.2839527609318044,-3.9647141456604005,45.62724857330322,24.24198989868164,-2.8066961862146855,1.9209510907530785,-0.22700546383857717,34.77491840563322,68.94779245476974,153.66399343390214,5.013807984854003,11.366381634568423,-2.383408971266579,0.4149147033691406,2.105023193359375,-0.14655532836914062,-2.762685929983854,1.7755391515791417,-0.21215124130249013,-0.8144604560897246,9.30287337963283,1.0255824256960768
9.1,-2.4541858673095707,1010.6391754150391,57.6572416099793,-1.0,-1.0,49.27482220286281,76.69581201403203,-1.0,49.00052099014262,33.047129394709195,-122.87199246764469,-1.0,0.408826137667752,0.6910044833618081,0.039836063587917823,0.4100415200540966,-0.6949032485960377,-0.0695641007461005,-1.3772756953438412,-3.4760263442993162,47.81845026016235,21.49256286621094,-1.5168634364381433,0.8198869518935681,-0.40175586957484477,35.30818577816612,70.8224684062757,151.44730577970807,-0.5364559875207178,4.651466997276396,0.21312103018791406,-0.07753601074218752,1.4389732360839842,0.06633300781249998,-1.4948838351294398,0.8238165199756623,-0.3607600489631295,-0.16800039822537527,9.527556097535118,0.5263468649008305
9.2,-2.5183942794799807,1010.6468658447266,57.65724139866954,-1.0,-1.0,49.27482215654431,76.69581180272228,-1.0,49.00104198028523,33.09349966466253,-122.8719922706881,-1.0,0.7667445957420188,0.7229189568666283,0.0010032014650895344,0.4572882138928199,-0.685477070355252,-0.00228526112490894,-1.4705986297558777,-2.9873385429382324,50.00965194702148,18.743135833740233,-0.22703068666160106,-0.2811771869659424,-0.5765062753111124,35.84145315069901,72.69714435778167,149.23061812551398,-6.086719959895438,-2.0634476400156316,2.809651031642407,-0.5699867248535156,0.7729232788085938,0.2792213439941406,-0.22708174027502537,-0.12790611162781715,-0.5093688566237689,0.4784596596389741,9.752238815437405,0.02711130410558423
9.3,-2.582602691650391,1010.6545562744142,57.65724118735978,-1.0,-1.0,49.27482211022581,76.69581159141251,-1.0,49.00156297042785,33.13986993461587,-122.87199207373149,-1.0,0.3940604207964267,0.6661162733311442,0.0035007953405379573,0.5456151446124274,-0.7289315598633611,-0.10346287822682954,-1.3709007777390196,-5.462947654724121,46.76057510375976,24.009127807617187,5.456345176696777,-4.288723856210709,1.4660605493932963,32.52267913818359,68.85665893554688,155.42359771728516,0.7897902938915602,11.947160626012682,3.9370138117840883,-0.006085205078125,2.1609512329101563,0.5629440307617187,5.510607576370239,-4.713504421710968,1.611911890283227,-0.8697416363543085,9.519326219297945,1.3730261114382614
9.4,-2.646811103820801,1010.6622467041017,57.65724097605002,-1.0,-1.0,49.274822063907315,76.69581138010275,-1.0,49.00208396057046,33.1862402045692,-122.8719918767749,-1.0,0.8308643420635227,0.6307216785094603,-0.09359969065883113,0.8698897449235676,-0.742830827532873,-0.12229517047843705,-1.1951834411747375,-11.409874963760377,39.494342136383054,31.06596984863281,1.9134028516709805,-0.8890541143715383,0.11099889222532511,27.031950980738586,61.97146365517064,161.93331310874538,4.362071292884694,8.834281323762983,-3.089334654588531,0.28972854614257815,1.7685794830322266,-0.017489624023437567,1.8789882220327851,-0.9815401159226891,0.22397979181259875,-1.567562810767134,8.867357108638881,2.8224520702738625
9.5,-2.711019515991211,1010.6699371337892,57.65724076474026,-1.0,-1.0,49.27482201758882,76.69581116879299,-1.0,49.00260495071308,33.23261047452254,-122.87199167981831,-1.0,1.2676682633306184,0.5953270836877762,-0.19070017665820022,1.1941643452347077,-0.756730095202385,-0.14112746273004456,-1.0194661046104554,-17.35680227279663,32.228109169006345,38.12281188964844,-1.6295394733548165,2.510615627467632,-1.2440627649426461,21.541222823293584,55.08626837479441,168.4430285002056,7.934352291877827,5.721402021513283,-10.115683120961151,0.5855422973632812,1.3762077331542968,-0.5979232788085938,-1.7526311323046684,2.7504241898655892,-1.1639523066580295,-2.2653839851799593,8.21538799797982,4.271878029109463
9.6,-2.770251433054606,1010.677038828532,57.6572405534305,-1.0,-1.0,49.27482197127032,76.69581095748323,-1.0,49.003125940855696,33.278980744475874,-122.87199148286172,-1.0,1.1129794990196724,0.6362194208655172,-0.04623795720639204,1.234173335213418,-0.7293052459809589,-0.13121048076768665,-1.2144377769239996,-9.054679822921754,40.47601728439331,29.908527374267578,-0.7695733293890954,0.44410154148936254,-0.8871734227985144,29.659935981348937,63.265879701313224,160.28098652488308,5.272333778556995,1.7204622070723774,-3.830103791872663,0.40422210693359373,1.0992965698242188,-0.14389610290527344,-0.8024594841524958,0.40453210324049005,-0.8534750614315272,-1.3025678413713029,8.934823750351146,2.414423411614049
9.7,-2.8294833501180015,1010.6841405232749,57.65724034212074,-1.0,-1.0,49.27482192495182,76.69581074617346,-1.0,49.00364693099831,33.32535101442921,-122.87199128590511,-1.0,0.9582907347087263,0.6771117580432582,0.09822426224541614,1.2741823251921287,-0.7018803967595328,-0.12129349880532872,-1.4094094492375437,-0.752557373046875,48.72392539978027,21.694242858886717,0.09039281457662582,-1.6224125444889068,-0.5302840806543826,37.778649139404294,71.44549102783203,152.11894454956055,2.6103152652361614,-2.2804776073685282,2.455475537215825,0.22290191650390626,0.8223854064941406,0.3101310729980469,0.1477121639996767,-1.9413599833846091,-0.5429978162050249,-0.33975169756264656,9.654259502722471,0.556968794118634
9.8,-2.8887152671813965,1010.6912422180177,57.657240130810976,-1.0,-1.0,49.274821878633325,76.69581053486371,-1.0,49.004167921140926,33.371721284382545,-122.87199108894852,-1.0,-0.1914393105237265,0.7183357912849443,0.06628048107452757,-0.033574195702889664,-0.6799226710819493,-0.04438797323159884,-1.4705126503517132,-0.11255683898925781,50.08253402709961,18.19396057128906,-1.8421579137444497,6.425229352712631,1.1678947776556015,38.55133565266927,73.06260850694444,147.80594550238715,-1.0933077457439893,8.49504372827202,11.171604159827568,-0.08016815185546874,1.81593017578125,1.0874160766601562,-1.7396428823471068,6.465544351935387,1.0960642963647842,0.4219586154124638,9.749999249043166,-0.2906608307833224
9.9,-2.9479471842447915,1010.6983439127605,57.657239919501215,-1.0,-1.0,49.27482183231483,76.69581032355394,-1.0,49.004688911283544,33.41809155433588,-122.87199089199193,-1.0,0.4315793901777025,0.6678969698841115,-0.019793487799312018,0.42838809110962645,-0.6987197050570058,-0.1261858679756453,-1.2527648005944398,-3.2812124252319332,41.875025272369385,26.713494110107423,0.7978286053985357,2.1286754336208107,1.4698275476694107,35.33929978755482,64.73518416198374,156.8341511955038,2.8621013790738585,7.416231803905218,2.925884119068776,0.2516696929931641,1.653040313720703,0.487173843383789,0.8263911433517932,2.0831812113523487,1.4421055316925049,-0.33854165599446107,8.908227887466028,1.8591748648459396
10.0,-3.007179101308187,1010.7054456075034,57.657239708191454,-1.0,-1.0,49.27482178599633,76.69581011224419,-1.0,49.005209901426156,33.46446182428922,-122.87199069503534,-1.0,1.0545980908791317,0.6174581484832787,-0.1058674566731516,0.8903503779221426,-0.7175167390320623,-0.20798376271969174,-1.0350169508371665,-6.449868011474609,33.66751651763916,35.233027648925784,3.437815124541521,-2.16787848547101,1.77176031768322,32.12726392244038,56.40775981702303,165.86235688862047,6.8175105038917065,6.337419879538417,-5.319835921690016,0.5835075378417969,1.4901504516601562,-0.11306838989257813,3.3924251690506937,-2.29918192923069,1.7881467670202256,-1.099041927401386,8.06645652588889,4.009010560475202
10.1,-3.066411018371582,1010.7125473022462,57.657239496881694,-1.0,-1.0,49.27482173967783,76.69580990093442,-1.0,49.005730891568774,33.51083209424255,-122.87199049807873,-1.0,0.6806943858410196,0.6218341749336516,-0.03802007975113218,0.7776650276688883,-0.7131265794514654,-0.21173394580452007,-1.1007007515792653,-5.360774564743042,36.05448913574219,33.119074249267584,-0.27873203419148895,0.05430180840194243,0.5402077883481979,33.29444365250437,59.07834737677324,163.37399460641961,6.002156433762387,8.737335285005495,-5.149639766101259,0.4996021270751953,1.754237747192383,-0.18167991638183595,-0.29269727282226077,-0.10424060877412566,0.4883730173110963,-1.0630417539385517,8.361143850322366,3.3086745288093904
10.2,-3.125642935434977,1010.719648996989,57.65723928557193,-1.0,-1.0,49.27482169335933,76.69580968962467,-1.0,49.006251881711385,33.55720236419589,-122.87199030112214,-1.0,0.30679068080290756,0.6262102013840243,0.029827297170887224,0.6649796774156341,-0.7087364198708687,-0.2154841288893484,-1.166384552321364,-4.271681118011474,38.44146175384522,31.005120849609376,-3.9952791929244995,2.276482102274895,-0.6913447409868241,34.46162338256836,61.74893493652344,160.88563232421876,5.186802363633067,11.137250690472573,-4.979443610512503,0.41569671630859373,2.0183250427246096,-0.25029144287109373,-3.9778197146952152,2.0907007116824388,-0.8114007323980331,-1.0270415804757176,8.655831174755841,2.6083384971435786
10.3,-3.1848748524983725,1010.7267506917319,57.65723907426217,-1.0,-1.0,49.27482164704083,76.6958094783149,-1.0,49.006772871854004,33.603572634149224,-122.87199010416555,-1.0,1.3097567401315426,0.7285737569335466,0.10224527136250144,0.9094775472516551,-0.6648814060170747,-0.10692359461940877,-1.4385833818126015,3.6472659640842013,50.448311275906036,18.57919141981337,1.0384917587041855,-3.5490582466125487,-3.4061110258102416,43.17420620388455,72.83517625596788,149.77600267198352,-7.367075867306854,-9.190523076684938,0.189756020107617,-0.6195846557617187,0.067120361328125,0.01956634521484375,1.1886630497044988,-3.6200419002109103,-3.609771086110009,0.8598186809245859,9.70572573611107,-0.021962182103087105
10.4,-3.2441067695617676,1010.7338523864747,57.657238862952404,-1.0,-1.0,49.27482160072233,76.69580926700515,-1.0,49.00729386199662,33.64994290410256,-122.87198990720896,-1.0,1.0290664217269296,0.7345060849610736,0.04271069329448871,0.684057714950598,-0.6646780414945044,-0.07053639369268644,-1.403394371834897,2.3672789361741806,49.684020635816786,19.794668112860787,1.3461659267544746,-2.8099898166954516,-0.4618157140910628,40.9843668798257,72.08855523003473,150.79135216606988,-5.9556212678299385,-0.7447374432008793,2.80088089321789,-0.4804656982421875,0.9757946014404297,0.32231330871582026,1.3343864176008435,-2.7459492787317785,-0.7453959508902495,0.9412631433728911,9.643656283761917,0.31077967770789394
10.5,-3.3033386866251626,1010.7409540812175,57.65723865164264,-1.0,-1.0,49.274821554403836,76.69580905569538,-1.0,49.007814852139234,33.696313174055895,-122.87198971025235,-1.0,0.7483761033223167,0.7404384129886006,-0.016823884773524023,0.4586378826495408,-0.6644746769719341,-0.0341491927659641,-1.3682053618571923,1.0872919082641601,48.919729995727536,21.010144805908205,1.6538400948047638,-2.0709213867783545,2.4824795976281164,38.794527555766855,71.34193420410156,151.80670166015625,-4.544166668353024,7.701048190283179,5.412005766328163,-0.34134674072265625,1.8844688415527344,0.6250602722167968,1.4801097854971885,-1.871856657252647,2.11897918432951,1.0227076058211964,9.581586831412762,0.643521537518875
10.6,-3.362570603688558,1010.7480557759604,57.65723844033288,-1.0,-1.0,49.27482150808534,76.69580884438562,-1.0,49.00833584228185,33.74268344400923,-122.87198951329576,-1.0,1.0131276526968995,0.6786308160257419,-0.0958966330140696,0.8556757591327036,-0.7044158354315875,-0.09607644970439266,-1.202751784003897,-7.055442094802856,41.5810206413269,29.297564697265624,0.12054123945999895,0.4473611481487749,0.41675016805529586,31.988529265554327,64.47781639099121,159.7969177246094,1.198492936543757,4.000873851145655,-1.9664973890472757,0.05263214111328124,1.410527801513672,0.047528076171875044,0.2206420192494989,0.14605363876326005,0.3542499089613558,-0.35562549487419437,8.990895020919591,2.5124316219723974
10.7,-3.421802520751953,1010.7551574707032,57.65723822902312,-1.0,-1.0,49.27482146176684,76.69580863307586,-1.0,49.00885683242446,33.789053713962566,-122.87198931633917,-1.0,1.2778792020714822,0.6168232190628833,-0.1749693812546152,1.2527136356158663,-0.7443569938912409,-0.1580037066428212,-1.0372982061506018,-15.198176097869872,34.24231128692627,37.584984588623044,-1.412757615884766,2.9656436830759048,-1.6489792615175247,25.1825309753418,57.61369857788086,167.7871337890625,6.941152541440539,0.3006995120081305,-9.345000544422716,0.44661102294921873,0.9365867614746094,-0.5300041198730469,-1.038825746998191,2.1639639347791673,-1.4104793664067983,-1.7339585955695853,8.400203210426419,4.3813417064259195
10.8,-3.492881011962891,1010.7637023925782,57.65723801771336,-1.0,-1.0,49.27482141544834,76.6958084217661,-1.0,49.00937782256708,33.8354239839159,-122.87198911938258,-1.0,-0.007700077047357335,0.6464478388181505,0.19701840447211563,0.5405923084276771,-0.7035619756238882,-0.18269677943179802,-1.3906710885731028,-0.5996551513671875,49.49644012451172,19.24114532470703,-0.7777132987976074,2.808514431118965,3.0195332884788515,37.186881171332466,72.84420098198785,148.33139377170139,12.328948156363293,18.181359668146968,4.3431144351514055,1.44033203125,2.52060546875,0.508563232421875,-1.4013210013508797,4.365008509159088,3.5581135749816895,-0.8555149594511999,9.620065469019412,0.14680688657520188
10.9,-3.563959503173828,1010.7722473144532,57.6572378064036,-1.0,-1.0,49.274821369129846,76.69580821045633,-1.0,49.0098988127097,33.88179425386924,-122.87198892242597,-1.0,0.7924560908157255,0.6866865697799527,0.10515335896413087,1.1425136815333914,-0.6878630489689336,-0.13803855297649933,-1.3964248125808747,-0.2969806671142578,48.851673698425294,21.32668228149414,-0.757869977131486,1.1591028273105621,0.8676486142445357,38.19962649875217,71.91115230984158,150.99678514268663,3.9270739987836585,7.340873663677723,1.8763981303199673,0.5035583496093751,1.6335205078125,0.31125488281249997,-0.9731369491666555,1.6278061047196388,1.0332998193800451,-0.0382359142069717,9.63226938006714,0.6190671833425414
11.0,-3.6350379943847657,1010.7807922363282,57.65723759509384,-1.0,-1.0,49.27482132281135,76.69580799914658,-1.0,49.01041980285231,33.92816452382257,-122.87198872546938,-1.0,1.5926122586788083,0.7269253007417549,0.013288313456146127,1.7444350546391056,-0.6721641223139789,-0.09338032652120067,-1.4021785365886466,0.005693817138671875,48.20690727233887,23.41221923828125,-0.7380266554653645,-0.4903087764978409,-1.2842360599897802,39.212371826171875,70.97810363769531,153.66217651367188,-4.474800158795975,-3.4996123407915234,-0.5903181745114713,-0.43321533203125,0.746435546875,0.113946533203125,-0.5449528969824314,-1.1093962997198106,-1.4915139362215997,0.7790431310372566,9.644473291114867,1.091327480109881
11.1,-3.706116485595703,1010.7893371582032,57.65723738378408,-1.0,-1.0,49.27482127649285,76.69580778783681,-1.0,49.01094079299493,33.97453479377591,-122.87198852851279,-1.0,1.0698254362904536,0.6925185365975464,-0.022452673516342583,1.0136845110176023,-0.6937167467310668,-0.09470867237015626,-1.3172487096379493,-3.8708681106567386,45.849448680877686,24.142515945434567,1.1651972316205501,-1.7117308109998703,0.1303301796782761,33.59929014507093,67.61132692035875,155.45953674316405,1.590396832904946,1.7695934054054319,0.570252195397328,0.1328243255615234,1.1372661590576172,0.19429359436035154,1.2200621152296662,-1.9844468861818314,0.14648453111294657,-0.10098255695804947,9.34867880915709,1.4553547080796267
11.2,-3.7771949768066406,1010.7978820800782,57.65723717247432,-1.0,-1.0,49.274821230174354,76.69580757652706,-1.0,49.01146178313754,34.020905063729245,-122.8719883315562,-1.0,0.547038613902099,0.658111772453338,-0.05819366048883129,0.28293396739609894,-0.7152693711481545,-0.09603701821911184,-1.232318882687252,-7.747430038452149,43.491990089416504,24.87281265258789,3.068421118706465,-2.9331528455019,1.5448964193463326,27.986208463969984,64.2445502030222,157.25689697265625,7.655593824605866,7.038799151602388,1.730822565306127,0.6988639831542969,1.5280967712402345,0.2746406555175781,2.985077127441764,-2.8594974726438522,1.7844829984474928,-0.9810082449533557,9.05288432719931,1.8193819360493726
11.3,-3.8482734680175783,1010.8064270019532,57.65723696116456,-1.0,-1.0,49.274821183855856,76.69580736521729,-1.0,49.01198277328016,34.06727533368258,-122.87198813459959,-1.0,1.4047304176728597,0.6438653408984452,-0.18633862857290706,1.3108632268829392,-0.727486282678107,-0.12242403400708668,-1.0995012749771302,-15.061719131469726,36.33019828796387,36.07950134277344,-2.536879849433899,1.8689175963401794,-4.563430404663086,25.879569159613716,60.175423516167534,166.53358629014758,3.629998029301241,-2.090445507830381,-5.300047108471245,0.18628997802734376,0.8040802001953125,-0.1240509033203125,-2.345687448978424,2.3437766313552855,-4.277898645401001,-1.318276630950421,8.698935601693092,4.0572619179652625
11.4,-3.9193519592285155,1010.8149719238282,57.657236749854796,-1.0,-1.0,49.27482113753736,76.69580715390754,-1.0,49.01250376342278,34.113645603635916,-122.871987937643,-1.0,1.3866039093124274,0.6856173332374398,-0.07508337122029872,1.2561980557196,-0.7001820352324547,-0.0949871226815105,-1.262922098610103,-7.381129360198974,42.884083938598636,28.268556594848633,-1.8086187469478894,1.159251748760672,-2.4838454729632327,32.540857272677954,66.19172710842557,158.64389466179742,1.405470952198319,1.1683700740561629,-1.5650028785424492,0.09850564253957649,1.1118339940121298,0.08452116313733553,-1.7559776613488793,1.2993238762021064,-2.4864132761955258,-0.30249221735425524,9.179889228777363,2.2567176601739076
