time,Barometer_relativeAltitude,Barometer_pressure,Location_altitude,Location_speedAccuracy,Location_bearingAccuracy,Location_latitude,Location_altitudeAboveMeanSeaLevel,Location_bearing,Location_horizontalAccuracy,Location_verticalAccuracy,Location_longitude,Location_speed,Orientation_yaw,Orientation_qx,Orientation_qz,Orientation_roll,Orientation_qw,Orientation_qy,Orientation_pitch,Magnetometer_z,Magnetometer_y,Magnetometer_x,GyroscopeUncalibrated_z,GyroscopeUncalibrated_y,GyroscopeUncalibrated_x,MagnetometerUncalibrated_z,MagnetometerUncalibrated_y,MagnetometerUncalibrated_x,Accelerometer_z,Accelerometer_y,Accelerometer_x,AccelerometerUncalibrated_z,AccelerometerUncalibrated_y,AccelerometerUncalibrated_x,Gyroscope_z,Gyroscope_y,Gyroscope_x,Gravity_z,Gravity_y,Gravity_x
3.1,-0.3435020446777344,1010.3458404541016,56.42748108506203,1.2048777484454911,53.23674199694818,49.27503652313396,75.46605148911476,233.72074568271765,4.749026759141241,3.3572729817143663,-122.87246413025348,0.8327338535180597,0.8053725302693776,0.5484933129852332,-0.15473733509034399,0.709146783793509,-0.8102656605965644,-0.08807128724793266,-1.0566457250781311,-20.750736045837403,39.04742584228516,27.934663391113283,1.5211609870195388,2.613257831335068,4.1792141482234,15.934326171875,59.628076171875,160.41875152587892,14.901666674087343,6.570464723755419,-7.388719059983939,1.1540191650390625,1.5410903930664062,-0.43470001220703125,1.4457203030586243,2.7402513295412065,3.8290348410606385,-3.5705839364978673,8.465645550543368,3.094060313137248
3.2,-0.34825820922851564,1010.3464202880859,56.42748108506203,1.2048777484454911,53.23674199694818,49.27503652313396,75.46605148911476,233.72074568271765,4.749026759141241,3.3572729817143663,-122.87246413025348,0.8327338535180597,0.9932762606345775,0.582149721232487,-0.15193760820385954,0.9892347181103244,-0.7835874593495316,-0.1489947362999309,-1.0506865089891797,-18.901414489746095,33.328360366821286,37.446519470214845,-0.7511311778798699,-1.0446043893694879,-2.573321485519409,20.034381442599827,56.26024881998698,167.95300462510852,5.5650049920081335,-7.439176538484692,-9.094860568437278,0.29485626220703126,0.1116851806640625,-0.5115066528320312,-1.0227371141314507,-1.1280060186982155,-2.7683931469917296,-2.6963325055287033,8.491697574262322,4.032800144499391
3.3,-0.3530143737792969,1010.3470001220703,56.42748108506203,1.2048777484454911,53.23674199694818,49.27503652313396,75.46605148911476,233.72074568271765,4.749026759141241,3.3572729817143663,-122.87246413025348,0.8327338535180597,0.06658100722434118,0.6628596680445373,0.06519831809331655,0.2979006877080117,-0.7181428057120576,-0.09548537693295488,-1.3946999183282764,-8.429539680480957,44.857855224609374,25.631808471679687,-4.5802445948123935,7.367215740680694,0.48328648805618285,30.738192749023437,68.10623779296876,155.3513931274414,-4.245546852349043,23.296582854795453,-3.7168089188025517,-0.5951446533203125,3.3428680419921877,-0.3336273193359375,-4.3674332574009895,7.807325184345245,0.7079893570393324,-0.9305673451259449,9.610176761498451,0.5653211931671203
3.4,-0.3577705383300781,1010.3475799560547,56.42748108506203,1.2048777484454911,53.23674199694818,49.27503652313396,75.46605148911476,233.72074568271765,4.749026759141241,3.3572729817143663,-122.87246413025348,0.8327338535180597,-1.7018909521888361,0.6731309756758745,0.17197042336867738,-1.3237460804657073,-0.706188061379043,-0.0916341751328045,-1.4116493403707182,-3.986063766479492,51.71448516845703,12.610627746582031,1.0845098334364593,-4.579213279485702,-2.965008133649826,34.230826241629465,74.30782209123883,143.25179399762834,4.553801660494506,-5.04627684238553,3.5288373173777385,0.47435150146484373,0.4958953857421875,0.26549224853515624,1.2444820404052734,-4.651834528148174,-3.162454402446747,-0.6685807220387586,9.667310853605866,-0.9145485508806164
3.5,-0.36252670288085936,1010.3481597900391,56.42748108506203,1.2048777484454911,53.23674199694818,49.27503652313396,75.46605148911476,233.72074568271765,4.749026759141241,3.3572729817143663,-122.87246413025348,0.8327338535180597,-0.39180247966343507,0.74918309342345,-0.03031542047773248,-0.5006267744715265,-0.6529473184427732,0.046136682398420656,-1.4267771202834931,0.34707183837890626,50.80654602050781,16.49474334716797,-1.1208486557006836,-3.1006373427808285,-0.09886512383818627,38.98225708007813,73.4470932006836,147.12074279785156,-0.5688884864207356,-11.679696444130242,2.4521955766568704,0.01355438232421875,-0.22216033935546875,0.22594146728515624,-1.3622702747583388,-2.0918627858161924,0.01777405738830571,1.3566407753319294,9.704645085030794,-0.15102342398930166
3.6,-0.3672828674316406,1010.3487396240233,56.42748108506203,1.2048777484454911,53.23674199694818,49.27503652313396,75.46605148911476,233.72074568271765,4.749026759141241,3.3572729817143663,-122.87246413025348,0.8327338535180597,-1.4514514370104004,0.7040829828651286,0.14933447728569157,-1.1265781549755736,-0.6860259094419472,-0.07856937858385316,-1.455752459443349,1.3633625030517578,52.12625274658203,12.486958312988282,1.4116680473089218,4.100955665111542,0.10443450435996056,40.0235107421875,74.40363311767578,144.30254669189452,-3.3682855300269,5.392312807392775,11.044124136938004,-0.2851776123046875,1.5322341918945312,1.035150146484375,1.7948055148124695,2.4251201331615446,-0.12446470218710606,0.09336174505003728,9.727265030022263,-0.9830303545915846
3.7,-0.3720390319824219,1010.3493194580077,56.42748108506203,1.2048777484454911,53.23674199694818,49.27503652313396,75.46605148911476,233.72074568271765,4.749026759141241,3.3572729817143663,-122.87246413025348,0.8327338535180597,1.5118472655903825,0.626576594163541,-0.20511523336861903,1.231239217278059,-0.7327023033510531,-0.01448672682495242,-1.1909349212176517,-15.112104606628417,41.51964149475098,26.443727111816408,2.9480019003152846,-6.3785912036895756,5.5398221671581265,20.075829399956596,62.263220893012154,158.19486829969617,-5.995484627848267,19.931127815393804,-3.8407111270444836,-0.8334625244140625,2.9304931640625,-0.128759765625,2.7303105741739273,-4.058345460891724,5.683222436904908,-1.8697969462948945,8.919944847940503,2.5761686508714035
3.8,-0.37679519653320315,1010.3498992919921,56.42748108506203,1.2048777484454911,53.23674199694818,49.27503652313396,75.46605148911476,233.72074568271765,4.749026759141241,3.3572729817143663,-122.87246413025348,0.8327338535180597,0.9965469695759527,0.513783190588674,-0.2270603422661465,0.9457218666298068,-0.803442899932764,-0.1934109429630027,-0.8305671049650021,-23.473983192443846,25.520212936401368,41.05059051513672,0.061444909870624544,2.6461063981056214,-1.7076488077640533,15.675669860839843,48.20253295898438,172.0514343261719,24.768240309235004,-1.413989255455434,-10.789467677215338,2.1630874633789063,0.6318817138671875,-0.5461349487304688,-0.11781279444694522,0.9568993970751765,-1.6741806328296662,-3.8734742657746373,7.23183931768924,5.3413420894467825
3.9,-0.38155136108398435,1010.3504791259764,56.42748108506203,1.2048777484454911,53.23674199694818,49.27503652313396,75.46605148911476,233.72074568271765,4.749026759141241,3.3572729817143663,-122.87246413025348,0.8327338535180597,1.3953181908036736,0.6492431456326206,-0.13873719260902284,1.4178760224641764,-0.7260919762379705,-0.15413033496156808,-1.127652094788406,-10.832094955444337,35.3842269897461,38.280635070800784,-4.297178256511688,1.5669564243406058,-3.4014449596405028,29.202635023328995,59.34960428873698,167.98806423611111,-0.758011577701922,1.1480655225610736,-9.611985622938274,-0.1488739013671875,0.9510574340820312,-0.57135009765625,-4.744199168682099,2.0995350226759912,-3.2720672607421877,-0.968417241348108,8.757030355526208,3.9491149346575143
4.0,-0.3863075256347656,1010.3510589599608,56.42748108506203,1.2048777484454911,53.23674199694818,49.27503652313396,75.46605148911476,233.72074568271765,4.749026759141241,3.3572729817143663,-122.87246413025348,0.8327338535180597,-0.5373870716163798,0.6612633881813127,0.19947343434452933,-0.6721072074592153,-0.7037891595780043,-0.14441922845392974,-1.4369265129939373,0.2111286163330078,50.73215560913086,16.479588317871094,-1.8485285960137845,4.238715639710426,2.236443376541138,38.77894744873047,73.64192962646484,146.48083953857423,6.3452108622081935,16.209661185058952,5.244171112053096,0.5412277221679688,2.695086669921875,0.4667144775390625,-1.2349526673555373,2.813581083342433,2.004937022924423,-0.7809967210102826,9.703980308285654,-0.5505483440335234
4.1,-0.3910636901855469,1010.3516387939452,56.42748108506203,1.2048777484454911,53.23674199694818,49.27503652313396,75.46605148911476,233.72074568271765,4.749026759141241,3.3572729817143663,-122.87246413025348,0.8327338535180597,-1.208548868378806,0.7314204497057387,0.02673099048435168,0.09485539344712786,-0.6737341337562807,-0.006256026887092809,-1.448004811216181,-0.28524093627929686,50.8479866027832,17.028721618652344,0.33167796134948724,-6.845352125167847,-2.872842663526535,38.30314636230469,73.48482818603516,147.5822555541992,-5.001968154225051,-11.82315962626487,2.2859887528258143,-0.4216644287109375,-0.21395263671875,0.2090484619140625,0.1172015130519867,-6.2516977190971375,-2.581998038291931,0.7694685218336106,9.722292560758888,-0.22241128547524802
4.2,-0.5165739059448242,1010.3665542602538,56.42748108506203,1.2048777484454911,53.23674199694818,49.27503652313396,75.46605148911476,233.72074568271765,4.749026759141241,3.3572729817143663,-122.87246413025348,0.8327338535180597,-2.025150782334824,0.7182415490285217,0.06832869760122709,-1.939802725372767,-0.6846408089123154,0.008382020135831881,-1.4423140054523373,-1.3744194030761718,51.92721710205078,13.199380493164062,-0.5354506283998489,6.002123379707337,1.0372183773666621,37.11872863769531,74.70911492241754,143.29701402452258,-2.8567396766841413,3.2654024859961863,8.237858433231692,-0.2545257568359375,1.3007156372070312,0.7172119140625,-0.13391764909029008,6.157957077026367,0.7805189251899719,0.4021742354839807,9.72409931791991,-1.0372520965230465
4.3,-0.6420841217041016,1010.3814697265624,56.42748108506203,1.2048777484454911,53.23674199694818,49.27503652313396,75.46605148911476,233.72074568271765,4.749026759141241,3.3572729817143663,-122.87246413025348,0.8327338535180597,1.4210351514076405,0.6882659165840923,-0.0942339013465455,1.3611985431679048,-0.6942714993771165,-0.054790470491241514,-1.3301290710285758,-5.714847373962402,45.508976745605466,25.013571166992186,4.2288127660751345,-9.055356580018998,1.4704973459243775,31.813417053222658,67.56427307128907,156.22858428955078,-6.296733612352274,14.891370321000517,2.498622199512869,-0.6692535400390625,2.463751220703125,0.46740875244140623,3.9902742505073547,-9.439482748508453,2.2263102769851684,-0.3460237375399656,9.423258760779799,1.8790259377516385
4.4,-0.6466482335870917,1010.3820315274324,56.42748108506203,1.2048777484454911,53.23674199694818,49.27503652313396,75.46605148911476,233.72074568271765,4.749026759141241,3.3572729817143663,-122.87246413025348,0.8327338535180597,1.0209099164438231,0.5070783900921383,-0.2559394035860441,0.8682683901623349,-0.8023483999092349,-0.15484238925758484,-0.8359102599043636,-26.172323989868165,25.981526184082032,38.46299591064453,0.47214397266507147,3.9303360279649495,2.3614400029182434,12.157338460286459,48.31223381890191,169.15720960828992,22.81596618996754,6.879724968003332,-8.966526507921218,1.9027664184570312,1.4777847290039063,-0.404351806640625,0.4112459375988692,3.7889445424079895,1.6457455277442932,-4.137152645508051,7.261716803367436,4.976529527777135
4.5,-0.6512123454700817,1010.3825933283025,56.42748108506203,1.2048777484454911,53.23674199694818,49.27503652313396,75.46605148911476,233.72074568271765,4.749026759141241,3.3572729817143663,-122.87246413025348,0.8327338535180597,1.2958076663853104,0.6068490943386875,-0.21889419256811,1.2403883545168335,-0.739768478565154,-0.1816862353562799,-0.9587480538234832,-16.159973526000975,29.61189956665039,41.982061767578124,-1.7745303720235825,0.807352255936712,-3.1452308893203735,22.896029663085937,52.68171997070313,172.42943420410157,2.6152643536239486,-5.996000643772483,-9.549136368054448,0.076055908203125,0.19279937744140624,-0.431890869140625,-2.1116688773036003,0.7603499608114361,-3.3387745141983034,-1.89097348937165,8.000067260310649,5.228410589889288
4.6,-0.6557764573530718,1010.3831551291725,56.42748108506203,1.2048777484454911,53.23674199694818,49.27503652313396,75.46605148911476,233.72074568271765,4.749026759141241,3.3572729817143663,-122.87246413025348,0.8327338535180597,0.5125549928979967,0.6804814100158573,0.06888190517146034,0.7908331111728601,-0.7028150829201333,-0.1258570162394606,-1.4031081657369697,-2.6404792785644533,47.087941360473636,24.183251953125,-4.7381913281977175,6.1832032918930055,1.7031650424003602,36.20035858154297,70.33919982910156,153.87173767089843,1.8638307989522063,22.66638157311708,-0.20091054874882114,0.10264434814453124,3.3060699462890626,0.04708099365234375,-4.347615021467209,6.196377563476562,1.907606041431427,-0.37364981272080333,9.61270914413333,0.9036387429838767
4.7,-0.6603405692360618,1010.3837169300425,56.42748108506203,1.2048777484454911,53.23674199694818,49.27503652313396,75.46605148911476,233.72074568271765,4.749026759141241,3.3572729817143663,-122.87246413025348,0.8327338535180597,-0.6698326701011483,0.7098381202610695,0.07583614215817498,-1.8788735014175277,-0.6934841359631124,-0.05589132490960838,-1.4762930001273866,-1.5915879143608942,50.79996702406142,17.49371337890625,-0.09265116602182388,-6.228850795328617,-2.8594830930233,37.76800537109375,73.40123664008246,148.17577955457898,-2.4558706679244837,-9.119804890701836,4.506983649087697,-0.19891815185546874,-0.01234893798828125,0.46638336181640627,0.04314283861054315,-6.06114828089873,-2.9940400189823575,0.1923358906809344,9.756130422543155,-0.24069917018480932
4.8,-0.6649046811190519,1010.3842787309126,56.42748108506203,1.2048777484454911,53.23674199694818,49.27503652313396,75.46605148911476,233.72074568271765,4.749026759141241,3.3572729817143663,-122.87246413025348,0.8327338535180597,-2.1084347265949113,0.7383623441018832,0.02309333539870729,-2.221522342923289,-0.6614271993188511,0.10243157854047565,-1.345814858712173,-0.5223663330078125,52.660726165771486,9.98905029296875,-1.891419729590416,3.4638215392827987,1.0210286736488343,37.358419799804686,75.6448974609375,139.05398406982422,-1.9557529597461225,-7.400890237805844,5.275925702101737,-0.12458343505859375,0.46070556640625,0.4029205322265625,-2.105551777826622,2.8883885622024534,0.9441244170069695,1.1294690572787636,9.556075578120053,-1.6271323312517443
4.9,-0.6694687930020419,1010.3848405317826,56.42748108506203,1.2048777484454911,53.23674199694818,49.27503652313396,75.46605148911476,233.72074568271765,4.749026759141241,3.3572729817143663,-122.87246413025348,0.8327338535180597,0.15663580896842103,0.6983070232115067,0.11567180607164132,0.47380233699459906,-0.6906816269354644,-0.10672682213295115,-1.4304015078007974,0.39408340454101565,50.36775207519531,16.866590881347655,4.601377654075622,-3.092036211490631,-2.1349458202719687,38.804815673828124,71.70478210449218,150.80071868896485,-3.2926210432469913,10.58911771418482,9.018600861647128,-0.3285003662109375,2.192352294921875,0.8395172119140625,4.460378408432007,-2.238262262940407,-2.162290593981743,0.0386465926651284,9.68278203743428,-0.11342775590189262
5.0,-0.674032904885032,1010.3854023326527,56.42748108506203,1.2048777484454911,53.23674199694818,49.27503652313396,75.46605148911476,233.72074568271765,4.749026759141241,3.3572729817143663,-122.87246413025348,0.8327338535180597,1.235333715711825,0.5584774098929283,-0.25365264896243933,1.0009867876284972,-0.7693962934108218,-0.09568460899724053,-0.9638090280167642,-20.87971649169922,33.38731079101562,33.77769012451172,1.5121964678168296,0.20047802627086603,5.900045084953308,13.045728895399305,51.55301072862413,166.7625240749783,18.348667134823202,16.45981954425782,-8.947870147411525,1.6512969970703124,2.2592742919921873,-0.5348403930664063,1.7210150748491286,-0.6359868198633185,6.07259958833456,-3.182072851779591,7.8960797639960045,4.225397389124334
5.1,-0.678597016768022,1010.3859641335227,56.42748108506203,1.2048777484454911,53.23674199694818,49.27503652313396,75.46605148911476,233.72074568271765,4.749026759141241,3.3572729817143663,-122.87246413025348,0.8327338535180597,1.18386579224371,0.5766047893295261,-0.21767190998677394,1.1417978933955704,-0.7617375747062233,-0.18949216864655588,-0.9210310348734296,-18.331875610351563,27.928577423095703,42.166619873046876,-1.9594008028507233,0.4598893016576767,-3.9323517322540282,22.08966064453125,52.44734344482422,172.06247100830078,4.56158999089621,-3.9467691898620125,-8.087853037339151,0.1673675537109375,0.37559661865234373,-0.3008880615234375,-1.8380694389343262,0.45297801587730646,-3.8302968978881835,-2.526039724818319,7.77270338433951,5.286128093294799
5.2,-0.6831611286510121,1010.3865259343927,56.42748108506203,1.2048777484454911,53.23674199694818,49.27503652313396,75.46605148911476,233.72074568271765,4.749026759141241,3.3572729817143663,-122.87246413025348,0.8327338535180597,0.9093758487212525,0.7024125626867785,0.01904150199025695,0.4742009235999241,-0.682284172254099,-0.11614449773690996,-1.3535027473982388,-1.5204233169555663,45.59967956542969,25.97876892089844,-5.192854399979114,6.708196848630905,1.1755569398403167,38.3305918375651,69.99272155761719,153.994873046875,-7.070749059640467,21.731370889119802,-4.980540166271031,-0.32152557373046875,3.2284912109375,-0.24298553466796874,-5.342570340633392,6.715058541297912,0.9455301076173782,0.16642510850752465,9.492760050124824,1.3385255834540164
5.3,-0.6877252405340021,1010.3870877352628,56.42748108506203,1.2048777484454911,53.23674199694818,49.27503652313396,75.46605148911476,233.72074568271765,4.749026759141241,3.3572729817143663,-122.87246413025348,0.8327338535180597,-0.3190863755181367,0.7021478761801495,0.12384625148052553,-0.6503416871406756,-0.6899152977540126,-0.0843213407538154,-1.4594023972091403,0.13609275817871094,51.38481750488281,15.312092590332032,1.5070294678211211,-5.1473426528275015,-2.5957719922065734,39.33165740966797,73.64778289794921,146.91746673583984,6.760717180739453,-6.26702766192913,5.684617036082,0.23569488525390625,0.169683837890625,0.48866424560546873,1.5726636543869972,-4.868057921528816,-2.575511264801025,0.05187891883209346,9.738978731787203,-0.5025171972880564
5.4,-0.6922893524169922,1010.3876495361328,56.42748108506203,1.2048777484454911,53.23674199694818,49.27503652313396,75.46605148911476,233.72074568271765,4.749026759141241,3.3572729817143663,-122.87246413025348,0.8327338535180597,-1.3593034090238276,0.7470355535403334,-0.0014263103020347612,-0.7940175689396394,-0.6598649256487222,0.04290755193101852,-1.418028101161308,0.4736461639404297,51.2448112487793,15.683920288085938,-1.7711885199416428,1.2932529687881469,0.6531298011541367,38.485191345214844,74.2529800415039,145.1577896118164,2.30900388302043,-7.67554567559272,5.207730044688657,0.35682525634765627,0.434442138671875,0.5108627319335938,-1.8065777879208327,0.8276865005493166,0.6453995853662491,1.2153358672097325,9.691015145154893,-0.5185363361672628
5.5,-0.7350948333740235,1010.3927764892578,56.42748108506203,1.2048777484454911,53.23674199694818,49.27503652313396,75.46605148911476,233.72074568271765,4.749026759141241,3.3572729817143663,-122.87246413025348,0.8327338535180597,-0.06354581712448648,0.7443125062540006,0.088509910030973,-0.4101071079241153,-0.646438961711583,-0.10895512388208758,-1.3763227166430954,6.86121940612793,49.73234329223633,17.877420043945314,4.048737412691116,-2.43375428467989,-1.8217057049274445,45.70266554090712,71.36102634006076,150.7263658311632,-7.790045228184536,9.967196652691364,12.60535360884875,-0.7047149658203125,2.017547607421875,1.2255416870117188,3.8352694749832152,-1.8345221757888794,-2.0266898810863494,1.3400959563095864,9.598234336318075,0.08734192763809116
5.6,-0.7779003143310548,1010.3979034423828,56.42748108506203,1.2048777484454911,53.23674199694818,49.27503652313396,75.46605148911476,233.72074568271765,4.749026759141241,3.3572729817143663,-122.87246413025348,0.8327338535180597,1.2680507389081377,0.5839835905346346,-0.22423695123159218,1.1416771032303321,-0.7580048867091627,-0.13895521774736055,-0.9667282570653478,-15.734819602966308,33.41981506347656,36.88923950195313,1.9951314453035593,-0.38864537943154576,5.50857510715723,19.24755096435547,53.3316650390625,169.2001480102539,14.301150833420309,17.643688493866918,-10.222765697214303,1.2954071044921875,2.5565460205078123,-0.6120269775390625,2.2328287318348883,-1.1251604259014127,5.972212414816022,-2.5404134961983096,7.974179311886131,4.614438032408357
5.7,-0.820705795288086,1010.4030303955078,56.42748108506203,1.2048777484454911,53.23674199694818,49.27503652313396,75.46605148911476,233.72074568271765,4.749026759141241,3.3572729817143663,-122.87246413025348,0.8327338535180597,1.195428811294062,0.5837397366243946,-0.21381544744461406,1.147951910496643,-0.7593859446053199,-0.1816552021553906,-0.9432159554210349,-17.679685401916505,29.317502593994142,41.50402679443359,-1.9770272254943848,-0.2635793935507536,-3.9749864816665648,22.44096984863281,53.835592651367186,171.21390380859376,3.874220298368968,-3.248826614248454,-8.224919913339317,0.18765106201171874,0.41887054443359373,-0.33419036865234375,-1.8446389198303224,-0.24215215034782883,-3.8413864612579345,-2.4174233923527226,7.902601040910481,5.158920201877504
5.8,-0.8635112762451173,1010.4081573486328,56.42748108506203,1.2048777484454911,53.23674199694818,49.27503652313396,75.46605148911476,233.72074568271765,4.749026759141241,3.3572729817143663,-122.87246413025348,0.8327338535180597,0.36031892489914724,0.7085916252201994,0.01366779954865128,0.5145745625509685,-0.6795441691400621,-0.09449966845203589,-1.3598193090667745,-1.3236764907836913,46.34342002868652,25.24564971923828,-5.118734192848206,6.346492528915404,1.9484709203243256,37.950286865234375,70.93684726291232,152.29842631022134,-9.301548078539296,23.436812578740717,-4.656772497886419,-0.8922042846679688,3.420916748046875,-0.27855072021484373,-5.219812417030335,6.390527057647705,1.4431009709835052,0.25166025440174616,9.525133619628548,1.1150896032500266
5.9,-0.9063167572021485,1010.4132843017578,56.42748108506203,1.2048777484454911,53.23674199694818,49.27503652313396,75.46605148911476,233.72074568271765,4.749026759141241,3.3572729817143663,-122.87246413025348,0.8327338535180597,-1.7320855891265858,0.6906296885843827,0.12123547580639271,-1.512908214213438,-0.7015249261940554,-0.03173147701896962,-1.3930189242339017,-3.1266338348388674,52.07905044555664,12.695127868652344,0.7769015163183213,-6.404889845848084,-3.3651978500187396,36.11415557861328,74.68241424560547,143.5246566772461,10.72204445086643,-9.25479522671014,7.672484563682525,0.9378433227539062,-0.10295562744140625,0.6683670043945312,0.7837338924407959,-6.251785862445831,-3.0949711322784426,-0.3081952307518572,9.641623629998266,-1.074019750880301
6.0,-0.9491222381591798,1010.4184112548828,56.42748108506203,1.2048777484454911,53.23674199694818,49.27503652313396,75.46605148911476,233.72074568271765,4.749026759141241,3.3572729817143663,-122.87246413025348,0.8327338535180597,-1.9413613110328296,0.7319768827138929,-0.02277010961145997,-2.0938316327969004,-0.6733118731415362,0.08457568339316653,-1.4182459498760454,-2.8196550369262696,51.81145095825195,13.124530029296874,-0.06749252080917359,1.4137770518660546,2.5175654590129852,34.68179829915365,74.38622707790799,143.6058146158854,-7.902844728086292,-1.2478390836685898,6.85129958082959,-0.6797836303710938,1.1722625732421874,0.7567428588867188,-0.19444747157394882,0.9508857414126396,2.5469073742628097,0.871538210048033,9.6775541905573,-0.7868764193921163
6.1,-0.9919277191162111,1010.4235382080078,56.42748108506203,1.2048777484454911,53.23674199694818,49.27503652313396,75.46605148911476,233.72074568271765,4.749026759141241,3.3572729817143663,-122.87246413025348,0.8327338535180597,0.9862155207817425,0.6837267298635017,-0.08300346163312655,0.9127520503679138,-0.7163817110543667,-0.03236992871894919,-1.3783859846721915,-8.366012573242188,47.22269515991211,23.42117919921875,4.518745994567871,-4.453698034957052,1.27460777759552,28.256610107421874,68.25991821289062,155.82151947021484,-4.0519160853448515,12.138176066725851,5.3672620404447615,-0.47089996337890627,2.2469863891601562,0.52542724609375,4.5395008563995365,-3.8907080411911013,0.7858393371105195,-0.5946906357083446,9.550717382861674,1.5324233965900353
6.2,-1.0347332000732423,1010.4286651611328,56.42748108506203,1.2048777484454911,53.23674199694818,49.27503652313396,75.46605148911476,233.72074568271765,4.749026759141241,3.3572729817143663,-122.87246413025348,0.8327338535180597,1.060843153214528,0.5342868543499723,-0.24629189109358118,0.8876897045581572,-0.7918406673429909,-0.13069570617125983,-0.9089834177435294,-25.369897270202635,29.810824584960937,36.373976135253905,-0.27060299415607003,3.5464005678892128,0.7878444135189057,13.769725036621093,51.422421264648435,168.3395538330078,21.77854747547984,6.537748098354638,-10.61692581701696,1.9552139282226562,1.1733291625976563,-0.6492416381835937,-0.13900157809257507,3.3070254169404505,1.3343295320868491,-3.723588532472699,7.7189595191922775,4.5954338813743
6.3,-1.0775386810302736,1010.4337921142578,56.42748108506203,1.2048777484454911,53.23674199694818,49.27503652313396,75.46605148911476,233.72074568271765,4.749026759141241,3.3572729817143663,-122.87246413025348,0.8327338535180597,1.7966365203482746,0.6875713732263521,-0.1353330186323268,1.1229266577699446,-0.6963634679199086,-0.1044367513985982,-1.20422064238363,-8.650938987731934,39.70324058532715,33.65353851318359,-5.564898502826691,5.015551645681262,-2.859798365831375,31.818864610460068,64.08808898925781,162.5862545437283,-4.096889279909096,11.369642711417077,-11.889735383552013,-0.5961181640625,2.529066467285156,-0.8156570434570313,-5.414438760280609,4.508513537049294,-3.077179428935051,-0.24611762330754655,9.039401014639436,3.209856574454873
6.4,-1.120344161987305,1010.4389190673828,56.42748108506203,1.2048777484454911,53.23674199694818,49.27503652313396,75.46605148911476,233.72074568271765,4.749026759141241,3.3572729817143663,-122.87246413025348,0.8327338535180597,-1.7995465163836868,0.6771939860067151,0.2184426767882865,-1.3732937662735416,-0.6927482942521285,-0.07798957544770133,-1.3552050223996193,-0.5850379943847657,52.470255279541014,9.979714965820312,-0.5694716393947601,-2.535725712776184,0.687494832277298,37.39301300048828,75.44281768798828,139.36058502197267,11.44784306010708,5.355562396431266,9.192514185555279,1.1039581298828125,1.0441207885742188,0.774169921875,-0.8718558013439178,-1.650791162252426,0.8375409483909607,-0.6175823089433089,9.56279752139926,-1.809933401824124
6.5,-1.1686266118829902,1010.4446965997869,56.42748108506203,1.2048777484454911,53.23674199694818,49.27503652313396,75.46605148911476,233.72074568271765,4.749026759141241,3.3572729817143663,-122.87246413025348,0.8327338535180597,-2.6104289521895345,0.7750788129163277,-0.005823685087022299,-2.7302416862150047,-0.6230319167196983,0.07791781738098325,-1.3261781326458162,3.237552261352539,52.2485466003418,12.1398193359375,0.31185267567634584,-4.140420055389404,-0.43920366764068614,42.38096449110243,74.75526936848958,143.34949408637152,-10.372188956797121,-10.248648443394005,3.7849068806882946,-0.7943939208984375,-0.04148406982421875,0.28251190185546876,0.4578495601192117,-4.318663811683654,-0.8383958339691162,2.123805056164153,9.51015629834473,-0.8377643946113624
6.6,-1.2169090617786755,1010.4504741321911,56.42748108506203,1.2048777484454911,53.23674199694818,49.27503652313396,75.46605148911476,233.72074568271765,4.749026759141241,3.3572729817143663,-122.87246413025348,0.8327338535180597,-2.066090340479885,0.7221685602371177,0.08051489101999275,-1.9901298172391624,-0.6729424004540634,0.027369369717391474,-1.397224531194502,-1.1268959045410156,52.850337982177734,9.60181121826172,0.33058937788009646,6.583535242080688,0.1557141810655594,37.546156311035155,75.39555969238282,140.5486038208008,-1.885850341324899,13.824339347642063,13.463320376875624,-0.08690032958984376,2.3377670288085937,1.19427490234375,0.11184084564447408,6.6802099525928496,0.3791582077741623,0.6092467363620642,9.652827453318833,-1.4781714869358578
6.7,-1.265191511674361,1010.4562516645951,56.42748108506203,1.2048777484454911,53.23674199694818,49.27503652313396,75.46605148911476,233.72074568271765,4.749026759141241,3.3572729817143663,-122.87246413025348,0.8327338535180597,1.1639382759826107,0.6717320049915433,-0.0582134290128512,1.228724468801611,-0.7201944121856562,-0.10395708262900431,-1.3083708419897375,-6.008098983764649,45.44637756347656,25.677996826171874,5.801681280136108,-2.2911375895142556,3.3248451821506024,30.084454345703126,65.29801025390626,160.1075897216797,-0.03250914935603717,4.575055577829778,-5.487681718413606,0.004705810546875,1.5894989013671874,-0.43160400390625,5.817752075195313,-2.7721964001655577,3.281701843068004,-0.6672860533171775,9.300435163474381,2.1760067453579492
6.8,-1.3134739615700464,1010.4620291969992,56.42748108506203,1.2048777484454911,53.23674199694818,49.27503652313396,75.46605148911476,233.72074568271765,4.749026759141241,3.3572729817143663,-122.87246413025348,0.8327338535180597,1.152354678507405,0.60259047813297,-0.12539179492227615,1.406773443173483,-0.7284274177371878,-0.29553507513519095,-0.9362236700643265,-6.451071166992188,29.749523162841797,44.37648468017578,-2.682471132278443,0.9073998957872391,-0.7373349936679006,33.53273179796007,52.2999759250217,175.28800794813367,0.10377350285083038,0.82382526822865,-24.040019412057397,-0.20649871826171876,0.8470001220703125,-1.904730224609375,-2.1114800930023194,1.2927390038967133,-0.6495382614433766,-0.9323468131633103,7.870866938354075,5.681056099503934
6.9,-1.3617564114657317,1010.4678067294034,56.42748108506203,1.2048777484454911,53.23674199694818,49.27503652313396,75.46605148911476,233.72074568271765,4.749026759141241,3.3572729817143663,-122.87246413025348,0.8327338535180597,-0.6673093404488611,0.6303481352010041,0.19949778045061822,-0.23512556829877257,-0.727383559720805,-0.09753196231655091,-1.2743820644104362,-6.625216865539551,49.71304130554199,15.089569091796875,-6.7997373849153515,4.628623080253601,1.6990095570683479,31.07079315185547,73.08198547363281,143.16482696533203,8.219451155765503,24.21105811576426,3.799225825741664,0.8213043212890625,3.3767791748046876,0.5090911865234375,-7.272563207149505,4.778368878364563,1.6185087084770202,-1.7804400420122595,9.303620632416605,-0.9849764261518047
7.0,-1.410038861361417,1010.4735842618074,56.42748108506203,1.2048777484454911,53.23674199694818,49.27503652313396,75.46605148911476,233.72074568271765,4.749026759141241,3.3572729817143663,-122.87246413025348,0.8327338535180597,-1.874009909672544,0.6879602572250324,0.21533083967422378,-1.5329310020275704,-0.6812625795694797,-0.01975109507202092,-1.2439095247357754,-3.674009895324707,53.08157196044922,4.435638427734375,1.9527975022792816,-5.669524368643761,-4.417728364467621,37.7915771484375,75.63734436035156,136.0609909057617,-0.3893302154281731,-6.481969161796272,5.884623767858892,-0.3317352294921875,0.21162567138671876,0.28931884765625,1.9098083913326263,-5.8000723898410795,-4.375763428211212,-0.38423628068949095,9.271947203232347,-2.4967535707098243
7.1,-1.4583213112571023,1010.4793617942116,56.42748108506203,1.2048777484454911,53.23674199694818,49.27503652313396,75.46605148911476,233.72074568271765,4.749026759141241,3.3572729817143663,-122.87246413025348,0.8327338535180597,-2.8709485444964145,0.7819229491654811,0.04098517906628024,-2.8247951635755912,-0.6203369488616073,0.008726287970493261,-1.3303832573353724,6.750339508056641,51.5919677734375,13.710975646972656,1.023368275165558,-2.6516191482543947,0.37253325879573823,44.80537584092882,74.14810858832465,144.9517093234592,-9.585847995988576,5.486164226522744,7.716483104528338,-0.6509521484375,1.6454971313476563,0.72069091796875,1.0024896770715714,-2.5484547048807142,0.35009838044643404,2.197087508015707,9.519120467592774,-0.7433258342029899
7.2,-1.5066037611527876,1010.4851393266157,56.42748108506203,1.2048777484454911,53.23674199694818,49.27503652313396,75.46605148911476,233.72074568271765,4.749026759141241,3.3572729817143663,-122.87246413025348,0.8327338535180597,1.4303099798819818,0.6984365039190708,-0.14318297475101666,1.8583042368727376,-0.6874447179817722,-0.004108005357950769,-1.2457690828342138,-5.490326309204102,46.10216598510742,24.149891662597657,3.2995620369911194,-1.467801284790039,5.96102654337883,28.9430419921875,66.5975555419922,156.720263671875,-2.3736191246634717,14.856655215258897,0.6736060359625518,0.8914016723632813,2.3382720947265625,0.012408447265625,3.393267223238945,-1.8382134914398194,6.0791236062534155,-0.053757124660974445,9.233337895757256,1.9595967537731305
7.3,-1.5548862110484731,1010.4909168590198,56.42748108506203,1.2048777484454911,53.23674199694818,49.27503652313396,75.46605148911476,233.72074568271765,4.749026759141241,3.3572729817143663,-122.87246413025348,0.8327338535180597,1.1729182477457667,0.6048821373726485,-0.19599139249077552,1.0487676911624522,-0.7622869574760004,-0.11117709480753128,-1.0721284996723093,-19.948085021972656,35.62756538391113,35.17999267578125,-0.6188705883920192,1.6704867318272592,-2.428329086303711,19.758990817599827,58.45805189344618,166.21362474229602,21.043161245943605,-6.042371466707587,-11.670400675614179,0.8002456665039063,0.28302001953125,-0.614654541015625,-0.47004918903112414,1.6856346338987351,-2.213253194093704,-2.361878520278558,8.602984872196316,3.9703037070281804
7.4,-1.6031686609441584,1010.496694391424,56.42748108506203,1.2048777484454911,53.23674199694818,49.27503652313396,75.46605148911476,233.72074568271765,4.749026759141241,3.3572729817143663,-122.87246413025348,0.8327338535180597,0.3277626846749202,0.7139424685872324,-0.00384580152553885,0.4071456899507949,-0.6829282291153769,-0.05951418166169614,-1.3624540946577839,-3.2890174865722654,47.14573974609375,23.13248291015625,-5.197990071773529,6.1424061328172685,0.5771459847688675,35.740361022949216,70.35440063476562,152.68604583740233,-7.487291567432098,19.0803783583346,-5.369411444337517,-0.7464035034179688,3.037242126464844,-0.39987030029296877,-5.273018848896027,6.029355071485043,0.11732503175735473,0.28942363631818907,9.557386426909863,0.8731457237897999
7.5,-1.6514511108398438,1010.502471923828,56.42748108506203,1.2048777484454911,53.23674199694818,49.27503652313396,75.46605148911476,233.72074568271765,4.749026759141241,3.3572729817143663,-122.87246413025348,0.8327338535180597,-1.6035195100681388,0.6721744272693965,0.1635770748227427,-1.2893550406828045,-0.7117807007825417,-0.05527560868357882,-1.3797756079308048,-4.490171813964844,52.40465621948242,10.719314575195312,1.9392708018422127,-4.441689209267497,-2.643070811033249,34.836587524414064,74.8146255493164,142.2435791015625,11.096190979557633,-5.7193624492836,5.485739746726454,0.9436965942382812,0.24296722412109376,0.43466796875,1.7975346922874451,-4.308277761936187,-2.1759361386299134,-0.8053883792488555,9.610299394190907,-1.2908739561542308
7.6,-1.7131852236661045,1010.5098793723365,56.42748108506203,1.2048777484454911,53.23674199694818,49.27503652313396,75.46605148911476,233.72074568271765,4.749026759141241,3.3572729817143663,-122.87246413025348,0.8327338535180597,-1.5902869098489454,0.758298322025065,-0.01589701848665545,-2.9235822914889766,-0.6481231569935757,0.038072513773988584,-1.407375411671627,1.2040279388427735,51.17626419067383,16.03402099609375,-0.9182656394938628,-0.8047831422752805,0.6847824255625407,39.47618103027344,73.85005357530382,146.55631001790366,-4.477399702995977,-9.001272885583937,3.8382888354542666,-0.3069034152560764,0.0675777859157986,0.3458760579427083,-0.8375001788139343,0.07062468752264994,0.7123383328318595,1.5387265920407325,9.669569212378859,-0.25565038314134403
7.7,-1.774919336492365,1010.5172868208451,56.42748108506203,1.2048777484454911,53.23674199694818,49.27503652313396,75.46605148911476,233.72074568271765,4.749026759141241,3.3572729817143663,-122.87246413025348,0.8327338535180597,-1.2698607961433088,0.7440493341302052,0.11643438122726912,-1.6783015736848086,-0.6543873798760441,-0.037882173242382466,-1.3835474857610612,3.7060474395751952,52.156700897216794,11.406695556640624,0.8654205799102783,1.905736756324768,-1.6068715840578078,42.6501953125,74.48453979492187,142.82982025146484,-1.182970364108085,13.390524619868993,13.039867044862655,0.09829864501953126,2.3547210693359375,1.2238082885742188,1.318027663230896,0.407356059551239,-1.7556248217821122,1.1029590058603138,9.630353054277895,-1.220890655445922
7.8,-1.8366534493186257,1010.5246942693536,56.42748108506203,1.2048777484454911,53.23674199694818,49.27503652313396,75.46605148911476,233.72074568271765,4.749026759141241,3.3572729817143663,-122.87246413025348,0.8327338535180597,1.7246509997784965,0.6594747375529953,-0.20896390600096065,1.484163720930528,-0.7041452712923368,-0.044525348739085154,-1.1498498057330577,-11.012907600402832,41.38961639404297,28.691937255859376,3.217620721459389,-3.5358230650424955,5.9261531084775925,24.04859076605903,62.27092149522569,161.08678521050348,1.2643091569542881,11.414493894343375,-4.339456519085318,-0.09089050292968745,2.0626800537109373,-0.13271331787109375,3.018968928605318,-0.8823422908782963,5.836653023958206,-1.019217634424623,8.851824842272997,3.21970365865156
7.9,-1.8983875621448862,1010.5321017178621,56.42748108506203,1.2048777484454911,53.23674199694818,49.27503652313396,75.46605148911476,233.72074568271765,4.749026759141241,3.3572729817143663,-122.87246413025348,0.8327338535180597,1.1259800854353033,0.5750273028665462,-0.17158605222146953,1.2799040728587174,-0.7498903718582455,-0.273343191015786,-0.8777224210082645,-11.79878921508789,27.40138969421387,45.03195495605469,-0.41475539803504946,1.7507493883371352,-1.5626877307891847,27.47469482421875,50.070428466796876,175.92073974609374,12.941600899949929,-2.1797072610825294,-14.372378362036049,1.2363616943359375,0.556695556640625,-0.8201614379882812,-0.837141951918602,0.13320048451423644,-2.006545102596283,-1.8130968781302497,7.534039998814464,5.976616378153563
8.0,-1.960121674971147,1010.5395091663707,56.42748108506203,1.2048777484454911,53.23674199694818,49.27503652313396,75.46605148911476,233.72074568271765,4.749026759141241,3.3572729817143663,-122.87246413025348,0.8327338535180597,0.15090619979528652,0.7127366180293893,-0.004528932450251122,0.2821349940514747,-0.6717285988534067,-0.09598517385018794,-1.3104922030897865,-1.5173458099365233,44.83801078796387,26.50988006591797,-6.902520799636841,6.537613642215729,-1.9992791056632995,38.0777099609375,68.73433990478516,154.34886169433594,-8.319846209772228,16.84209031346768,-10.002253279960081,-0.812347412109375,2.6440887451171875,-0.8993682861328125,-6.705427086353302,7.250324463844299,-1.3684980630874635,0.4157486549135158,9.386074283863007,1.3260554957507735
8.1,-2.0218557877974077,1010.5469166148793,56.42748108506203,1.2048777484454911,53.23674199694818,49.27503652313396,75.46605148911476,233.72074568271765,4.749026759141241,3.3572729817143663,-122.87246413025348,0.8327338535180597,-1.6002919070572659,0.6472215108604665,0.27605828060296417,-1.0723855791162853,-0.7005623110881494,-0.0880808913577467,-1.2818645337568788,-2.175217056274414,52.96442413330078,6.037313842773438,0.022403999976813794,-2.912106823921204,0.3709446907043457,35.424379136827255,75.66868252224393,136.19026523166232,13.234146221999078,-0.2757567354792355,7.718183478705436,1.213374328613281,0.9612579345703125,0.547674560546875,0.2316627001389861,-3.7581793069839478,-0.2510051727294922,-1.3671355329577692,9.389913774347603,-2.254256130753755
8.2,-2.0835899006236684,1010.5543240633879,56.42748108506203,1.2048777484454911,53.23674199694818,49.27503652313396,75.46605148911476,233.72074568271765,4.749026759141241,3.3572729817143663,-122.87246413025348,0.8327338535180597,-2.2992430510133275,0.7377164836046604,0.0990147758121594,-2.154977437300391,-0.6660488940398608,-0.00234650424096394,-1.398834028886311,2.476762390136719,52.27890625,10.67335205078125,0.9865902215242386,-3.338978958129883,-0.21587556712329387,41.01566619873047,74.87027740478516,141.52398834228515,-6.498362589649186,-8.057176451785562,3.5703227282784136,-0.5790252685546875,0.134564208984375,0.22979736328125,0.794430622458458,-3.2801079750061035,-0.07881624531000853,0.8765228282335586,9.659092709645629,-1.3983478296266496
8.3,-2.1453240134499287,1010.5617315118964,56.42748108506203,1.2048777484454911,53.23674199694818,49.27503652313396,75.46605148911476,233.72074568271765,4.749026759141241,3.3572729817143663,-122.87246413025348,0.8327338535180597,-0.8323387109979512,0.7206376563844973,0.01122432765653747,-0.8483046012898219,-0.6914665473999809,0.0224973097603973,-1.4779113457191029,-2.5045707702636717,51.156497192382815,14.361968994140625,1.963124930858612,-0.8083559848368168,0.8921029582619667,35.43037567138672,73.28885955810547,146.32201690673827,-2.9732216791039705,13.18282587228477,8.851420674612372,-0.27133941650390625,2.3614837646484377,0.851556396484375,2.30996310710907,-0.9617634743452073,0.9424427647143603,0.4001131848147977,9.752667766826153,-0.4640684537519794
8.4,-2.2070581262761895,1010.5691389604049,56.42748108506203,1.2048777484454911,53.23674199694818,49.27503652313396,75.46605148911476,233.72074568271765,4.749026759141241,3.3572729817143663,-122.87246413025348,0.8327338535180597,1.1545077105088815,0.5931769730086635,-0.20388206221417052,0.9061348773846192,-0.7694905292073065,-0.03370872471830113,-1.1397455098172424,-19.710900115966798,39.409466934204104,27.88947296142578,3.0272237837314604,-0.00602717399597239,4.813934421539306,16.529093424479168,60.2851308186849,159.76282755533853,11.376937413082942,9.330413596082924,-4.961485585610941,0.8517898559570313,1.8476577758789063,-0.195867919921875,2.7864480197429655,0.367901396751404,4.804541465640068,-2.7147753100526844,8.756552158168256,2.840910940815806
8.5,-2.26879223910245,1010.5765464089135,56.42748108506203,1.2048777484454911,53.23674199694818,49.27503652313396,75.46605148911476,233.72074568271765,4.749026759141241,3.3572729817143663,-122.87246413025348,0.8327338535180597,1.1889072278583162,0.6101842243026676,-0.1669083314645492,1.1794058996648686,-0.7550355836560959,-0.16060102293542367,-1.0514220017437506,-14.812696075439453,34.24945755004883,38.025996398925784,-1.6745194971561432,1.3805135518312455,-3.2422857761383055,24.475929260253906,57.2715560913086,168.53370971679686,7.669399040676913,-4.847811611736118,-9.559014612633586,0.6150665283203125,0.3685791015625,-0.542059326171875,-1.9466556154191494,1.1772978484630585,-3.4802789092063904,-1.9525987864711971,8.476777945289015,4.35873384642452
8.6,-2.330526351928711,1010.583953857422,56.42748108506203,1.2048777484454911,53.23674199694818,49.27503652313396,75.46605148911476,233.72074568271765,4.749026759141241,3.3572729817143663,-122.87246413025348,0.8327338535180597,0.013187747323000565,0.713051731965278,0.06461456707892953,0.23236946606762326,-0.6732178065402216,-0.08785064967995654,-1.362964233766272,0.5075687408447266,47.61827392578125,22.467332458496095,-5.041092622280121,6.644820335321128,1.163087809085846,39.88827345106337,71.47147793240018,150.7198520236545,-10.890667237924934,22.49888928061932,-6.321603900860324,-1.0763290405273438,3.252909851074219,-0.6132095336914063,-4.812034207582474,7.328893387317658,1.6292993545532226,0.3795233971406683,9.57570651197642,0.366431216033306
8.7,-2.412966728210449,1010.593849182129,56.42748108506203,1.2048777484454911,53.23674199694818,49.27503652313396,75.46605148911476,233.72074568271765,4.749026759141241,3.3572729817143663,-122.87246413025348,0.8327338535180597,-1.675899045380532,0.6613763657322423,0.2188079855764681,-1.2129100941918574,-0.7032863854687259,-0.10238839132058009,-1.3778536207697423,-1.7217529296875,52.85047607421875,10.500375366210937,1.5401643961668015,-3.69600670337677,-2.108316332101822,36.99857940673828,75.4513946533203,141.30990600585938,15.135921708771495,-6.122714701871276,5.394098083374351,1.4581039428710938,0.3795684814453125,0.40760955810546873,1.7560876309871674,-4.459585607051849,-2.5273645162582397,-0.952057181261198,9.597284838960467,-1.3463559263665414
8.8,-2.4954071044921875,1010.603744506836,56.42748108506203,1.2048777484454911,53.23674199694818,49.27503652313396,75.46605148911476,233.72074568271765,4.749026759141241,3.3572729817143663,-122.87246413025348,0.8327338535180597,2.0875724511737994,0.7601195137244448,-0.01690735544878279,2.1212322708017384,-0.6444269210738436,-0.040720573977035913,-1.3846390372429977,4.32318344116211,49.40488815307617,21.623027038574218,1.3691336534917355,-4.315709638595581,-1.4898290762677788,42.72914123535156,71.91178741455079,152.58348999023437,-6.065205259032398,-10.281121966140866,0.08080301277559257,-0.4639862060546875,-0.07517852783203124,0.09218902587890625,1.082597228884697,-4.394315385818482,-1.15808362364769,1.5785461520884185,9.626950844618975,0.786511492329915
8.9,-2.577847480773926,1010.6136398315431,56.42748108506203,1.2048777484454911,53.23674199694818,49.27503652313396,75.46605148911476,233.72074568271765,4.749026759141241,3.3572729817143663,-122.87246413025348,0.8327338535180597,-1.0210337401017615,0.7530867264999535,-0.01158716063145171,-1.082537001416868,-0.6535236034035206,0.03167990564202125,-1.4132649435992866,1.5766681671142577,51.1787826538086,16.628175354003908,-1.2005832850933076,2.5826902449131013,0.09589810818433761,40.19072977701823,74.22994656032986,146.02655198838977,-6.456445370509028,13.434887551660836,8.983267353665791,-0.5187530517578125,2.352799987792969,0.885357666015625,-0.782111793756485,2.737185889482498,-0.0007157691754400731,1.3641578145115822,9.68392682355523,-0.23632098529073411
9.0,-2.660287857055664,1010.6235351562501,56.42748108506203,1.2048777484454911,53.23674199694818,49.27503652313396,75.46605148911476,233.72074568271765,4.749026759141241,3.3572729817143663,-122.87246413025348,0.8327338535180597,1.4925256903011117,0.6360359652015648,-0.14704921064511883,1.3857620397843218,-0.7390701877837142,-0.07558415805627455,-1.177211348427575,-11.44094409942627,41.455055236816406,28.307969665527345,4.861857259273529,-5.614352023601532,4.776419460773468,25.69410095214844,63.313359069824216,159.4529281616211,14.74397567386195,11.9067825552994,-6.727184497021957,1.2291030883789062,2.13197021484375,-0.36010894775390623,4.633930048346519,-5.515066254138946,4.750954568386078,-1.5848144600304692,8.908960863302648,2.753258920661975
9.1,-2.7427282333374023,1010.633430480957,56.42748108506203,1.2048777484454911,53.23674199694818,49.27503652313396,75.46605148911476,233.72074568271765,4.749026759141241,3.3572729817143663,-122.87246413025348,0.8327338535180597,1.1864297534642774,0.5927776865012626,-0.21885325300751762,1.005931784000858,-0.7645667380962028,-0.09681650857377203,-1.048653048444333,-22.20596923828125,34.50256538391113,33.86630706787109,-0.8454800859093666,4.186524057388306,-2.4952524185180662,16.93954298231337,57.36375935872396,164.54525248209634,4.524461321206838,-4.861689388893247,-7.8527205731931335,0.2887603759765625,0.368353271484375,-0.4320648193359375,-1.1116668172180653,4.169882750511169,-2.652991271018982,-2.659632487660609,8.477562256760596,3.9310630574600394
9.2,-2.8251686096191406,1010.6433258056641,56.42748108506203,1.2048777484454911,53.23674199694818,49.27503652313396,75.46605148911476,233.72074568271765,4.749026759141241,3.3572729817143663,-122.87246413025348,0.8327338535180597,0.756601716809888,0.7230833681115624,-0.04496040670343784,0.7620729229964963,-0.6804391837687739,-0.04891712453523358,-1.370318737586587,-3.5894445419311523,46.145714950561526,25.659889221191406,-4.76704249382019,3.151699501276016,-0.9301141858100891,35.410894775390624,69.31726837158203,155.39300537109375,-7.4728962326742705,19.8351401441136,-5.5343157661686835,-0.6968704223632812,2.9553237915039063,-0.4413970947265625,-4.764290046691895,3.662265342473984,-0.4118573784828186,0.5381958600795257,9.56686848255217,1.3053476899105123
9.3,-2.907608985900879,1010.6532211303711,56.42748108506203,1.2048777484454911,53.23674199694818,49.27503652313396,75.46605148911476,233.72074568271765,4.749026759141241,3.3572729817143663,-122.87246413025348,0.8327338535180597,-1.4924876825017448,0.6843624258955149,0.14488480722733243,-1.2792532943316286,-0.7099203771458197,-0.00440131539937782,-1.3620129349256662,-4.281314849853516,52.828487396240234,8.448995971679688,-0.8052773550152779,-2.654650354385376,-0.10600795000791549,34.25704650878906,75.52813873291015,138.75069427490234,7.752491786437929,-2.6376895724543927,6.648633216002435,0.7424057006835938,0.7545761108398438,0.48612213134765625,-0.5050712198019027,-3.42286479473114,-0.6260662861168385,-0.5422337507648836,9.591648645091354,-1.8487078002004325
9.4,-2.990049362182617,1010.6631164550781,56.42748108506203,1.2048777484454911,53.23674199694818,49.27503652313396,75.46605148911476,233.72074568271765,4.749026759141241,3.3572729817143663,-122.87246413025348,0.8327338535180597,-2.323472773319845,0.7625726972096459,-0.025498428212232367,-2.558692775843924,-0.6240245713537944,0.13812726030129815,-1.3147905020264152,2.4836065504286022,52.84809917873807,8.852096557617188,-0.4355383741669357,-3.6624087154865266,-0.6368266202975065,40.37712266710069,75.53522406684027,139.0774129231771,-8.063062119597197,-11.335574034927951,7.340591992321113,-0.5716201782226562,-0.13145904541015624,0.5580169677734375,-0.6065994169976976,-4.771401527855131,-0.34055866135491264,2.0657530950162144,9.481797283631563,-1.2866368377535706
9.5,-3.0724897384643555,1010.6730117797852,56.42748108506203,1.2048777484454911,53.23674199694818,49.27503652313396,75.46605148911476,233.72074568271765,4.749026759141241,3.3572729817143663,-122.87246413025348,0.8327338535180597,-2.1537508796771307,0.7356648483947835,0.1009077926664459,-2.0547978626106564,-0.6595234080975242,0.03134967121791145,-1.3525396456003278,1.3460205078125,53.014305877685544,7.187788391113282,2.274612841010094,4.8975886583328245,-0.30431241989135743,40.27007293701172,75.3863754272461,139.0839385986328,0.8954426291056722,6.710521896838843,12.317039925713464,0.20766143798828124,1.7166793823242188,1.0990570068359375,2.0852067202329634,6.059381148219108,-0.39291739612817755,0.9654806392362248,9.548711420640647,-1.825722872434519
9.6,-3.1549301147460938,1010.6829071044922,56.42748108506203,1.2048777484454911,53.23674199694818,49.27503652313396,75.46605148911476,233.72074568271765,4.749026759141241,3.3572729817143663,-122.87246413025348,0.8327338535180597,1.8721880413503296,0.6281853638015346,-0.25947555504767894,1.379674197899791,-0.7029313010625542,0.07280329165332275,-1.244424553880137,-18.08133907318115,43.24005241394043,21.003355407714842,2.7206634044647218,-5.549717909097671,6.857957196235657,15.77913818359375,62.14291839599609,154.00176391601562,-7.828498395249843,18.330408833720387,-1.8945626072113213,-0.9347991943359375,2.9156753540039064,-0.02073822021484375,2.8709261298179625,-7.69036979675293,6.748600655794144,-1.7023095327282882,9.096203975096344,1.932002202360127
9.7,-3.2363615902987393,1010.692665793679,56.42748108506203,1.2048777484454911,53.23674199694818,49.27503652313396,75.46605148911476,233.72074568271765,4.749026759141241,3.3572729817143663,-122.87246413025348,0.8327338535180597,1.023049444801075,0.5259492062954634,-0.22766608127892612,0.9422566787634397,-0.7985407615591715,-0.17429570572882105,-0.8673000470518444,-23.783176803588866,26.268207550048828,40.21387481689453,-1.4641656637191773,2.990233099460602,-2.6352790862321855,17.723756578233505,50.55540127224393,171.7046830919054,28.816056265784646,1.417906604255736,-12.327065659778416,2.53486328125,0.6980224609375,-0.7554473876953125,-1.3526580721139907,4.084634217619896,-2.526501250267029,-3.7384246771071106,7.450665374678671,5.062953398028761
9.8,-3.317793065851385,1010.7024244828657,56.42748108506203,1.2048777484454911,53.23674199694818,49.27503652313396,75.46605148911476,233.72074568271765,4.749026759141241,3.3572729817143663,-122.87246413025348,0.8327338535180597,1.7611737389604367,0.6883036258115671,-0.09495556742622815,1.1673570913378477,-0.7008239770325903,-0.1192914827615104,-1.2390728263603719,-6.449911117553711,40.16969871520996,33.92308654785156,-5.190587854385376,4.7850588001310825,-2.569702297449112,35.07774200439453,65.20417022705078,161.39006652832032,-5.332666306859432,14.520516433340012,-8.680098317045495,-0.6363876342773438,2.8828475952148436,-0.5048553466796875,-5.060580694675446,4.349498623609543,-2.779027372598648,-0.16597679711447094,9.173520555915236,2.8904701142033886
9.9,-3.3992245414040307,1010.7121831720525,56.42748108506203,1.2048777484454911,53.23674199694818,49.27503652313396,75.46605148911476,233.72074568271765,4.749026759141241,3.3572729817143663,-122.87246413025348,0.8327338535180597,-1.5637747958355201,0.6598451983797146,0.2176214763994412,-1.1219322149414723,-0.7090861520937628,-0.08979831698017866,-1.3638844519852402,-1.5688751220703125,52.15982666015625,11.015794372558593,-0.32655181884765627,-3.3247383773326873,0.8855827689170838,35.87376064724393,75.09398735894098,140.5844251844618,11.440967825962305,5.577216311870813,8.274268758397996,1.1315444946289062,1.0684417724609374,0.6342681884765625,-0.5612794756889343,-2.3730267941951753,1.1580130934715271,-1.0434883895618783,9.578977496471106,-1.5496444453332945
10.0,-3.4806560169566763,1010.7219418612393,56.42748108506203,1.2048777484454911,53.23674199694818,49.27503652313396,75.46605148911476,233.72074568271765,4.749026759141241,3.3572729817143663,-122.87246413025348,0.8327338535180597,-2.5431471100609864,0.7914938937585898,-0.01669474524655225,-2.726504669402251,-0.5942308629057669,0.11021243231892663,-1.2540846021816767,5.760807037353516,51.7828254699707,11.679708862304688,-0.3398171871900558,-4.686328867077828,-1.4122747540473939,45.24229736328125,74.36631317138672,142.51829681396484,-12.218114345124365,-10.251890903220474,4.929626906826794,-1.024322509765625,-0.0639312744140625,0.39975128173828123,-0.2853681221604347,-5.078598314523697,-1.9079997897148133,2.7849898302675595,9.283615663003028,-0.9638113415307179
10.1,-3.5620874925093218,1010.7317005504261,56.4313331187772,1.1995902718305138,53.1066778674591,49.275036367433245,75.46990352282992,233.15786619666795,4.867134608639703,3.483954120002114,-122.8724626471327,0.8283388083057862,-2.0671100832513263,0.7296534295986958,-0.047279123025075906,-2.3205435421552485,-0.6660280665324734,0.13060020150193868,-1.417013563086972,-3.3037031173706053,52.22204742431641,11.115348815917969,-0.05507920384407043,4.337441372871399,1.0629113379865884,34.68538818359375,74.8531723022461,141.74310913085938,-5.3179093558079185,3.4309605955609683,8.944170547628179,-0.4422821044921875,1.4853195190429687,0.9033096313476563,-0.21939069542568176,4.162247371673584,1.334740187227726,0.9988892527027428,9.681512865055202,-1.022280854266882
10.2,-3.6435189680619673,1010.7414592396128,56.435185152492366,1.1943027952155367,52.97661373797001,49.27503621173253,75.4737555565451,232.5949867106183,4.985242458138166,3.6106352582898613,-122.87246116401194,0.8239437630935127,0.21108898670047518,0.6789199105434426,-0.07435556669690406,0.14098348050585235,-0.7194241371745502,-0.02615545604328154,-1.3605756412844827,-7.8007406234741214,46.83981552124023,22.653854370117188,5.508766746520996,-2.0985773798078298,4.643379867076874,27.920967949761284,67.28476799858942,155.78582255045572,-3.427581094577461,21.393322298830746,2.0444045305976273,-0.24698028564453126,3.18189697265625,0.1996856689453125,5.4494359493255615,-2.4651062220335005,4.488166677951813,-0.6822155173279345,9.472785592753887,1.2658785817884186
10.3,-3.724950443614613,1010.7512179287996,56.43903718620753,1.1890153186005594,52.84654960848093,49.2750360560318,75.47760759026026,232.0321072245686,5.103350307636628,3.737316396577609,-122.87245968089115,0.8195487178812392,1.0237849170947488,0.5264084218370909,-0.20721137473225673,1.0967945768494398,-0.7826882635614912,-0.2545552310194686,-0.8036087528248625,-18.59790954589844,25.325181579589845,43.36664733886719,1.7427490524947644,3.6166894316673277,0.4962083622813225,21.792974853515624,46.16111450195312,176.06616668701173,15.951761870957537,-0.7336042561033368,-15.49143961616993,1.1978729248046875,0.42114410400390623,-1.0481460571289063,2.035956871509552,3.9560023061931133,0.686461953818798,-3.056008055023029,7.044330599148869,6.037605041410327
10.4,-3.8063819191672588,1010.7609766179864,56.4428892199227,1.1837278419855823,52.71648547899184,49.27503590033108,75.48145962397544,231.46922773851892,5.22145815713509,3.8639975348653564,-122.87245819777038,0.8151536726689657,1.1491977272925933,0.6016837780605417,-0.12304087198637284,1.3718491654262357,-0.7363298900890978,-0.271870173963265,-0.9687845094422987,-6.73680477142334,29.451019287109375,43.950035095214844,-5.039340782165527,-0.6297197967767716,-2.611001318693161,32.62921651204427,53.706091986762154,173.53641764322916,-0.7393279528993367,-5.236994644552468,-15.63582868097782,-0.31167755126953123,0.5363433837890625,-1.042742919921875,-4.740890169143677,-0.7344311296939849,-2.5728938072919845,-1.1429035494744313,7.996835438782573,5.370598783652037
10.5,-3.8878133947199043,1010.7707353071733,56.44674125363787,1.178440365370605,52.586421349502764,49.275035744630365,75.4853116576906,230.90634825246923,5.339566006633552,3.990678673153104,-122.87245671464962,0.8107586274566921,-0.5788909278801562,0.6410909267236093,0.22392695044171146,-0.011954441950436706,-0.699813837233793,-0.16663876947910544,-1.3808440637865198,-0.15512046813964844,49.999882507324216,16.396688842773436,-3.275223398208618,4.061326350271702,2.1829973638057707,37.538185119628906,73.19081573486328,145.75260467529296,9.451574287064371,26.88275856198758,0.5936105474840847,0.9185775756835936,3.5360641479492188,0.18209686279296874,-3.7571976631879807,4.531967115402222,2.3496902137994766,-1.1350598959024993,9.586558920736909,-0.42336778175451795
10.6,-3.96924487027255,1010.78049399636,56.45059328735304,1.173152888755628,52.45635722001368,49.27503558892965,75.48916369140576,230.34346876641956,5.457673856132015,4.117359811440851,-122.87245523152885,0.8063635822444186,0.5851299796632324,0.7155479998023284,0.08444435925014143,0.17332277322147688,-0.6834621402169522,-0.06752069365592646,-1.4301507808633223,-0.18351249694824218,50.50024261474609,16.46820526123047,2.330320766568184,-4.381987237930298,-3.4843670606613157,39.90611877441406,72.58081970214843,148.74237670898438,-6.020338177110702,-8.257350064561962,1.2062506325185485,-0.586248779296875,0.05009307861328125,0.04315032958984375,2.4507128946483134,-4.757190680503845,-3.5329147577285767,0.36647586437252355,9.695606623050569,-0.20724002188339247
10.7,-4.050676345825195,1010.7902526855468,56.45444532106821,1.1678654121406506,52.326293090524594,49.27503543322893,75.49301572512094,229.78058928036987,5.575781705630477,4.244040949728599,-122.87245374840808,0.8019685370321451,0.747227692552488,0.7648608131549967,0.014975037541086538,0.7767724013933999,-0.6417891485722933,-0.005791657938033219,-1.3681657545962662,4.356985473632813,49.92185287475586,18.133213806152344,-2.711891417205334,0.4796315133571625,1.3076849579811096,42.5685780843099,72.95142618815105,147.64283243815103,-8.025839298044442,-2.414009119623303,5.147323185294792,-0.6345413208007813,0.9936187744140625,0.6951995849609375,-2.7743714809417725,0.2721325889229774,1.1616994932293891,1.7003734537524355,9.603766719099582,-0.15418551970495603
