time,Barometer_relativeAltitude,Barometer_pressure,Location_altitude,Location_speedAccuracy,Location_bearingAccuracy,Location_latitude,Location_altitudeAboveMeanSeaLevel,Location_bearing,Location_horizontalAccuracy,Location_verticalAccuracy,Location_longitude,Location_speed,Orientation_yaw,Orientation_qx,Orientation_qz,Orientation_roll,Orientation_qw,Orientation_qy,Orientation_pitch,Magnetometer_z,Magnetometer_y,Magnetometer_x,GyroscopeUncalibrated_z,GyroscopeUncalibrated_y,GyroscopeUncalibrated_x,MagnetometerUncalibrated_z,MagnetometerUncalibrated_y,MagnetometerUncalibrated_x,Accelerometer_z,Accelerometer_y,Accelerometer_x,AccelerometerUncalibrated_z,AccelerometerUncalibrated_y,AccelerometerUncalibrated_x,Gyroscope_z,Gyroscope_y,Gyroscope_x,Gravity_z,Gravity_y,Gravity_x
3.1,-0.0116262435913086,1011.9847030639648,40.93829727172851,-1.0,-1.0,49.27633961698388,59.97686767578125,-1.0,35.0,18.011295318603516,-122.87119729512564,-1.0,-0.4400775280083035,0.00068590559527783,0.6641055568227082,1.385988505894646,-0.04084515390466227,-0.7459028048528447,-1.4287331480817669,10.881592178344727,50.48086700439453,-12.955400085449218,-1.0763670206069946,0.6162632552906873,-0.795465266890824,51.20303055612665,72.74387975993909,120.86179036592182,2.618532408202663,1.7048565832093356,-1.9003614863087517,0.20512123107910157,1.0226837158203126,-0.004680252075195318,-1.7528856158256532,0.07082977481186392,-1.1002618670463562,1.1150157379494794,9.707509885264336,0.5891321227434102
3.2,-0.0073986053466797,1011.9841613769531,40.93829727172851,-1.0,-1.0,49.27633961698388,59.97686767578125,-1.0,35.0,18.011295318603516,-122.87119729512564,-1.0,0.473041028615648,0.07192498770239839,0.617554311829719,-2.7634179264151624,0.0055781239802731395,-0.7823951338590698,-1.311795653847952,16.287931060791017,46.19492950439453,-21.18970184326172,-1.5714970618486404,-0.5792240787297487,-1.3025056779384614,52.59757112201891,70.86371090537624,113.87330225894326,0.08100137758538126,-1.2337169179093839,-0.6418959462960251,0.29396591186523435,0.9892280578613282,-0.14369964599609375,-1.3822482883930207,-1.281208005361259,-1.5232477903366088,2.318153491837978,9.464413485727906,-0.9464024420651607
3.3,-0.0031709671020507995,1011.9836196899414,40.93829727172851,-1.0,-1.0,49.27633961698388,59.97686767578125,-1.0,35.0,18.011295318603516,-122.87119729512564,-1.0,0.5251083858977171,0.13610567250817546,0.564039168754519,-2.854425641106711,-0.0285879226088314,-0.8137917270863169,-1.183260085459868,25.494286346435548,41.52027053833008,-22.417177581787108,-0.5752644192427396,-0.7788657808676362,-0.7263013280928136,58.46984955637079,67.57111555400647,111.61521787141498,-1.1675561127117278,-3.746158471616506,-0.781744645994231,0.26957359313964846,0.7617038726806641,-0.15821685791015624,0.4454454779624939,-0.9668595165014267,-0.10957054384052752,3.5465395116612313,9.078733960213958,-1.0483979827645606
3.4,0.0010566711425781007,1011.9830780029297,40.93829727172851,-1.0,-1.0,49.27633961698388,59.97686767578125,-1.0,35.0,18.011295318603516,-122.87119729512564,-1.0,0.23016290001581483,0.0789230718635313,0.6283267278164146,-1.8351029174167182,-0.04722542937222568,-0.7698466224365705,-1.3636973802385337,21.945014572143556,44.851768493652344,-18.639677429199217,0.4209682233631611,-0.9785074830055237,-0.15009697824716567,64.34212799072266,64.27852020263671,109.35713348388671,-3.108576877734996,0.34515795467674726,3.621714411582835,0.2451812744140625,0.5341796875,-0.17273406982421874,1.1555639773607254,2.432719364762306,3.2438427686691282,1.9864294430083782,9.550212122140227,-0.22211266888233422
3.5,0.005284309387207001,1011.982536315918,40.93829727172851,-1.0,-1.0,49.27633961698388,59.97686767578125,-1.0,35.0,18.011295318603516,-122.87119729512564,-1.0,-1.9348179781063801,-0.04948257096219201,0.7213219504437391,1.2423854556658551,-0.02437741499535406,-0.6896166387005072,-1.4556750181162985,4.393001937866211,50.82380828857422,-15.090771484375,1.5456094861030578,1.6040326131507754,2.1209433279931544,51.23094863891602,70.90189971923829,114.99648590087891,3.4352291835647817,1.3666057483464478,1.6943412974487244,0.09193954467773438,1.0912689208984374,0.3198211669921875,1.9531036496162415,0.7631835035979748,0.9761944651603699,-0.4150785160933528,9.724383454010487,1.0314423453184682
3.6,0.009511947631835901,1011.9819946289062,40.93829727172851,-1.0,-1.0,49.27633961698388,59.97686767578125,-1.0,35.0,18.011295318603516,-122.87119729512564,-1.0,-1.7849827833745198,-0.12081082609389555,0.7217948735384951,1.3338832128202345,-0.13620538109419394,-0.6654823930184784,-1.1957919324439175,0.9750179290771485,52.864498138427734,-2.9577316284179687,2.0656242430210114,0.5862161352299153,1.751853231806308,43.43608436584473,72.63045829324162,125.78281398100012,-1.4127761971777677,6.478840917547046,-2.066512726674676,0.08970413208007813,1.4971138000488282,0.18393363952636718,3.2758052825927733,-1.9707335174083709,-0.025099964067339886,-0.8294684909734874,9.087225894227325,3.477984373285994
3.7,0.013739585876464802,1011.9814529418945,40.93829727172851,-1.0,-1.0,49.27633961698388,59.97686767578125,-1.0,35.0,18.011295318603516,-122.87119729512564,-1.0,-1.9271791156714855,-0.21323256600604834,0.7530691639209647,1.1754946042251402,-0.24002248704005308,-0.5695782634801297,-0.8616422803067127,-5.390374946594238,50.56470794677735,12.622109985351562,2.585638999938965,-0.43160034269094466,1.3827631356194616,35.64122009277344,74.35901686724495,136.5691420611213,6.664525167913138,14.6345082556054,-6.104610013121068,0.08746871948242188,1.9029586791992188,0.048046112060546875,1.8807378351688384,1.0816323786973954,2.784766083955765,-2.462730772694349,7.414951613288521,5.859937625665664
3.8,0.0179672241210937,1011.9809112548828,40.93829727172851,-1.0,-1.0,49.27633961698388,59.97686767578125,-1.0,35.0,18.011295318603516,-122.87119729512564,-1.0,-1.9657591198013478,-0.23894689264881644,0.7581497017959624,1.170356162078265,-0.24242310382059773,-0.5546280260003026,-0.8129195574516362,-10.551784133911132,48.41933135986328,18.168128967285156,0.30252726078033465,-0.08547318950295452,-0.004062679316848339,31.956434631347655,72.88480323342716,143.0515494851505,5.493401411234661,-2.3928667290645835,-13.177030571557282,0.2019359588623047,1.186334991455078,-0.3364566802978516,-2.0403657272458076,0.2771354019641876,-1.4172506630420685,-2.6338117519468813,7.099208436762095,6.178928464263379
3.9,0.0221948623657226,1011.9803695678711,40.93829727172851,-1.0,-1.0,49.27633961698388,59.97686767578125,-1.0,35.0,18.011295318603516,-122.87119729512564,-1.0,-1.80321352809854,-0.1710985067640392,0.7188830476359822,1.4209281439727481,-0.1135878938410683,-0.660485964985361,-1.154501264057998,-0.30864906311035145,52.712364959716794,2.940956878662109,-1.980584478378296,0.2606539636850357,-1.3908884942531585,28.271649169921876,71.41058959960938,149.5339569091797,-6.0345376093572,8.297928217118084,-3.4506329135671256,0.3164031982421875,0.4697113037109375,-0.72095947265625,-3.213065481185913,2.767572174966335,-0.42499881982803345,-0.6620442792928614,8.923953323703408,3.865158945050239
4.0,0.0264225006103515,1011.9798278808594,40.93829727172851,-1.0,-1.0,49.27633961698388,59.97686767578125,-1.0,35.0,18.011295318603516,-122.87119729512564,-1.0,0.5776984683775195,-0.10174277950310504,0.7816455778097409,0.22749658556681512,0.09218786358349136,-0.6045104262684471,-1.2925802573337415,-11.071223068237305,49.360957336425784,-15.019113922119141,-3.01390165053308,0.4316882625222206,0.34075173288583754,32.624215377004525,73.71353952508224,124.88873612253289,6.619133857534676,13.399433434894084,4.8910736623074484,-0.12839279174804688,2.0699920654296875,0.32569351196289065,-2.7736092999577524,-1.9656122588552534,1.0543294459581376,-2.3736306032120806,9.419956562816202,0.4750355658001639
4.1,0.07926893234252924,1011.9736099243164,40.93829727172851,-1.0,-1.0,49.27633961698388,59.97686767578125,-1.0,35.0,18.011295318603516,-122.87119729512564,-1.0,0.5396048588232323,0.01690333069147377,0.6290138255109978,0.4952355495463852,-0.013701183372802161,-0.7700777566355199,-1.3259081835113937,13.485923385620117,46.87311935424805,-18.16923370361328,-1.067613052483648,-0.25728862294927246,-0.6185091130435467,44.45886138112921,71.85335904171592,120.74128731175472,-9.063504300830363,-3.4304039553654193,4.673285445852726,-0.32603988647460935,1.061594009399414,0.2731170654296875,1.7747105598449706,-3.2106122732162476,-5.509760427474975,1.8963272934093325,9.438952647448183,0.06985259065398945
4.2,0.132115364074707,1011.9673919677734,40.93829727172851,-1.0,-1.0,49.27633961698388,59.97686767578125,-1.0,35.0,18.011295318603516,-122.87119729512564,-1.0,-0.26815326049753363,0.0003250789853423405,0.5928234586014327,2.7779175657487563,-0.06609593726941573,-0.8012893820546383,-1.259840896578559,21.286188888549805,47.22822875976563,-12.354402923583985,0.878675545565784,-0.9462655084207654,-1.5777699589729308,56.2935073852539,69.99317855834961,116.59383850097656,-5.981327449227869,-13.544339450861216,-1.0254743311589958,-0.5236869812011719,0.053195953369140625,0.22054061889648438,-0.009379545226693143,1.3645157158374785,2.463764226436615,2.7996129349394883,9.311241278101205,1.0529927011034637
4.3,0.15633662541707355,1011.9644864400228,40.93829727172851,-1.0,-1.0,49.27633961698388,59.97686767578125,-1.0,35.0,18.011295318603516,-122.87119729512564,-1.0,-1.1706349206048,-0.07347643206517673,0.6802934537107979,2.042652401232547,-0.02298804502919313,-0.7274208133112404,-1.4049530610974759,8.338982391357423,51.088661193847656,-11.903483581542968,0.9263020343147218,0.4319547331891953,0.34260427951812744,50.98651860555013,72.10561841328939,118.34690619574653,-2.164971581147909,-3.278236365510523,6.527226594742425,-0.33779106140136717,0.39964942932128905,0.5470073699951172,0.9951979756355286,1.8151903748512268,2.251381540298462,0.705436516788544,9.671338501686751,1.3272512412207198
4.4,0.18055788675944007,1011.9615809122721,40.93829727172851,-1.0,-1.0,49.27633961698388,59.97686767578125,-1.0,35.0,18.011295318603516,-122.87119729512564,-1.0,-1.8470805706991005,-0.1724678434985463,0.7326263976620653,1.3114377944648126,-0.1582598641127572,-0.6242723637584672,-1.0648695101603696,-3.470346450805664,51.42035064697266,4.756652069091797,0.9739285230636596,1.8101749747991562,2.2629785180091857,45.67952982584635,74.21805826822917,120.0999738905165,0.8360498147257139,27.48590548181057,4.562394541438222,-0.1518951416015625,0.7461029052734375,0.87347412109375,5.7585704803466795,-2.893575131893158,2.9586525321006776,-1.4791625054405722,8.37489595527321,4.287457860944121
4.5,0.2047791481018066,1011.9586753845215,40.93829727172851,-1.0,-1.0,49.27633961698388,59.97686767578125,-1.0,35.0,18.011295318603516,-122.87119729512564,-1.0,-1.9879023986660147,-0.24125172527034403,0.7709370928954351,1.0817421093593307,-0.28757246799014335,-0.5136050022090475,-0.7127110109850536,-14.511196899414063,46.19104843139648,21.242306518554688,2.3429688893258573,-1.6389900378882885,1.0559034261852502,29.61435257761102,71.74250150981702,144.78104762027138,14.426706398359835,2.4408462146922942,-15.749450734695793,0.5318023681640625,2.2348228454589845,-0.06547317504882813,-1.1417852267622948,-0.39382114410400393,-0.8180346678942442,-3.477289128337353,6.404232543547451,6.540647794544995
4.6,0.22900040944417316,1011.9557698567709,40.93829727172851,-1.0,-1.0,49.27633961698388,59.97686767578125,-1.0,35.0,18.011295318603516,-122.87119729512564,-1.0,-1.9247354427733476,-0.15738129877861248,0.7496554023328751,1.1924574526408394,-0.17382782646319828,-0.6147052278085529,-1.0568890321451108,-5.969520568847656,51.5865119934082,7.756076049804688,-0.5388786036521198,0.08405557051301016,1.0228868367150425,30.366820606432462,72.67677672536749,136.7396651217812,0.16904538177169853,-3.3240929260870815,-8.222226904089151,0.14585113525390625,2.1410171508789064,0.0009941101074218694,-4.093904900550842,0.7467625707387924,-2.759150266647339,-1.8534260024417937,8.4582038270092,4.385264125953614
4.7,0.2532216707865397,1011.9528643290201,40.93829727172851,-1.0,-1.0,49.27633961698388,59.97686767578125,-1.0,35.0,18.011295318603516,-122.87119729512564,-1.0,-0.12753866815704562,-0.11294897012299002,0.7691936838492011,0.7343836292007341,0.049438462058141994,-0.6171759914472741,-1.282333132914913,-8.59023323059082,50.04753494262695,-12.268109130859376,-3.4207260966300965,1.8071011789143085,0.9898702472448349,31.119288635253906,73.61105194091797,128.69828262329102,-2.2219935327307874,25.131390753685235,3.5095765831536796,-0.24010009765625,2.047211456298828,0.06746139526367187,-2.730527412891388,2.8115615785121917,4.730049204826355,-1.9898112519400333,9.355138638207912,1.1818916371805082
4.8,0.2774429321289062,1011.9499588012695,40.93829727172851,-1.0,-1.0,49.27633961698388,59.97686767578125,-1.0,35.0,18.011295318603516,-122.87119729512564,-1.0,1.2478169383461715,-0.02509470399371631,0.7006979910220024,1.3170931110836244,0.022976902218081623,-0.6960195984560454,-1.3193217290416388,0.2804742813110355,47.9833740234375,-18.442477416992187,-0.5759139385074374,-0.9385440375655891,-3.706073720753192,36.57136391533746,72.2765232510037,121.27168430752225,3.0832007001444692,-0.36663586080014704,6.521875888670758,-0.053878021240234386,1.4560863494873046,0.3640285491943359,2.319660301506519,-3.6514444202184677,-8.432296466827392,-0.09181035271620383,9.419920088650285,0.18146978589265844
4.9,0.30166419347127277,1011.9470532735189,40.93829727172851,-1.0,-1.0,49.27633961698388,59.97686767578125,-1.0,35.0,18.011295318603516,-122.87119729512564,-1.0,-0.24178599248623778,0.00608906766801593,0.5305307796450508,2.7300739429029415,-0.11071736477619316,-0.8384772800812496,-1.106391104858266,28.08645095825195,44.62324523925781,-8.372781372070312,2.268898219615221,-3.6841892540454864,-8.40201768875122,42.023439195421005,70.94199456108942,113.84508599175348,-11.274461972605586,-12.59025225201994,-0.3603827917547523,0.13234405517578124,0.8649612426757812,0.660595703125,-1.1829334199428558,-2.4521219402551653,0.7006077259778977,4.023681866055131,8.754352251584232,1.7388295215076208
5.0,0.3258854548136393,1011.9441477457682,40.93829727172851,-1.0,-1.0,49.27633961698388,59.97686767578125,-1.0,35.0,18.011295318603516,-122.87119729512564,-1.0,-0.7670524094720884,-0.03586705922762287,0.6507798936349566,2.3660950060968973,-0.041446785741008116,-0.7483528879017843,-1.3800976411400667,12.77255744934082,49.936275482177734,-11.558320617675781,-0.06543449610471726,1.9914978709071876,2.0242982029914858,59.651009007504115,69.95269534462376,121.73399513646176,-5.718759222693443,-3.0690570824319123,8.089074439666792,-0.5734931945800781,0.17295684814453124,0.5683395385742187,1.0799736946821212,6.498006653785706,3.43549587726593,1.3483235037657244,9.610420039508938,1.1591880023541674
5.1,0.3501067161560058,1011.9412422180176,40.93829727172851,-1.0,-1.0,49.27633961698388,59.97686767578125,-1.0,35.0,18.011295318603516,-122.87119729512564,-1.0,-1.9051607167499722,-0.24653692874733185,0.7257880868927832,1.4185445010964788,-0.11986314556683794,-0.6082148116796801,-1.005058207843794,-4.298913764953613,51.1832878112793,5.891314697265625,0.7809147205203771,0.03653952907770863,1.0676551520824433,44.6145044427169,71.27313569721423,132.55680507860686,8.645518425830009,35.634034708675145,4.853939388514459,0.0727756500244141,1.3683712005615234,0.3158683776855469,5.811303140036761,-3.807185614109039,2.605860859155655,-1.2219520576926786,8.055641731112003,4.73865447231166
5.2,0.3743279774983724,1011.938336690267,40.93829727172851,-1.0,-1.0,49.27633961698388,59.97686767578125,-1.0,35.0,18.011295318603516,-122.87119729512564,-1.0,-2.0475359693782655,-0.23309822798191399,0.7763738321528151,1.1006390595752729,-0.22901997206355557,-0.5353745137950011,-0.8135923421787679,-13.4810001373291,48.32076873779297,16.884011840820314,1.6272639371454716,-1.91841881275177,0.11101210117340088,29.577999877929688,72.59357604980468,143.37961502075194,9.484608673177435,0.18318869261026388,-13.276321200679542,0.7190444946289063,2.5637855529785156,0.063397216796875,-2.694411015510559,0.32264569997787473,-2.474236786365509,-3.061264879572689,7.085233219805955,5.94198357309401
5.3,0.3985492388407389,1011.9354311625162,40.93829727172851,-1.0,-1.0,49.27633961698388,59.97686767578125,-1.0,35.0,18.011295318603516,-122.87119729512564,-1.0,-0.9911657480450181,-0.11803368681712834,0.697289146956939,0.43456832521473315,0.0003041580834037716,-0.6968986512546558,-1.3207059421986487,2.399709701538086,51.315583038330075,-8.889734649658203,-2.626034302636981,0.6801008880138395,-0.9273056983947754,35.26825476752387,73.4242455376519,132.9437671661377,-6.919910321849585,3.534063359543383,-9.036053311646729,-0.009298706054687411,2.0373973846435547,-0.3199386596679688,-6.828189444541931,3.356959190964699,-1.881308913230896,0.09648046025102798,9.411175407371818,1.5808835784067772
5.4,0.4227705001831054,1011.9325256347656,40.93829727172851,-1.0,-1.0,49.27633961698388,59.97686767578125,-1.0,35.0,18.011295318603516,-122.87119729512564,-1.0,1.9599957468082372,-0.05717250201501658,0.7497276532705354,-0.7853056853429579,0.2176145982693806,-0.6172344482769346,-1.26099380355673,-11.443441009521484,44.24671173095703,-27.540766143798827,-6.879332542419434,3.2786205887794493,-1.9656234979629517,40.95850965711806,74.25491502549913,122.50791931152344,12.665275300461127,19.729098579426406,7.459965848595947,-0.7376419067382812,1.5110092163085938,-0.7032745361328125,0.24535155147314072,-1.4730277061462402,2.3774617940187452,-2.1960449808027525,9.302032954059838,-1.8310181219919026
5.5,0.46372652053833,1011.9275817871094,40.93829727172851,-1.0,-1.0,49.27633961698388,59.97686767578125,-1.0,35.0,18.011295318603516,-122.87119729512564,-1.0,0.7248648609714009,0.03585669438028846,0.6008319462328245,-2.3284403149538813,0.09747438627387839,-0.7866622864484628,-1.2092472386499231,13.2187377081977,42.60856797960069,-27.80607011583116,0.0844814529642463,-1.379712551832199,-1.792402213811874,40.37370147705078,65.89660110473633,103.8596565246582,-8.741703594067362,-8.341010526396499,6.525328722796341,0.20886459350585937,1.4164688110351562,0.5255134582519532,-0.0009434606052107775,-2.1029056774245367,-6.593662937482198,2.429407893570083,9.127156617349055,-1.8790311007238922
5.6,0.5046825408935547,1011.9226379394531,40.93829727172851,-1.0,-1.0,49.27633961698388,59.97686767578125,-1.0,35.0,18.011295318603516,-122.87119729512564,-1.0,0.317296443269502,-0.006661032492187691,0.5455045884670378,-2.6185041755007927,0.13526016907094193,-0.8253970294476606,-1.1305146191668918,19.121996688842774,40.533399963378905,-29.351597595214844,2.3897874007932844,-1.5166504181921483,0.07479609511792673,44.84123675697728,67.87890679208857,110.26930419520329,-8.247777817192077,-4.261230100719034,10.75786111733526,-0.098089599609375,1.6762313842773438,0.6906890869140625,2.3071939427405597,2.1881683111190795,1.6448023051023484,3.5942733519648016,8.84100861541748,-2.0959235008500516
5.7,0.5456385612487793,1011.9176940917969,40.93829727172851,-1.0,-1.0,49.27633961698388,59.97686767578125,-1.0,35.0,18.011295318603516,-122.87119729512564,-1.0,-1.1971408272365436,-0.21090760463216446,0.6526853822849511,1.6362711028938794,0.011058834107885208,-0.71846185373125,-1.2249886763694322,6.525443649291992,51.119972229003906,-7.7483375549316404,4.695093348622322,-1.6535882845520973,1.9419944040477275,49.30877203690378,69.8612124794408,116.67895186574836,-5.399884850082248,14.755315369295776,5.5888868466942005,-0.4050437927246094,1.9359939575195313,0.8558647155761718,6.695662164688111,-3.5267522111535072,1.6217622399330138,1.2845367378762922,9.146358583579957,2.5024073541212406
5.8,0.5865945816040039,1011.9127502441406,40.93829727172851,-1.0,-1.0,49.27633961698388,59.97686767578125,-1.0,35.0,18.011295318603516,-122.87119729512564,-1.0,-2.0707405488270405,-0.26398980614224066,0.7688484613420608,1.173836171632218,-0.19670745129785697,-0.5448420511148713,-0.82777181777957,-11.479158210754395,49.06123428344726,16.31171112060547,2.076086239516735,-0.10224245861172676,1.470492735132575,37.46804229557863,70.70681405764574,132.64059626707558,19.7437165220394,17.625388633257746,-11.242688064108489,0.6987888336181642,1.761591339111328,0.10120429992675772,-0.04233429431915281,0.16972987055778502,1.8155127942562104,-2.5652446600989998,7.210847383064925,6.094346393260062
5.9,0.6275506019592285,1011.9078063964844,40.93829727172851,-1.0,-1.0,49.27633961698388,59.97686767578125,-1.0,35.0,18.011295318603516,-122.87119729512564,-1.0,-1.7463588480788537,-0.15446957995373775,0.7240528535306245,1.4384225121630974,-0.1250097760966959,-0.6529045176547487,-1.1543875891662294,-1.6398138046264648,52.29487609863281,4.433456420898437,-0.5429208695888519,1.4491033673286438,0.9989910662174225,25.62731255425347,71.55241563585069,148.60224066840277,-2.699794760198742,-7.326282272971571,-11.258750082663,1.8026214599609376,1.587188720703125,-0.6534561157226563,-5.932052099704743,0.08985061049461365,-3.1722848653793334,-0.8509407585156115,8.80504602305889,3.771767471582219
6.0,0.6685066223144531,1011.9028625488282,40.93829727172851,-1.0,-1.0,49.27633961698388,59.97686767578125,-1.0,35.0,18.011295318603516,-122.87119729512564,-1.0,1.4290746037950959,-0.09325054156985316,0.7115371165387485,-1.2864586506969629,0.20241579969296927,-0.6561160920276115,-1.3479089592288127,-6.398911476135254,46.36191635131836,-23.749097442626955,-3.1255976885557173,2.061864872276783,0.14602936059236526,33.52144012451172,71.6333251953125,119.77692642211915,-2.8186037734875087,26.37633505114734,6.5037354710200415,0.23390960693359375,1.8316612243652344,0.012264251708984375,-0.632848060131073,4.6098302632570265,3.490050035715103,-1.0790820063591933,9.513900628665684,-1.2388110828035603
6.1,0.7094626426696777,1011.897918701172,40.93829727172851,-1.0,-1.0,49.27633961698388,59.97686767578125,-1.0,35.0,18.011295318603516,-122.87119729512564,-1.0,1.1576990765568635,-0.04855659249636712,0.6953930059470621,-1.777523549349495,0.0959082209300273,-0.7011218179728267,-1.3824636355097426,-0.16162605285644532,47.298377990722656,-21.39443130493164,-1.3655020072271948,0.49372883080259755,-1.3907500983117835,41.3313441627904,70.88599612587376,115.70087928771973,9.968947770675012,-11.881469016535878,2.5794046955701333,-0.07009225142629527,0.988991285625257,0.12731983787135076,1.0390218079090119,-4.929561126232147,-5.710603153705597,-0.006913880174839804,9.602338849027454,-0.5418941175174853
6.2,0.7504186630249023,1011.8929748535157,40.93829727172851,-1.0,-1.0,49.27633961698388,59.97686767578125,-1.0,35.0,18.011295318603516,-122.87119729512564,-1.0,0.020430191073212513,-0.0129153503544053,0.6001622236704339,-3.071204640032426,0.0219999679778539,-0.798627511337148,-1.2887086522728564,17.377382278442383,46.89771423339844,-18.682720947265626,0.3945936741013276,-1.074407210671588,-2.9275295572159323,49.14124820106908,70.13866705643504,111.62483215332031,-7.816676907648445,-6.235608032149374,4.161118612894043,-0.37409410978618424,0.14632134688527962,0.24237542403371712,-0.16017380058765412,2.3613949730992316,-0.25942642278969286,2.716967370343655,9.41874385525167,-0.1945249427898728
6.3,0.791374683380127,1011.8880310058595,40.93829727172851,-1.0,-1.0,49.27633961698388,59.97686767578125,-1.0,35.0,18.011295318603516,-122.87119729512564,-1.0,-0.6766199956060198,-0.17213405147572733,0.6368204092391754,-0.27268796853241234,0.10914978457622578,-0.7365002323040591,-1.325420834032054,6.207424163818359,49.6841552734375,-15.841845703125,3.001112758446681,0.03371608643547486,-0.603443280690791,46.22126310471206,71.65066880789416,114.57630581325955,-4.339780548794865,13.106877598757444,13.563623412523864,-0.3267656828227796,1.2757836592824836,0.8254349959524055,5.721782255172729,0.9492965830489993,1.7207280039787292,1.5460914911322852,9.485647120153605,0.5826367773662507
6.4,0.8323307037353516,1011.8830871582032,40.93829727172851,-1.0,-1.0,49.27633961698388,59.97686767578125,-1.0,35.0,18.011295318603516,-122.87119729512564,-1.0,-2.070066041203433,-0.25262984339991273,0.768077307703386,1.1888736976823888,-0.17436172401212216,-0.5558124040787586,-0.8760271533859096,-10.952723503112793,49.72352828979492,13.992994689941407,5.607631842792034,1.1418393835425378,1.7206429958343505,43.301278008355034,73.1626705593533,117.52777947319879,16.33307966490455,19.798149786916376,-11.758098920489697,-0.279437255859375,2.4052459716796877,1.4084945678710938,2.1539433643221857,-2.6105625197291373,2.1299947291612624,-2.424474371223473,7.491514394678473,5.664481396799981
6.5,0.8662004470825195,1011.8790366432885,40.93829727172851,-1.0,-1.0,49.27633961698388,59.97686767578125,-1.0,35.0,18.011295318603516,-122.87119729512564,-1.0,-2.0742415625349095,-0.20353859380221642,0.7597514848574318,1.1800238100658276,-0.1267544322463679,-0.5996973446129478,-1.0442162593283695,-8.802719688415527,51.43412094116211,8.649391174316406,-1.1250980243086814,-1.4800712363794448,-0.03012660741806026,29.30399932861328,73.6476661682129,141.64350051879882,1.032667179885581,-8.612040811381041,-11.25513241823554,0.6807853698730468,1.3082839965820312,-0.6783370971679688,-4.597337317466736,-0.2576008656062186,-2.3333258390426637,-1.8778653083475305,8.383544015083313,4.498246186654567
6.6,0.9000701904296875,1011.8749861283736,40.93829727172851,-1.0,-1.0,49.27633961698388,59.97686767578125,-1.0,35.0,18.011295318603516,-122.87119729512564,-1.0,0.45538088014461026,-0.0898879414589612,0.6950255312099101,-0.44288055634410056,0.15820502248708118,-0.6784153765200379,-1.3940257364942605,-3.620388221740722,48.26176223754883,-20.572015380859376,-1.3412936221808196,-0.5900907033123077,-0.6122169390320779,30.42341417011462,70.6435488851447,123.56239622015701,-8.501759212584346,26.03919749667555,-1.9224769030577686,0.4446090698242187,1.6905441284179688,-0.2619499206542969,-3.9385455548763275,5.769995934888721,1.852110069990158,-0.5382375613781065,9.614191608549952,-0.7829857832421734
6.7,0.9339399337768555,1011.8709356134589,40.93829727172851,-1.0,-1.0,49.27633961698388,59.97686767578125,-1.0,35.0,18.011295318603516,-122.87119729512564,-1.0,1.6900889903262943,-0.03305417351744562,0.7289376070511073,-1.075105943245593,0.22596789189350036,-0.634985340024095,-1.2241899319651521,-11.27038745880127,42.53880157470703,-29.203167724609376,-1.5574892200529575,0.2998898297548294,-1.1943072706460953,31.542829011615954,67.63943160207648,105.48129192151521,14.970449286462477,-3.953485638635456,7.625919036505967,0.20843276977539063,2.072804260253906,0.154437255859375,0.9121156230568885,-5.2031195789575575,-4.253430593013763,-1.7417670380908716,9.186163179867268,-2.221113476573676
6.8,0.9678096771240234,1011.8668850985441,40.93829727172851,-1.0,-1.0,49.27633961698388,59.97686767578125,-1.0,35.0,18.011295318603516,-122.87119729512564,-1.0,0.5474074628593381,0.09556961010093415,0.5848288920699456,-2.700529218386942,0.02172009846376077,-0.8041269752807079,-1.2167253189783693,20.187078857421874,43.0170166015625,-24.470562744140626,-0.8390982158482074,-1.0145286187529565,-0.9672031177207827,45.902317368356805,66.66414710596987,106.58986928839433,-10.364077897247075,-10.297035340778827,4.201808716005087,-0.2666080474853515,0.9921318054199217,0.22277374267578126,-0.1213869333267212,-2.173583620786667,-0.6601526680402457,3.0688856567747145,9.196570066043437,-1.428859375424683
6.9,1.0016794204711914,1011.8628345836294,40.93829727172851,-1.0,-1.0,49.27633961698388,59.97686767578125,-1.0,35.0,18.011295318603516,-122.87119729512564,-1.0,0.36400025130478975,-0.02914170701608023,0.6359383676737417,-1.9390291334239809,0.11827896154228798,-0.7551313830333715,-1.3503708501604677,9.53994140625,45.81189880371094,-24.528104400634767,-0.12070721164345741,-2.328947067260742,-0.7400989647954702,60.26180572509766,65.68886260986328,107.69844665527344,-4.552059259193539,3.670380644672215,12.191248608482777,-0.7416488647460937,-0.0885406494140625,0.2911102294921875,3.4159676584997216,4.99784347647801,2.023438608646393,1.5499250377599147,9.513844339207708,-1.3164553995661064
7.0,1.0355491638183594,1011.8587840687145,40.93829727172851,-1.0,-1.0,49.27633961698388,59.97686767578125,-1.0,35.0,18.011295318603516,-122.87119729512564,-1.0,-1.9652321316508021,-0.1951306728570254,0.7431212428215628,1.330446677587675,-0.08845027859518023,-0.619036803875325,-1.1180007365448001,-5.0204465866088865,52.12863311767578,1.7412528991699219,4.134309551119804,0.9231905996799469,2.6975855395197867,38.40076245759663,72.04464079204358,122.44160622044613,13.08441500705868,27.769823721078932,-5.941058537977486,0.46210708618164054,2.5571617126464843,0.42060394287109376,4.847610622644424,-2.9621961414813995,3.2721964359283446,-1.4205525202212157,8.646312966434657,3.8117902845039966
7.1,1.0694189071655273,1011.8547335537997,40.93829727172851,-1.0,-1.0,49.27633961698388,59.97686767578125,-1.0,35.0,18.011295318603516,-122.87119729512564,-1.0,-2.1228944401110312,-0.23692867946708737,0.7708349778497138,1.1666433506956015,-0.1371288267711611,-0.5731630598677495,-0.9614873303888437,-11.47930088043213,50.700582122802736,11.214581298828126,-0.0806445792317394,1.1412693886086345,0.48928593397140485,35.7256686561986,72.8295215807463,125.87659092953331,2.5127772154022754,-4.72600882345885,-11.672500570502876,0.03455848693847652,1.686554718017578,-0.1000202178955078,-2.215694823861122,0.7832555174827576,-1.835938823223114,-2.2390450956988706,8.015791249856353,5.109485022935718
7.2,1.1032886505126953,1011.850683038885,40.93829727172851,-1.0,-1.0,49.27633961698388,59.97686767578125,-1.0,35.0,18.011295318603516,-122.87119729512564,-1.0,-0.8895194479366826,-0.11913524141943992,0.7056041379062445,-0.0036399419328068785,0.0612227055413327,-0.6873390064688427,-1.3721460092097322,-1.1176918029785157,50.7877555847168,-12.570508575439453,-4.295598709583283,1.359348177537322,-1.7190136715769768,33.05057485480057,73.61440236944901,129.31157563862047,-7.414329736796821,1.9518382412943247,-6.642385042327865,-0.3929901123046875,0.8159477233886718,-0.6206443786621094,-6.4043584823608395,2.088455265155062,-1.5613158971071244,-0.1655030724335366,9.551747251979112,0.8105437508914062
7.3,1.1371583938598633,1011.8466325239702,40.93829727172851,-1.0,-1.0,49.27633961698388,59.97686767578125,-1.0,35.0,18.011295318603516,-122.87119729512564,-1.0,1.7153893172519514,-0.07241573468557974,0.7258148253684046,-0.8813214086630785,0.3008161201734928,-0.6100799327280159,-1.1977307145297844,-15.921472549438477,41.62953262329101,-29.608100128173827,-2.092172211408615,0.364926226157695,0.15220902934670444,28.038443555329973,68.97098597476356,115.43975922433953,14.270547444620357,18.282395854988394,7.204668957464844,0.4492164611816406,1.7137058258056639,-0.06624031066894531,0.16540089547634124,-0.8108585774898531,1.8248005628585815,-2.343652212616047,9.101195850486457,-2.5645114212275297
7.4,1.1710281372070312,1011.8425820090554,40.93829727172851,-1.0,-1.0,49.27633961698388,59.97686767578125,-1.0,35.0,18.011295318603516,-122.87119729512564,-1.0,0.9447386657498106,0.041766154258011466,0.6473052930688149,-2.095911600660153,0.11230098302450828,-0.7490054277731778,-1.2932206109000126,7.577191925048828,44.23434677124023,-28.528500366210938,0.11125428676605224,-0.629495725221932,2.023431730270386,23.026312255859374,64.32756958007812,101.5679428100586,-7.087090655014812,-10.400231569811403,3.2838978107252714,1.2914230346679687,2.611463928222656,0.48816375732421874,0.5362482815980911,-3.5854061603546143,-2.4483551777899266,1.2716345948817371,9.430729827312827,-2.1352944987995923
7.5,1.2048978805541992,1011.8385314941406,40.93829727172851,-1.0,-1.0,49.27633961698388,59.97686767578125,-1.0,35.0,18.011295318603516,-122.87119729512564,-1.0,0.7934178226280127,-0.003978984845008811,0.644115123404481,-2.1517527827320504,0.13350623680765955,-0.7496906960731266,-1.333713216286547,7.8766532897949215,45.45328369140625,-27.0619873046875,0.850925880111754,0.4051541775465012,-1.0639175981283189,47.329764918277135,67.89799338892887,104.22144036543996,-4.212113749241977,-2.6170233918792007,8.315799155564605,-0.44872360229492186,0.3294952392578125,0.40712127685546873,1.19056416451931,4.518131446838379,0.4152137666940689,1.282433704835698,9.527452125703991,-1.896061803567037
7.6,1.2537807464599608,1011.8326873779297,40.93829727172851,-1.0,-1.0,49.27633961698388,59.97686767578125,-1.0,35.0,18.011295318603516,-122.87119729512564,-1.0,-0.9641797565698471,-0.15875524458046392,0.6864490265787577,0.604288040493566,0.05955535733971441,-0.6966519190080668,-1.3792261670387043,0.584988021850586,50.932412719726564,-13.22845687866211,1.817951087001711,-0.9125360205769538,-0.004848265275359198,39.64413251374897,70.97124280427632,117.65317214162727,-3.719992341918163,20.26564343847722,5.509235247056484,0.09228363037109372,1.2721885681152343,0.11023063659667964,5.429886531829834,-5.326706892251968,1.435738354921341,0.22151017785361032,9.556622164539098,1.2818879367472977
7.7,1.3026636123657227,1011.8268432617188,40.93829727172851,-1.0,-1.0,49.27633961698388,59.97686767578125,-1.0,35.0,18.011295318603516,-122.87119729512564,-1.0,-2.1841616708934994,-0.18985616953346013,0.7913931698823173,1.004325513879255,-0.15846536719830956,-0.5576589778768007,-0.9681183137524002,-12.644158935546875,50.87935028076172,8.339517211914062,2.7849762938916682,-2.230226218700409,1.0542210675776005,31.958500109220807,74.04449221962376,131.08490391781456,19.097114213723536,6.265428702299893,-14.456379885898532,0.6332908630371094,2.2148818969726562,-0.18666000366210939,0.05880128294229507,0.6390588045120239,0.7206333339214325,-2.9736177803625163,8.069449131833611,4.683368010058403
7.8,1.3515464782714843,1011.8209991455078,40.93829727172851,-1.0,-1.0,49.27633961698388,59.97686767578125,-1.0,35.0,18.011295318603516,-122.87119729512564,-1.0,-1.8498166096360305,-0.14134835154671202,0.7333615485969281,1.4467253987633508,-0.03312399659936173,-0.6593266091206842,-1.2966023982491384,-3.1779497146606444,52.66867904663086,-3.701604461669922,-1.0301179993897676,-0.5757069200277329,-0.6333452057093383,34.09571733976665,74.65563386615955,128.70498934294048,-2.1803154049630833,-7.3047213647398355,-9.587430735135376,0.12843055725097652,1.2521064758300782,-0.4602153778076172,-4.8872230052948,1.0745263934135436,-2.3111292243003847,-0.8237045119427913,9.336246189306973,2.444958379158536
7.9,1.4004293441772462,1011.8151550292969,40.93829727172851,-1.0,-1.0,49.27633961698388,59.97686767578125,-1.0,35.0,18.011295318603516,-122.87119729512564,-1.0,1.5234766690430115,-0.09695309918928194,0.7151230553469604,-1.0866364143457434,0.2672535085097072,-0.6261697619269093,-1.2796079132591216,-10.880643272399903,44.520545959472656,-24.8003662109375,-4.845212292671204,1.0788123786449433,-2.320911478996277,36.2329345703125,75.26677551269532,126.3250747680664,-0.1145565873152016,25.13415729578912,0.7896196902182698,-0.37642974853515626,0.2893310546875,-0.733770751953125,-2.251452139019966,4.929834616184235,3.9438313961029055,-1.8175644762012197,9.2794838531214,-1.806960834020432
8.0,1.4493122100830078,1011.8093109130859,40.93829727172851,-1.0,-1.0,49.27633961698388,59.97686767578125,-1.0,35.0,18.011295318603516,-122.87119729512564,-1.0,1.3902541446415224,-0.00920213412667523,0.6938758120308229,-1.4318968777809329,0.21129477229810267,-0.6789962311435503,-1.2412626577806645,-5.2317602157592775,42.334224700927734,-30.01648941040039,-0.7180543638765812,-0.24685805290937396,-0.15413971543312072,30.04218814247533,65.77821831954152,103.48900162546258,5.103820457835383,-8.441539750908316,5.823229811736867,0.13551177978515624,1.7492965698242187,0.1311798095703125,0.8854128293693065,-5.542479920387268,-4.2042152911424635,-0.6402803743720195,9.258935278350412,-2.567803784610331
8.1,1.4981950759887694,1011.803466796875,40.93829727172851,-1.0,-1.0,49.27633961698388,59.97686767578125,-1.0,35.0,18.011295318603516,-122.87119729512564,-1.0,1.0643836762568586,-0.00277702804462292,0.6585077867928367,-1.8136106839461281,0.18105367212560017,-0.7283384682350866,-1.297377097465318,3.666639709472656,44.07380599975586,-30.132677459716795,0.5695768538862468,-0.1006297387182711,0.031586651504039776,34.834048220985814,67.16849718595805,103.95836358321341,-4.339838884079456,-6.533549185360075,5.828642908213734,-0.03318901062011717,1.4977691650390623,0.41356849670410156,-0.2427097328007221,3.205007201433182,0.6219496950507164,0.6226315679433103,9.442294534448086,-2.535508146487549
8.2,1.5470779418945313,1011.7976226806641,40.93829727172851,-1.0,-1.0,49.27633961698388,59.97686767578125,-1.0,35.0,18.011295318603516,-122.87119729512564,-1.0,0.6927758954479157,-0.0718379827152605,0.681818495946267,-0.855831961110354,0.16344991792703395,-0.7050792032341381,-1.4086235186399478,-1.2204475402832031,46.888545227050784,-25.247694396972655,1.8572080716490746,0.04559857547283173,0.21731301844120027,39.6259082994963,68.55877605237458,104.42772554096423,-0.4874420419954462,10.738750817126036,11.647384775494634,-0.20188980102539061,1.2462417602539062,0.6959571838378906,4.040657591819763,-3.1971010506153106,-0.20423128306865693,0.047926296875695704,9.644254738380313,-1.2897690636522507
8.3,1.595960807800293,1011.7917785644531,40.93829727172851,-1.0,-1.0,49.27633961698388,59.97686767578125,-1.0,35.0,18.011295318603516,-122.87119729512564,-1.0,-2.100272601264061,-0.14300734940428436,0.772775981581753,1.0914434345824813,-0.1095454201186187,-0.5984125013208496,-1.122011569683287,-7.8272504806518555,51.633819580078125,0.9179206848144531,2.3748021602630613,-0.24784088283777236,2.1542382314801216,34.81273594906456,71.50753286261308,118.95081574289424,13.073773289213326,20.021639802515804,-14.10809219644174,0.4616901397705077,2.05399169921875,-0.2054813385009766,2.8020201846957207,-0.7622405290603638,4.183585083484649,-2.1988752061098626,8.705443083890973,3.470145233319029
8.4,1.6448436737060548,1011.7859344482422,40.93829727172851,-1.0,-1.0,49.27633961698388,59.97686767578125,-1.0,35.0,18.011295318603516,-122.87119729512564,-1.0,-2.1686891650127036,-0.15174083478443617,0.7673388206713998,1.0639072699416323,-0.08854474437320639,-0.6133732570448794,-1.1627617080904606,-8.427574729919433,52.53840560913086,1.6807373046875,2.8923962488770485,-0.5412803411483764,4.091163444519043,29.99956359863281,74.45628967285157,133.47390594482422,1.441374215585105,-9.009170886905192,-9.107174223469794,1.125270080566406,2.861741638183594,-1.1069198608398438,-3.1460818529129027,0.8331917218863965,-2.551684057712555,-1.9442610109730807,8.939320170374511,3.3242195335283875
8.5,1.6937265396118164,1011.7800903320312,40.93829727172851,-1.0,-1.0,49.27633961698388,59.97686767578125,-1.0,35.0,18.011295318603516,-122.87119729512564,-1.0,0.18958296559413357,-0.06630806201190195,0.6956302108623041,-0.7767346027035865,0.13626502041754335,-0.6935393628010993,-1.415755130215355,-1.2455961227416992,48.82047729492187,-20.814756011962892,-3.769442528486252,2.857725064083934,-1.2590885922312736,34.15939973530016,73.31293045847039,120.5902782239412,-10.598161846027374,10.685790503571926,-6.296937413215637,-0.6042961120605469,1.1141395568847656,-0.6655624389648438,-4.400224924087524,5.0025307454168795,0.17146089375019075,-0.26482483859161615,9.652757895213961,-0.930109878944205
8.6,1.7394387245178222,1011.7746047973633,40.93829727172851,-1.0,-1.0,49.27633961698388,59.97686767578125,-1.0,35.0,18.011295318603516,-122.87119729512564,-1.0,1.7975245877474109,-0.04349820013673919,0.7398885674734764,-0.8186040632487523,0.31344422927882165,-0.5883445420464041,-1.1224999728920098,-17.65668888092041,39.59317474365234,-31.397581481933592,-1.9274378076195717,0.7619706040248273,-0.8799929766682908,32.44507518567537,68.28864208020661,109.58804682681435,16.09975199977122,8.843505576025844,6.148974523122012,-0.09105110168457031,0.940860366821289,-0.18420028686523438,0.10306000411510467,-3.6910659849643705,-0.19986075162887573,-2.905172283680737,8.820854826730788,-2.944754352484643
8.7,1.785150909423828,1011.7691192626953,40.93829727172851,-1.0,-1.0,49.27633961698388,59.97686767578125,-1.0,35.0,18.011295318603516,-122.87119729512564,-1.0,1.2264701391549928,0.042494698908652,0.6612968490335766,-1.676223565963765,0.20808739217538846,-0.7186969854216271,-1.2044656254910349,2.2662288665771486,41.49878463745117,-34.62668228149414,-0.08543308675289155,-1.333783856034279,-0.5008973611053079,30.730750636050576,63.264353701942845,98.5858154296875,-5.617671071856021,-9.974866515119075,5.735705301380008,0.42219390869140627,0.7675811767578125,0.297161865234375,-0.25803312957286834,0.996834671497345,-0.9090672235935926,0.36723158747213536,9.155271022640765,-3.4806665542681516
8.8,1.830863094329834,1011.7636337280273,40.93829727172851,-1.0,-1.0,49.27633961698388,59.97686767578125,-1.0,35.0,18.011295318603516,-122.87119729512564,-1.0,1.2920409563058814,-0.06409984819123146,0.671646340719985,-1.357619820465389,0.27604093075387154,-0.6830971016132961,-1.2681147422860737,-6.149885177612305,43.058895874023435,-32.01501693725586,1.2289669197052717,-0.3367210105061531,-0.2843581254361197,31.471053876374896,64.70993411415502,99.31554412841797,-0.07663301900152122,3.7643617692095033,11.766781145604252,0.1837799072265625,1.0919090270996095,0.6148056030273437,2.6097504392266275,0.5302335679531096,-0.09659167453646662,-0.5532216558093205,9.334150678332449,-2.8473173153398186
8.9,1.8765752792358399,1011.7581481933594,40.93829727172851,-1.0,-1.0,49.27633961698388,59.97686767578125,-1.0,35.0,18.011295318603516,-122.87119729512564,-1.0,-1.3652966006331204,-0.11833394141445601,0.7399117134454823,0.6759668616393929,-0.008969987760779044,-0.6484240210975455,-1.3135370632013719,-4.178412246704101,51.659691619873044,-9.418291473388672,2.543366926163435,0.6603418350219726,-0.06781888976693154,32.21135711669922,66.15551452636718,100.04527282714844,3.496539947608858,25.512396149908305,-5.266936690673381,-0.05463409423828125,1.4162368774414062,0.9324493408203125,5.13385642170906,-2.6303581953048707,3.4177833888679743,-1.1789830096783396,9.312494025415182,1.7560942632621341
9.0,1.9222874641418457,1011.7526626586914,40.93829727172851,-1.0,-1.0,49.27633961698388,59.97686767578125,-1.0,35.0,18.011295318603516,-122.87119729512564,-1.0,-2.3419094012949704,-0.1660435251454202,0.7891366074207034,0.933880476013605,-0.07389140447708484,-0.5843197300103709,-1.1203398938629427,-12.414830207824707,51.844792175292966,1.6444183349609376,1.499632601812482,-1.4565813846886158,0.6579608228057623,30.391542133532074,74.70393291272615,128.10037793611227,10.417748901740758,-4.251624301792681,-12.625984484301805,0.4945556640624999,1.9567123413085938,-0.6746543884277344,-2.260840104520321,-0.39900409579277046,-2.0482721760869027,-2.5305006497499347,8.789384635807574,3.413485787599087
9.1,1.9679996490478515,1011.7471771240234,40.93829727172851,-1.0,-1.0,49.27633969426284,59.97686767578125,-1.0,35.0,18.011295318603516,-122.87119730727854,-1.0,-0.09453446474072646,-0.06934594011910472,0.7097908175937526,-0.4868760925361547,0.09623254366232052,-0.6881237617263287,-1.409036213893264,-1.834307861328125,49.63785018920898,-18.421489715576172,-0.5852740122005342,0.16146975867450242,0.4161960041150451,29.525517513877467,70.94204872532895,117.35097824899775,-6.8540150064942225,-3.0524212971904876,-6.681548578845709,0.3321132659912109,1.9014415740966797,-0.5221637725830078,-5.115421843528748,2.700173483695835,-2.1373392909765245,-0.3867091452962672,9.651289810035824,-0.34857564708755007
9.2,2.0137118339538573,1011.7416915893555,40.93829727172851,-1.0,-1.0,49.27633977154179,59.97686767578125,-1.0,35.0,18.011295318603516,-122.87119731943143,-1.0,1.5835744614041876,-0.07845833367211974,0.7104707926071339,-0.913805534760318,0.3573279803384168,-0.5958964668300736,-1.1259445058271589,-18.997173309326172,38.80613021850586,-31.205369567871095,-2.6701806262135506,1.7795209020376206,0.17443118542432784,28.65949289422286,67.18016453793174,106.60157856188323,12.916384779065845,20.573449100002644,2.556236505578757,0.16967086791992186,1.8461708068847655,-0.36967315673828127,-0.17827004566788673,0.7073850721120836,2.4168732702732085,-2.6481927120327997,8.819970094398558,-3.058614832681417
9.3,2.0594240188598634,1011.7362060546875,40.93829727172851,-1.0,-1.0,49.27633984882075,59.97686767578125,-1.0,35.0,18.011295318603516,-122.87119733158434,-1.0,1.1081038750883934,0.02783683821887385,0.6396629547687859,-1.722776233113286,0.24184060534552115,-0.726650501954145,-1.154457188419072,0.425628662109375,39.49614715576172,-35.787359619140624,-1.4554317526519298,-0.24566964656114565,-1.345308421552181,34.36204701473839,64.7950459530479,101.15173914056075,-6.721746003068984,-8.83364580233842,6.297133695666194,-0.24249534606933593,0.9245594024658202,-0.05330963134765626,-0.2332808561623096,-2.106483244895935,-2.7906649615615606,0.6006403867553687,8.967900952692627,-3.7665074613882594
9.4,2.105136203765869,1011.7307205200195,40.93829727172851,-1.0,-1.0,49.27633992609971,59.97686767578125,-1.0,35.0,18.011295318603516,-122.87119734373724,-1.0,0.9612598559581992,-0.039821251975357616,0.6262119484550033,-1.708344438869118,0.28491999752094316,-0.7233461606117542,-1.1954960104785481,-0.467425537109375,41.05706558227539,-35.052283477783206,-0.24068287909030914,-2.270860195159912,-2.8650480285286903,40.06460113525391,62.40992736816406,95.70189971923828,-1.9709283170461653,-3.8201150452569124,8.767049469880758,-0.6546615600585938,0.002947998046875,0.26305389404296875,1.7489122807979585,2.2777882128953935,0.1406126208603382,0.5181117005079822,9.113470284100174,-3.546507509087771
9.5,2.150848388671875,1011.7252349853516,40.93829727172851,-1.0,-1.0,49.276340003378664,59.97686767578125,-1.0,35.0,18.011295318603516,-122.87119735589013,-1.0,-0.34940815643354123,-0.13727740871018962,0.6799611350397162,0.006404943962329268,0.1112428698409916,-0.7001044336443627,-1.3964541361268192,-0.7941646575927734,49.904265594482425,-18.129876708984376,3.686222566664219,-1.5708225948736072,0.4884803634136915,37.97036020379318,68.43726469341077,105.51306312962582,-5.103863135239854,19.96954803003758,4.004768695853203,-0.33626632690429686,1.8620704650878905,0.4639404296875,5.684246492385864,-5.555232773721218,1.003396113216877,0.18446676342179533,9.625926236198543,0.29650415363730864
9.6,2.180794636408488,1011.721617380778,40.93829727172851,-1.0,-1.0,49.27634008065762,59.97686767578125,-1.0,35.0,18.011295318603516,-122.87119736804303,-1.0,-2.2306290426266346,-0.17096201772166292,0.7883108049262249,0.9842203105450318,-0.12104624568770606,-0.5774551305039382,-1.0552145150922783,-10.633809089660645,52.160580444335935,3.8765655517578126,0.7422309659421447,-0.4115577991120518,-0.025235822610557013,34.575775146484375,71.77351379394531,117.89184771086039,18.979989383355527,8.404565818776188,-15.213816326940357,0.1575958251953125,1.3777427673339844,-0.24012107849121095,0.27627673521637913,0.6488120973110197,0.6154315516352653,-2.674294554369747,8.521482530125379,4.017182625615894
9.7,2.210740884145101,1011.7179997762045,40.93829727172851,-1.0,-1.0,49.27634015793657,59.97686767578125,-1.0,35.0,18.011295318603516,-122.87119738019594,-1.0,-1.919566386310342,-0.132123674779536,0.7355924009586948,0.7915818325551601,0.00646911011621687,-0.659893970005052,-1.3507792137622596,-3.1667287826538084,52.17630310058594,-8.09366226196289,-2.20176063477993,0.7477069966495037,-0.5389520086348056,31.181190089175576,75.10976289447986,130.27063229209497,-2.1057863067447764,-7.9634465547564615,-9.058371789473593,0.6514579772949218,0.8934150695800781,-0.9441825866699218,-4.827658724784851,0.7836152732372283,-1.831094741821289,-0.862559973915387,9.487131630396842,1.81169215603827
9.8,2.240687131881714,1011.7143821716309,40.93829727172851,-1.0,-1.0,49.27634023521553,59.97686767578125,-1.0,35.0,18.011295318603516,-122.87119739234883,-1.0,1.473983408791977,-0.058819476683663996,0.7040284384504495,-1.1728214405279922,0.27989996449786536,-0.6402952264455012,-1.229377440573927,-8.626824188232423,42.86314926147461,-29.584148406982422,-2.431865467131138,2.4455890115350485,1.4411831390112637,30.13586634585732,70.17714630930047,116.01054960552014,-5.051126912765205,25.249363345375954,-1.0795526889576017,0.12817039489746085,2.1859256744384763,-0.609817886352539,-2.5716177403926848,4.0657516226172445,3.38027253895998,-1.6116817846992983,9.144584910357892,-2.6253844660545136
9.9,2.2706333796183267,1011.7107645670573,40.93829727172851,-1.0,-1.0,49.27634031249448,59.97686767578125,-1.0,35.0,18.011295318603516,-122.87119740450173,-1.0,1.2995026198566553,0.06618160542117615,0.6567956435678213,-1.5969117778967132,0.23371420741438692,-0.7032992104471727,-1.0945648457926063,-0.034476089477538704,37.230248260498044,-36.44842681884766,-2.6619702994823458,4.143471026420594,3.4213182866573333,29.090542602539063,65.2445297241211,101.7504669189453,4.611971350033878,-6.686631084354818,9.92831887431234,-0.3951171875,3.478436279296875,-0.27545318603515623,-0.4504138115793467,-5.765869879722596,-4.636222377419472,0.13655351234402505,8.711243060793578,-3.9389539568403364
10.0,2.30057962735494,1011.7071469624838,40.93829727172851,-1.0,-1.0,49.276340389773445,59.97686767578125,-1.0,35.0,18.011295318603516,-122.87119741665462,-1.0,1.0319367036870382,0.09513530512456692,0.6046014832872333,-1.927180646182192,0.2200311260721905,-0.7575699222004101,-1.068597565543317,10.565226745605468,36.06903228759766,-38.19977722167969,0.16207842528820038,-1.2451195061206817,-1.983928883075714,44.4210783305921,59.482145610608555,94.29249010587993,-4.7842731763182575,-7.529680751465558,8.752382179007231,-0.02740020751953125,0.14849166870117186,0.5112579345703125,0.7964356809854507,3.3249890744686126,0.7240073800086975,1.6628777116228637,8.59089625809133,-4.375138131771534
10.1,2.3305258750915527,1011.7035293579102,40.93829727172851,-1.0,-1.0,49.2763404670524,59.97686767578125,-1.0,35.0,18.011295318603516,-122.87119742880753,-1.0,0.8377172137133084,-0.07409837157733219,0.6629571093915074,-1.1928004575088618,0.21354467108344893,-0.7100730473949961,-1.3493467508196906,-0.1186629401312934,44.14171261257596,-29.307952880859375,2.1078516490757466,-1.6903004550840706,-0.2727480942383407,40.036793819226716,65.39961734570954,106.77028146041067,-0.5165323168314165,6.740982391144501,11.130915580532616,0.25496368408203124,1.4199314117431643,0.20745735168457036,5.130819691552056,-0.6981388330459595,-0.689226575092309,0.2387548778645707,9.502511830145783,-1.9969363607698536
10.2,2.3604721228281655,1011.6999117533366,40.93829727172851,-1.0,-1.0,49.276340544331354,59.97686767578125,-1.0,35.0,18.011295318603516,-122.87119744096043,-1.0,-1.9076106818282852,-0.13056833744366678,0.7535838481849092,1.2688514586528685,-0.10625042566088103,-0.6246339983296876,-1.1665319143511437,-3.9677337646484374,51.567021179199216,-0.8770538330078125,4.053624872863293,-2.1354814040474595,1.4384326945990324,35.65250930786133,71.31708908081055,119.24807281494141,11.904720712785721,28.285997875369787,-11.854131103111802,0.5373275756835938,2.6913711547851564,-0.09634323120117187,3.537517613172531,-3.439696180820465,3.634704844886437,-1.6896652218826163,8.885240263592898,3.175987997174263
10.3,2.390418370564779,1011.6962941487631,40.93829727172851,-1.0,-1.0,49.27634062161031,59.97686767578125,-1.0,35.0,18.011295318603516,-122.87119745311333,-1.0,-2.2597637378182043,-0.11619029191631627,0.7760496407645825,0.9025156148195475,-0.10131099451642327,-0.6077849608127012,-1.1776801478499426,-7.859479713439941,51.969886779785156,0.3974800109863281,0.08003913387656247,-0.24720284282229832,0.07661158498376608,33.564232423570424,73.10663922627768,124.57610176934136,1.1811177512048183,-8.872357518048585,-10.681508588469027,0.1717247009277344,1.2832214355468752,-0.4276920318603516,-3.551002311706543,1.5047913670539856,-1.3580686807632447,-2.283079036651626,9.00761471427828,2.949254761869907
10.4,2.4203646183013916,1011.6926765441895,40.93829727172851,-1.0,-1.0,49.276340698889264,59.97686767578125,-1.0,35.0,18.011295318603516,-122.87119746526622,-1.0,0.9666506226591881,-0.00381029966390989,0.7281757400603404,-0.7404918660069887,0.11968904150959644,-0.6656797037367441,-1.3453118365572763,-3.326526641845703,47.18458633422851,-21.903951263427736,-3.8935466051101684,1.6410757184028626,-1.2852095246315003,31.475955539279514,74.8961893717448,129.90413072374133,-9.32132565432474,11.690179376604258,-5.982384937004595,-0.193878173828125,-0.12492828369140625,-0.7590408325195312,-5.094634175300598,4.035571765899658,-0.7003739956766367,-1.0837100935914739,9.515100126035511,-1.4899483335045631
10.5,2.4503108660380044,1011.6890589396158,40.93829727172851,-1.0,-1.0,49.27634077616822,59.97686767578125,-1.0,35.0,18.011295318603516,-122.87119747741913,-1.0,1.776645031313349,0.02241527204658039,0.7414869760545206,-0.9591079691381669,0.2961953725840443,-0.5915683280414833,-1.049033698856492,-15.251604652404785,36.89190139770508,-33.71013565063477,-2.1176621075719595,-0.1881825953722,-1.475115510635078,29.27834038985403,64.1011031301398,102.33070212916324,14.942717240887973,12.022787003335356,5.330374120708703,0.03276824951171875,2.156629943847656,-0.23345108032226564,0.3221107877790928,-4.544691120088101,-1.612794327735901,-2.7884175250808707,8.483804775185883,-3.67131208030343
10.6,2.4802571137746177,1011.6854413350424,40.93829727172851,-1.0,-1.0,49.27634085344718,59.97686767578125,-1.0,35.0,18.011295318603516,-122.87119748957203,-1.0,0.9485306674842138,0.12591231920636722,0.5829412478565651,-2.1247683611312738,0.17268407831438412,-0.7831973046456077,-1.055459476075353,14.859712219238281,36.42352142333984,-35.3862663269043,-0.45646976429576935,0.29692747569397876,-0.6653473253459915,40.093473554912364,62.59903980054354,99.8657283381412,-11.091745135290772,-9.984245110386908,8.094912951174974,-0.2468918248226768,1.2472305699398643,0.17515702498586555,-0.45231494307518005,-0.7045115262269974,-1.5505030021071433,2.5472882353261115,8.529168700713813,-4.084699784632474
10.7,2.5102033615112305,1011.6818237304688,40.93829727172851,-1.0,-1.0,49.276340930726136,59.97686767578125,-1.0,35.0,18.011295318603516,-122.87119750172492,-1.0,0.9047500703545616,0.06513963386010886,0.6044618220845703,-2.060214099872799,0.18720167083732142,-0.7697365434850791,-1.1404700245886006,11.159877395629882,38.83804626464844,-34.306175994873044,1.2047225789804208,0.7820375467601576,0.144420859943095,50.908606719970706,61.09697647094727,97.40075454711913,-4.419983820192068,-1.3038112631636856,10.38400378084898,-0.5265518991570723,0.33783119603207235,0.5837651302939967,2.9135820031166078,2.1777578473091124,1.0702630425803363,1.943660889655463,8.878541292023957,-3.5792335891301184
10.8,2.546138954162598,1011.6775131225586,40.93829727172851,-1.0,-1.0,49.27634100800509,59.97686767578125,-1.0,35.0,18.011295318603516,-122.87119751387782,-1.0,-0.9616171310139574,-0.12433231754313252,0.6988712582432159,0.5215678619606252,0.03476157790305872,-0.6906981977489739,-1.356380520365421,-0.19635601043701154,50.55447998046875,-11.563581085205078,3.7185190596470705,-1.8724981772272211,1.8873214963725522,44.150261815389,67.65711725023058,110.2548774295383,-6.425203318479359,27.993229039456544,2.4149512520051006,-0.6375397130062705,2.1226471348812703,0.45032677901418583,6.225204944610596,-4.063833397626877,3.664905870333314,-0.09081075635275804,9.506418690025509,1.1475160372787807
10.9,2.5820745468139648,1011.6732025146484,40.93829727172851,-1.0,-1.0,49.276341085284045,59.97686767578125,-1.0,35.0,18.011295318603516,-122.87119752603073,-1.0,-2.2139158397150918,-0.18417329704521862,0.7878702310105333,1.0094489704008054,-0.12862513117685787,-0.572458070099876,-1.0267127184099945,-12.64171199798584,50.812773895263675,7.134379577636719,6.232315540313721,-4.527033901214599,3.6302221328020097,37.39191691080729,74.21725802951389,123.10900031195746,19.073613394244312,2.5614115701290965,-14.886962207621632,-0.7485275268554688,3.9074630737304688,0.316888427734375,-0.6568716585636138,1.504813516139984,-0.9537403628230094,-2.6975430795883386,8.382080138462781,4.290405195668488
11.0,2.618010139465332,1011.6688919067383,40.93829727172851,-1.0,-1.0,49.276341162563,59.97686767578125,-1.0,35.0,18.011295318603516,-122.87119753818362,-1.0,-1.4609785727844893,-0.11930793591684863,0.7524228374372403,0.6036151341988317,0.0063456433060961395,-0.6427859562987452,-1.3218916515719463,-6.415251922607422,51.60704574584961,-6.822378540039063,-2.8363670825958254,0.6176130220293998,-1.0894226694479585,29.44072683233964,74.05106554533306,130.93759797748766,-0.8759888419144973,-11.666926511310637,-8.941273584077656,0.7710037231445312,0.3786598205566406,-0.9229354858398438,-5.160454034805298,-0.4866416439414024,-1.3679843366146087,-1.3498254839069395,9.444538104817271,1.673045816953834
11.1,2.653945732116699,1011.6645812988281,40.93829727172851,-1.0,-1.0,49.276341239841955,59.97686767578125,-1.0,35.0,18.011295318603516,-122.87119755033652,-1.0,1.4751726921282813,-0.01006845874832952,0.6981476159740729,-1.287676981635299,0.24912318530143848,-0.6603578180180151,-1.213429053425375,-7.365486145019531,41.73128051757813,-30.796566772460938,-1.8906390432268383,0.16283367201685905,-0.987915760371834,31.46524752566689,68.40434556258353,114.69975640146356,-10.26655994765967,28.364572873364985,-4.629539476915449,0.42401962280273436,1.1885730743408205,-0.48067626953125,-2.746024852991104,4.761001920700073,2.7606358729302882,-1.1638972184847902,9.122235599001348,-2.998895677903816
11.2,2.6898813247680664,1011.660270690918,40.93829727172851,-1.0,-1.0,49.27634131712092,59.97686767578125,-1.0,35.0,18.011295318603516,-122.87119756248941,-1.0,1.4315111667757425,0.05251698271646895,0.6862456417240159,-1.4285301572432005,0.244341311029393,-0.6726684657213369,-1.1086487263951228,-6.6941125869750975,37.9637336730957,-35.08279037475586,-0.944911003857851,-0.2919456779956818,-0.8864088512957096,33.48976821899414,62.757625579833984,98.46191482543945,13.66646834390074,-6.658455667967201,10.313100077360122,0.0770355224609375,1.998486328125,-0.03841705322265625,0.9371881403028965,-5.213559489697218,-4.547690892219544,-0.7340234070464543,8.763871249009966,-3.800721719548702
11.3,2.7258169174194338,1011.6559600830078,40.93829727172851,-1.0,-1.0,49.27634139439987,59.97686767578125,-1.0,35.0,18.011295318603516,-122.87119757464232,-1.0,1.0637923890261987,0.04286500789972107,0.6353619828630196,-1.834936231016443,0.21078431969632536,-0.7395016150075182,-1.179216770483508,5.375259780883789,40.58543014526367,-34.29370269775391,-0.2238705900497735,1.5900236271321775,-0.1912762116640806,38.13616184658474,63.185537338256836,97.90187195671929,-4.4718315255552525,-8.139277519628106,6.843267051795422,-0.11960906982421873,1.070922088623047,0.15465698242187503,0.5054225409403443,3.53892420232296,0.4895261522382498,0.991290893741818,9.062541184112728,-3.5729072941049935
11.4,2.7617525100708007,1011.6516494750977,40.93829727172851,-1.0,-1.0,49.276341471678826,59.97686767578125,-1.0,35.0,18.011295318603516,-122.87119758679522,-1.0,0.8147002491788861,-0.11009531363950135,0.6455570621931442,-1.7767867285935015,0.2704459446977251,-0.7029751510983147,-1.3206444414330225,-4.631749153137207,44.77531051635742,-28.686011505126952,0.4971698237583041,3.4719929322600365,0.5038564279675484,42.782555474175346,63.61344909667969,97.34182908799913,-1.3559866807243228,8.969470452418625,12.6712007596004,-0.316253662109375,0.14335784912109376,0.34773101806640627,3.688476186990738,-0.5315796822309494,-1.0874874204397202,0.15251137960091932,9.463219599768221,-2.3256907116358727
