time,TotalAcceleration_z,TotalAcceleration_y,TotalAcceleration_x,Location_bearingAccuracy,Location_speedAccuracy,Location_verticalAccuracy,Location_horizontalAccuracy,Location_speed,Location_bearing,Location_altitude,Location_longitude,Location_latitude,Orientation_qz,Orientation_qy,Orientation_qx,Orientation_qw,Orientation_roll,Orientation_pitch,Orientation_yaw,Magnetometer_z,Magnetometer_y,Magnetometer_x,GyroscopeUncalibrated_z,GyroscopeUncalibrated_y,GyroscopeUncalibrated_x,MagnetometerUncalibrated_z,MagnetometerUncalibrated_y,MagnetometerUncalibrated_x,Accelerometer_z,Accelerometer_y,Accelerometer_x,AccelerometerUncalibrated_z,AccelerometerUncalibrated_y,AccelerometerUncalibrated_x,Gyroscope_z,Gyroscope_y,Gyroscope_x,Gravity_z,Gravity_y,Gravity_x
3.1,0.6877371942003568,-3.1305099924405417,-4.77527638276418,0.0,1.167858042500236,1.0349196872927926,46.94977170770819,0.4189424555410038,61.73496801202947,43.400001525878906,-122.75379750909092,49.18805005454546,0.35765079657236737,-0.6147210995356241,-0.35171766579151154,0.6057287454605103,-1.5689719716707866,1.0515357851982117,-0.016522429262598348,-1.7348399624228477,48.05091896057129,-13.390719556808472,2.145155120640993,-1.0326422452926636,1.7971655229727428,-256.275634765625,143.51591796875,-146.6025161743164,-3.3360106150309243,5.953285773595174,-7.5736755927403765,-3.8597225745519004,-3.6003007143735886,-2.4183460772037506,1.8652006089687347,-0.7935393949349722,1.7080556054910023,-0.4838949305315812,-8.498593966166178,4.81487516562144
3.2,-3.865704655647278,-3.5829527378082275,-2.481157675385475,0.0,1.2234703302383425,1.0400148630142212,46.60599899291992,0.4388920962810516,64.67472839355469,43.400001525878906,-122.7537841,49.1880542,0.5131628513336182,-0.40840090811252594,-0.5323503732681274,0.5069925785064697,0.5410154640674592,1.3224416494369506,-1.9898330509662627,-2.9597199678421022,44.741059112548825,16.876259526610376,7.588982741038005,7.985917687416077,-0.40429094061255455,-257.5005172729492,140.2060577392578,-116.33553771972656,-0.45873785018920926,-26.045254707336426,-0.781028668085734,1.6797617435455323,-39.94494361877442,-2.3732015848159795,7.722863833109538,7.7938514947891235,0.07383828858534495,-0.13793572286764777,-9.377535661061605,-1.311669945716858
3.3,1.6737794399261474,-39.927595138549805,-2.4360131502151487,9.0,1.2108879506587984,1.0394627273082733,46.30809898376465,0.5815360143780708,70.09648895263672,43.400001525878906,-122.75378226000001,49.188051395,0.5498062372207642,-0.29828445116678876,-0.6184940884510676,0.4537074814240137,1.449193944533666,1.1208850344022114,-2.786294460296631,-3.1097800016403196,37.91027908325195,31.618739509582518,-1.8609704360365869,-9.043157386779786,2.110569953918457,-257.65057373046875,133.37527770996093,-101.59305725097656,0.9002386728922526,9.91710877418518,8.847470680872599,-0.9349954488376776,-1.0795618494351704,4.2842492659886675,-1.8212438623110454,-8.511541763941446,1.7966055870056152,0.33778431266546266,-8.82054090499878,-3.818131605784098
3.4,0.45707898717373596,-20.32583660632372,0.2816202464203039,18.0,1.1983055710792543,1.0389105916023254,46.010198974609374,0.7241799324750899,75.51824951171875,43.400001525878906,-122.75378042,49.18804859,0.7100248336791992,-0.4273792952299118,-0.29335960497458774,0.4723736693461736,0.049997960217297084,1.0860598981380463,-2.0069666703542075,-31.129519271850587,39.359639739990236,12.63309965133667,-1.969684104124705,-3.1840332581972084,2.4995842576026917,-285.6703155517578,134.82463684082032,-120.57869720458984,-5.2104716300964355,8.381312942504882,1.962591290473938,-0.572283424437046,-0.4032902916272481,1.8398812015851338,-1.9301203608512878,-2.825037956237793,2.5576011180877685,4.26616063117981,-8.775852394104003,-0.3133336801256519
3.5,-0.7596214655786753,-0.7240780740976334,2.999253643055757,27.0,1.1857231914997102,1.0383584558963777,45.7122989654541,0.8668238505721092,80.94001007080078,43.400001525878906,-122.75377858,49.188045785,0.6438434819380442,-0.3591023584206899,-0.42434021333853406,0.5122785766919454,0.5359521725525459,1.1292664508024852,-2.17742121219635,-23.343479681015015,39.03633918762207,21.842879581451417,0.15325080355008439,6.054896354675293,-3.6895751605431237,-277.8842712402344,134.50133514404297,-111.3689193725586,-9.09947689374288,-3.9409488836924234,8.545403798421225,-7.183552781740825,-15.917754332224527,7.290731072425842,0.2332996092736721,6.119775215784709,-3.448308825492859,3.623638411362966,-8.781133651733398,-1.6600323741634686
3.6,-7.189534743626914,-15.900406241416931,7.2279196580251055,36.0,1.1731408119201663,1.0378063201904297,45.414398956298825,1.0094677686691285,86.36177062988281,43.400001525878906,-122.75377674,49.188042980000006,0.5322292546431223,-0.5359704444805781,-0.4759594251712163,0.4285133481025696,-0.1549673080444336,1.3927380243937175,-1.5820071597894032,-3.4184399843215942,46.57105903625488,18.40125970840454,-3.2416836619377136,-5.599572618802388,-4.581591109434764,-257.9592315673828,142.0360580444336,-114.81053771972657,6.491279164950051,-12.926952044169107,-1.6769362886746724,5.275476485490799,-20.995423475901287,-3.1488548715909324,-3.1233031352361045,-5.293681922058265,-4.694932113091151,-0.5647195102283149,-9.614078998565674,-1.0760812982916832
3.7,5.269493669271469,-20.97807550430298,-3.211666484673818,45.0,1.1605584323406222,1.0372541844844818,45.116498947143555,1.1521116867661476,91.78353118896484,43.400001525878906,-122.75377490000001,49.188040175000005,0.48157416582107543,-0.7053031206130982,-0.35747984051704407,0.3764295876026153,-2.4896315574645995,1.2480315685272216,0.45556904673576354,5.5766198337078094,50.12003936767578,3.3757399201393126,-1.1011100535591443,0.7698174913724264,1.765171468257904,-248.96417846679688,145.5850372314453,-129.8360565185547,7.952720165252686,1.85183318456014,-4.862213492393494,3.3844083070754998,-7.928976678848267,-3.4402807712554933,-1.2804244334499042,0.5178609838088354,1.4873041709264119,-2.698543826738993,-9.2941525777181,1.4286370674769084
3.8,3.378426384925843,-7.911628890037536,-3.5030922889709473,54.0,1.147976052761078,1.036702048778534,44.818598937988284,1.2947556048631668,97.20529174804688,43.400001525878906,-122.75377306,49.18803737,0.5421506464481354,-0.6479734182357788,-0.32660143574078876,0.4222954312960307,-1.8280861775080364,1.3610671361287434,-0.1901868854959806,-6.012159937620163,50.44577865600586,2.3716799527406693,-0.12864821737457532,-0.8729570090770722,2.1803613185882567,-260.5529556274414,145.91077575683593,-130.84011840820312,-1.4241086194912593,7.872944990793864,-5.828960577646892,-2.2471595207850137,-0.6090730975071589,-3.7720854679743447,-0.06513350519041224,-1.0846930742263794,2.2518020073572793,-0.6106516470511755,-9.64945936203003,1.5629810690879822
3.9,1.1459427063663803,-12.551381836583218,-3.6308341448505717,63.0,1.135393673181534,1.036149913072586,44.520698928833006,1.437399522960186,102.6270523071289,43.400001525878906,-122.75377122,49.188034565,0.5601700494686762,-0.4595123181740443,-0.46958377957344055,0.45657653113206226,0.43020326395829517,1.3320570985476177,-2.094704727331797,-6.786859863996506,44.29331970214844,19.013699689507483,4.828838934501012,10.02620760599772,0.3114649144311746,-261.327653503418,139.75831909179686,-114.19809799194336,2.7775634765625,-28.01374053955078,-1.959528636932373,0.08604188760121663,-33.807892163594566,-3.619443356990814,5.61577582359314,12.06556589603424,0.31749719232320794,0.3913874924182892,-9.543966484069824,-1.2253137946128845
4.0,-1.086540972193082,-17.1911347831289,-3.7585760007301965,72.0,1.1228112936019898,1.0355977773666383,44.222798919677736,1.5800434410572053,108.04881286621094,43.400001525878906,-122.75376938000001,49.18803176,0.541472926735878,-0.34921762843926746,-0.6216122508049011,0.4274342010418574,1.626777191956838,1.1703185439109802,-0.9391681750615439,3.1305199027061463,38.151839065551755,32.65085945129395,-0.9738973279794058,-6.080527067184448,0.18381947899858156,-251.4102752685547,133.61683654785156,-100.5609375,1.610478351513545,4.705489873886108,7.504018545150757,-0.08843474338452022,-2.608276297648748,4.056632002194722,-0.7345654343565305,-5.462357044219971,-0.23846654097239176,-1.0145294666290283,-8.925075848897299,-3.743373990058899
4.1,-0.0944167971611023,-2.590928450226784,3.9938204288482666,81.0,1.1102289140224457,1.0350456416606904,43.92489891052246,1.7226873591542244,113.47057342529297,43.400001525878906,-122.75376754,49.188028955,0.6941961765289306,-0.5138639271259308,-0.3212071180343628,0.3781526327133179,0.21014225780963897,1.2890589714050293,-2.30209858417511,-22.489479637145998,43.15749931335449,15.140199828147889,-2.381916344165802,-6.4779713948567705,0.419028103351593,-277.0302795410156,138.62249908447265,-118.07159805297852,-2.5867794851462045,10.44408925374349,2.9264875749746957,-0.7147361099720001,1.0325029738247395,2.090848445892334,-2.4294110536575317,-6.645806550979614,0.48836132263143867,2.168570399284363,-9.449116706848145,-0.8891739696264267
4.2,-0.7207181751728058,1.0498509354889394,2.0280368328094482,90.0,1.0976465344429016,1.0344935059547424,43.62699890136719,1.8653312772512436,118.892333984375,43.400001525878906,-122.7537657,49.18802615,0.7111275494098663,-0.5701685845851898,-0.2126265813906987,0.348137507836024,-0.3496381789445877,1.2881632447242737,-1.9668825268745422,-25.6761194229126,44.25427894592285,5.912119889259339,1.105391214042902,2.894432234764099,0.15515977740287784,-280.2169128417969,139.71927490234376,-127.29967727661133,-5.404665768146515,2.633976380030314,3.828353683153788,-2.2741785049438477,-5.438985526561737,3.534498160084089,1.2822315990924835,3.0353384415308633,0.0288888290524483,2.3322180906931558,-9.488359292348227,0.40557100623846054
4.3,-2.280160586039225,-5.421637654304504,3.4716865097483,99.0,1.0850641548633575,1.0339413702487945,43.32909889221192,2.007975195348263,124.31409454345703,43.400001525878906,-122.75376386,49.188023345000005,0.6156099140644073,-0.4964181383450826,-0.46412361164887744,0.38914965093135834,1.3106988221406937,1.347319225470225,-0.0020755132039388022,-10.57129988670349,43.23313903808594,23.704599571228027,0.2678134938081104,5.088431119918823,-2.32154248158137,-265.1120971679687,138.69813537597656,-109.50719833374023,-10.979724725087484,-17.358402411142986,2.4175462325414023,-10.965109666188559,-27.08007272084554,1.8486549456914265,-0.7153231968792776,3.920991321404775,-2.3172664046287537,0.07846008365352952,-9.551623026529947,-1.9175215462843578
4.4,-0.9003742337226868,-12.637917200724283,0.1659272350370884,108.0,1.0724817752838134,1.0333892345428466,43.03119888305664,2.150619113445282,129.73585510253906,43.400001525878906,-122.75376202,49.188020540000004,0.47945551077524823,-0.667099674542745,-0.40255269904931384,0.3947664697964986,-1.7135388851165771,1.2862712343533833,0.8339185615380605,4.289519947767258,49.03423843383789,9.123159766197205,-4.1137955983479815,-1.8418859609325107,-1.5237525204817455,-250.25127410888672,144.49923706054688,-124.08863754272461,21.888613128662108,-2.5343010902404783,-10.411774444580079,11.935897827148438,-12.66301687558492,-8.002695798873901,-4.198782277107239,-1.6972279787063598,-1.9562043011188508,-2.7033046007156374,-9.278189659118652,1.154067862033844
4.5,0.47941211859385174,-19.854196747144062,-3.1398320396741233,117.0,1.0598993957042695,1.032837098836899,42.73329887390137,2.2932630315423013,135.1576156616211,43.400001525878906,-122.75376018,49.188017735,0.5328097393115362,-0.6739418307940165,-0.27398631721734995,0.429734781384468,-1.7766656478246052,1.2670368750890095,-0.30902076698839664,-6.42085987329483,49.908979415893555,-0.8613199882209301,-0.5695809324582418,-1.9794833660125732,2.4893521865208945,-260.96165161132814,145.3739761352539,-134.0731185913086,-1.3179909388224285,8.672882556915283,-5.802955945332845,-1.8091732983787854,-0.17238291104634604,-3.2373893658320108,-0.5798638314008713,-1.8941658437252045,2.5625797112782798,-0.9884543865919113,-9.413902759552002,2.522819479306539
4.6,-1.815155362089475,-0.15503495434919992,-3.300200939178467,126.0,1.0473170161247254,1.032284963130951,42.43539886474609,2.4359069496393206,140.57937622070312,43.400001525878906,-122.75375834,49.18801493,0.6120301961898804,-0.6547774791717529,-0.20725921094417568,0.38878332376480096,-1.2896238803863525,1.2990111589431763,-0.9725137710571289,-15.181679630279541,47.83863906860351,0.03050001859664917,3.5972072879473367,2.606561924020449,1.1980340083440144,-269.72247924804685,143.3036376953125,-133.18129501342773,3.2868545750776925,-10.502755006154379,-5.551943063735962,4.0175491094589235,-18.77121510505676,-3.5828929901123048,3.103373537460963,1.808390269676844,1.2738322069247563,0.3354166749243935,-9.534086545308432,1.935515100757281
4.7,4.011567211151123,-18.75386710166931,-3.6457045555114744,135.0,1.0347346365451813,1.031732827425003,42.13749885559082,2.5785508677363396,146.00113677978516,43.400001525878906,-122.75375650000001,49.188012125,0.5199793179829916,-0.36593321959177655,-0.6217145274082819,0.42576881249745685,1.6854154765605927,1.2061312397321065,0.053931991259256996,6.733179807662964,36.72565879821777,31.291779708862304,2.973966842889786,8.130096912384033,-0.7961712121963501,-247.8076156616211,132.19065856933594,-101.92001724243164,-0.8246730367342631,-10.525027434031168,5.95082147916158,0.8396811683972677,-23.183361013730366,2.042274236679077,2.660114496946335,6.2633288117746515,-0.3661119341850281,-1.339997537434101,-8.985194047292074,-3.4740265210469565
4.8,0.8336993455886841,-23.16601260503133,1.9794626235961914,144.0,1.0221522569656372,1.0311806917190551,41.83959884643555,2.721194785833359,151.4228973388672,43.400001525878906,-122.75375466,49.18800932,0.6370899081230164,-0.4704347401857376,-0.45383434494336444,0.38473276793956757,0.9367666461815437,1.2877068718274434,-1.7338028351465862,-10.661579572968185,40.1550796508789,25.493119525909425,-3.1369966665903726,-8.815396467844645,1.239649201432864,-265.20237121582034,135.62007751464844,-107.7186782836914,-0.9543233394622803,10.57143955230713,5.496359395980835,-0.3320041274031003,1.0009974936644237,3.2223345041275024,-3.2645249366760254,-8.704585552215576,1.2152858674526215,0.88985316157341,-9.40705509185791,-2.2966723442077637
4.9,0.2617897788683574,-11.815808014556143,2.0279670851305127,153.0,1.009569877386093,1.0306285560131072,41.54169883728027,2.8638387039303783,156.84465789794922,43.400001525878906,-122.75375282,49.188006515000005,0.6947206755479177,-0.6311716437339783,-0.12564524263143537,0.31479936341444653,-0.8977288007736206,1.2819443742434184,-1.6026586492856343,-21.852639389038085,44.54341926574707,-0.43676004409790037,-2.028352588415146,-4.046854933102925,-0.05197445054848988,-276.3934356689453,140.00841827392577,-133.64855880737304,-1.9329435527324677,8.257312854131063,-0.6710626383622488,-0.276271291077137,-1.9669001961592585,1.0562317818403244,-2.2158627857764563,-4.4780749678611755,-0.06467536091804506,1.5165290633837383,-9.50880209604899,1.6368902164200942
5.0,-0.31011978785196936,-0.46560342408095795,2.076471546664834,162.0,0.9969874978065489,1.0300764203071595,41.243798828125,3.0064826220273972,162.26641845703125,43.400001525878906,-122.75375098,49.188003710000004,0.6985554099082947,-0.5851861834526062,-0.22695295512676233,0.33193295001983636,-0.2100401595234871,1.3243279457092285,-2.1107257604599,-21.392699432373046,43.59425811767578,6.91617980003357,3.357239047686259,5.757252216339111,-1.365869216620922,-275.93349304199216,139.05925598144532,-126.2956169128418,-10.354169130325317,-10.929483016331991,3.5150751968224845,-8.54500904083252,-20.743020820617676,4.799762868881226,3.333262542883555,5.644013126691182,-1.176730066537857,1.5822175790866215,-9.554616928100586,0.3900358037402232
5.1,-8.550990962982178,-20.7256721496582,4.736951303482056,171.0,0.9844051182270049,1.0295242846012116,40.945898818969724,3.1491265401244166,167.68817901611328,43.400001525878906,-122.75374914,49.188000905,0.5674326916535696,-0.6127412617206573,-0.42484578490257263,0.3394303172826767,0.2979040543238322,1.3790852626164753,1.8984829982121785,-0.7295598626136778,45.53893928527832,16.732299518585204,-3.0932995080947876,0.018448154628276824,-4.390624451637268,-255.27035369873047,141.00393524169922,-116.47949829101563,11.683866182963053,-4.702240387598674,-5.586412270863851,3.2973098754882812,-16.65005722766121,-6.061119397481282,-3.0252338300148645,-0.5397248168786367,-3.9113956491152444,-1.792798598607381,-9.480860074361166,-0.6680027494827906
5.2,3.2913275162378945,-16.632709469646215,-6.123931090037028,180.0,0.9718227386474608,1.0289721488952637,40.64799880981445,3.2917704582214355,173.1099395751953,43.400001525878906,-122.7537473,49.1879981,0.49665989975134534,-0.7572280764579773,-0.29578046500682825,0.3005275676647822,-2.6695966720581055,1.1951578656832378,0.41596924637754756,6.045099902153015,48.654819107055665,3.513599920272827,-2.273335059483846,-2.1845559291541576,1.3379730184872944,-248.49569549560547,144.11981811523438,-129.6981994628906,4.505707502365112,3.944553772608439,-5.685501535733541,4.543072700500488,-5.873681743939717,-4.47407990694046,-1.9226983586947124,-1.3602950721979141,1.8334865967432659,-3.26120396455129,-9.127749760945639,1.4043675363063812
5.3,4.53709081808726,-5.8563337326049805,-4.536891420682271,180.0,0.9718227386474608,1.021635843647851,40.179443359375,3.304718017578125,173.71386210123697,43.400001525878906,-122.7537494,49.18799023333334,0.5863012572129568,-0.7125515540440878,-0.19588415324687955,0.32918907701969147,-1.9191748698552449,1.298113981882731,-0.45405548873047036,-7.504219889640808,48.837819290161136,-1.7494799610227347,-0.45201483368873596,0.005421432976921399,2.8585439125696817,-262.0450134277344,144.30281829833984,-134.9612777709961,0.5851281523704529,4.335453891754151,-6.425514650344849,0.08305090665817261,-6.23110946888725,-4.186941206455231,-0.47977356910705565,-0.06270531602203847,2.841012144088745,-1.0968168824911118,-9.504512214660645,2.0665140390396117
5.4,2.2739541418850426,-12.407981857191771,-3.568620787312587,180.0,0.9718227386474608,1.014299538400438,39.71088790893555,3.3176655769348145,174.31778462727866,43.400001525878906,-122.7537515,49.18798236666667,0.5743197500705719,-0.42680632571379346,-0.5109811847408613,0.41950588921705884,0.9366558467348417,1.2605416377385457,-1.530978500843048,-5.261859929561615,40.80899925231934,22.538279783725738,4.9968778031567735,12.16930099328359,-0.21950415770212808,-259.80265350341796,136.27399597167968,-110.67351837158203,1.5556754271189372,-23.061669031778973,-0.25978124141693115,-0.049451470375061035,-31.722846190134685,-0.8881360267599424,5.118847141663234,12.3918088277181,-0.03130688269933065,0.14196897049744925,-9.3457670211792,-1.7658184121052425
5.5,0.010817465682824748,-18.959629981778562,-2.600350153942903,180.0,0.9718227386474608,1.0069632331530254,39.242332458496094,3.330613136291504,174.9217071533203,43.400001525878906,-122.7537536,49.1879745,0.5879489660263062,-0.4264369964599609,-0.5544538557529449,0.38850829005241394,1.5029452562332153,1.2345841884613038,0.6245497703552246,-0.6356199920177463,38.23235931396484,30.126679611206054,-2.6868144273757935,-8.510396321614584,0.6258314435059825,-255.1764175415039,133.69735717773438,-103.08511734008789,-0.0007798075675965096,7.230136712392171,6.459083477656047,-0.16319049447774892,-1.7648263692855835,3.582653760910034,-2.550133317708969,-8.31148330370585,0.5261840547124544,-0.36937350034713745,-9.196082909901937,-3.099535882472992
5.6,-0.16917254477739335,-1.7474783301353454,3.5198421478271484,180.0,0.9718227386474608,0.9996269279056125,38.77377700805664,3.3435606956481934,175.52562967936197,43.400001525878906,-122.7537557,49.18796663333333,0.6801024874051412,-0.6153149505456289,-0.22537714987993238,0.3115646441777547,-0.4401874269048373,1.3859721819559734,-1.9156903227170308,-18.286579608917236,45.355939102172854,6.995479708909988,-3.214098072052002,-5.957585501670837,-0.13753630518913268,-272.82737426757814,140.82093658447266,-126.2163200378418,-0.49538783232371014,10.31076192855835,0.6058496435483297,0.7374878724416097,0.743669350941976,1.643968854099512,-3.0228921373685202,-5.193550904591878,0.15905404587586722,0.9952250123023987,-9.669727643330893,0.7617726922035217
5.7,0.7315057764450709,0.7610173026720682,1.5811572844783466,180.0,0.9718227386474608,0.9922906226581998,38.30522155761719,3.356508255004883,176.12955220540366,43.400001525878906,-122.7537578,49.18795876666667,0.7000637551148733,-0.5584190140167872,-0.21295604233940438,0.37000279625256854,-0.4031605198979378,1.2479260563850403,-1.870643436908722,-24.304839515686034,42.847619247436526,5.8340399891138075,1.5269340425729752,6.80045731862386,1.0517826875050862,-278.84564208984375,138.31261749267577,-127.37775497436523,-4.910221695899963,2.4138360023498535,6.235771894454956,-2.8100711752971015,-7.281957586606343,7.256234635909398,1.8853745102882384,7.618466901779175,1.1163257479667663,2.44969847202301,-9.37535743713379,0.9480841636657715
5.8,-2.8160530626773834,-7.264609436194102,7.1934230625629425,180.0,0.9718227386474608,0.984954317410787,37.836666107177734,3.3694558143615723,176.7334747314453,43.400001525878906,-122.7537599,49.1879509,0.5763168632984161,-0.5219712952772776,-0.49627791345119476,0.37985507150491077,1.9215832153956096,1.3556697368621826,1.5196272333463032,-3.2781399615108966,43.009878921508786,24.153559494018555,-1.1552989160021145,0.8372926165660223,-3.5340590501825013,-257.81893463134764,138.4748764038086,-109.05823669433593,-12.269434134165445,-15.949723243713379,4.419589122136434,-12.251850128173828,-25.383660634358723,0.9742776354153951,-0.7756715814272562,1.512782206137975,-3.679088743713995,-0.457554096976916,-9.51503817240397,-1.9104906022548676
5.9,0.8706203970042141,-13.421097414963175,2.047848266634074,180.0,0.9718227386474608,0.9776180121633742,37.36811065673828,3.3824033737182617,177.33739725748697,43.400001525878906,-122.753762,49.18794303333333,0.4806327223777771,-0.7175809264183044,-0.3606223106384277,0.34769719243049624,-2.6858202457427978,1.2265653371810914,0.6118784248828888,5.692519956827164,48.6511589050293,6.056079804897308,-3.051450103521347,-1.0660871118307114,-0.8883252888917926,-248.84827728271483,144.11615600585938,-127.15571823120118,13.821060597896576,-3.561225096384684,-7.835933287938436,24.74142698943615,-12.648460578918456,-7.845945739746094,-3.2286773125330606,-1.3501903514067333,-0.9546806414922079,-2.91453884045283,-9.205922285715738,1.219902979830901
6.0,4.557293856685812,-19.577585393732246,-3.0977265292947944,180.0,0.9718227386474608,0.9702817069159614,36.89955520629883,3.395350933074951,177.94131978352866,43.400001525878906,-122.7537641,49.18793516666666,0.5457488298416138,-0.7091618577639262,-0.23237647861242292,0.375398447116216,-1.979667643706004,1.2557156483332317,-0.2600136383747061,-5.740099841356278,49.34655952453613,-3.476999953389168,-1.670156459013621,-3.2600096464157104,2.171575049559275,-260.28089599609376,144.81155700683593,-136.6887985229492,0.07690522074699402,8.703253587086996,-6.559836467107137,-1.8433707257111867,-0.676271508137385,-3.896911104520162,-1.6285412907600403,-3.2493449449539185,2.2641465862592063,-1.3043868839740753,-9.357035636901855,2.600038528442383
6.1,-1.8493528266747792,-0.6589235663414001,-3.959722717603048,180.0,0.9718227386474608,0.9629454016685486,36.430999755859375,3.4082984924316406,178.5452423095703,43.400001525878906,-122.7537662,49.1879273,0.6156187256177267,-0.6850907802581787,-0.18432884414990738,0.3246327042579651,-1.1715321938196819,1.3124168912569683,-0.17747466762860617,-12.187799644470214,47.991139602661136,-2.5607798099517822,5.234137737751007,4.227462327480316,1.1030393719673157,-266.7285919189453,143.45613708496094,-135.77257614135743,3.0082764625549316,-19.285612265268963,-5.286506846547127,3.64845634996891,-25.721447706222534,-3.7722848653793335,5.543907403945923,5.775348921616872,1.153008133172989,-0.39986400057872135,-9.498891035715738,1.342162658770879
6.2,3.642474224170049,-25.704099814097088,-3.8350964387257895,135.0,0.7288670539855956,0.9651976078748703,36.0622501373291,3.628864049911499,188.92732620239258,43.400001525878906,-122.753776625,49.187917299999995,0.5248419145743052,-0.3912770797808965,-0.6351921161015829,0.39587601522604626,1.8896127740542095,1.1776522397994995,2.9416895310084024,6.279339945316314,38.00421905517578,32.66549949645996,2.5263605130215483,5.022559444109599,0.29148457447687787,-248.2614532470703,133.4692169189453,-100.54629821777344,-0.795251190662384,-4.941783428192139,7.985751724243164,-0.8678966760635376,-14.918551117181778,3.6506497462590537,1.6462818264961243,3.9000384420156484,0.07376196384429931,-1.8328892111778259,-8.92697982788086,-3.53892560005188
6.3,-0.8738787968953451,-14.90120371679465,3.587838093439738,90.0,0.4859113693237304,0.967449814081192,35.69350051879883,3.8494296073913574,199.30941009521484,43.400001525878906,-122.75378705,49.1879073,0.6993563373883566,-0.53014408548673,-0.31465290114283556,0.3297886997461319,0.39613114794095355,1.281787137190501,-1.5249388416608174,-19.88355941772461,41.4043586730957,18.999059593677522,-3.8086429437001548,-9.463040828704834,1.7960965434710185,-274.4243560791016,136.86935729980468,-114.21273880004883,-3.384164492289225,12.140005588531494,5.258379181226094,-1.9841484854502294,2.9117660323778787,3.6447674036026,-3.722307284673055,-9.555866877237955,1.8455511530240376,1.4569815744956334,-9.41891066233317,-1.4600478758414586
6.4,-0.6702124055714883,-7.269209616789312,2.8762090662212083,45.0,0.2429556846618652,0.9697020202875137,35.324750900268555,4.069995164871216,209.69149398803708,43.400001525878906,-122.753797475,49.1878973,0.7337048888206482,-0.6165517926216125,0.03361410088837142,0.2810756683349609,-1.0280001997947692,1.0903897523880004,-1.7513191938400268,-29.564259147644044,40.13921852111817,-13.850659847259521,-1.5774831275145214,-1.5889113992452621,0.38385244086384773,-284.1050506591797,135.60421600341797,-147.06245880126954,-1.5849758982658386,6.184922536214192,-2.5100270907084146,1.3677374124526978,-2.734158754348755,0.5265405952930451,-1.8702657024065654,-2.2264256477355957,0.4506912777821223,2.260386347770691,-8.872703393300375,3.448137799898783
6.5,-0.4665460142476315,0.36278448321602563,2.164580039002679,0.0,0.0,0.9719542264938354,34.95600128173828,4.290560722351074,220.07357788085935,43.400001525878906,-122.7538079,49.1878873,0.7052622636159261,-0.5908761521180471,-0.19329785726343587,0.3079555879036585,0.11426952357093494,1.2796717286109927,-1.472571611404419,-23.343479776382445,43.052578353881835,6.616059839725494,4.4179301261901855,7.246755504608155,-4.683778727054596,-277.88427734375,138.517578125,-126.59573745727539,-12.74593218167623,-15.494738260904947,5.769531071186066,-9.631410479545593,-23.305394252141316,6.852346122264862,3.5653149684270224,7.011969327926636,-4.47405328353246,1.2966112717986107,-9.442503929138184,0.403576801220576
6.6,-9.637392163276672,-23.288047154744465,6.789534558852513,0.0,0.0,0.9719542264938354,34.64500109354655,4.101269284884135,215.5162684122721,43.400001525878906,-122.75380515,49.18788,0.5208252966403961,-0.7073660890261332,-0.3576696614424388,0.2969852164387703,-0.973328153292338,1.2824461460113525,0.9036487837632498,2.5534599304199217,48.49865913391113,11.57169976234436,-3.2700634400049844,-2.6552529285351434,-3.544723808765411,-251.98733825683593,143.96365814208986,-121.64009704589844,14.968277072906494,-4.7436212539672855,-2.707337898015976,13.461322943369547,-13.895120938618978,-2.418645183245341,-3.4708141803741457,-3.6950932681560515,-3.5960415482521055,-2.8898910999298097,-9.276966667175293,0.27802927494049073
6.7,13.455340305964151,-13.87777328491211,-2.4814568360646567,0.0,0.0,0.9719542264938354,34.33400090535482,3.911977847417196,210.95895894368488,43.400001525878906,-122.7538024,49.1878727,0.5066952308019003,-0.7907004952430725,-0.21596718331178025,0.2647998854517936,-2.603700836499532,1.1570178270339966,0.1719272017944604,5.098379915952682,49.9321590423584,-0.0012200232595205086,-1.3356568564971287,0.23296872774759925,2.105728884538015,-249.44241485595703,145.39715728759765,-133.2130157470703,4.417562921841939,2.5472288131713867,-5.039975802103679,-1.7095719575881958,-5.603691577911377,-3.4115668535232544,-1.4784466375907261,0.15233451128005981,2.0169497629006705,-3.749430457750956,-8.889049212137857,1.6235480705897014
6.8,-1.715554118156433,-5.586343442400296,-3.47437850634257,0.0,0.0,0.9719542264938354,34.023000717163086,3.7226864099502563,206.40164947509763,43.400001525878906,-122.75379964999999,49.1878654,0.5898438811302185,-0.7481324553489686,-0.14155531525611872,0.26661335825920107,-2.1618041515350344,1.2779860019683837,-0.38757017999887466,-7.167499935626983,49.578358840942386,-3.669759976863861,-0.02171116570631663,0.9563349684079488,2.4310655196507773,-261.7082946777344,145.0433563232422,-136.88155670166014,3.4008432030677795,0.09948182106018066,-7.886919657389323,1.458903932571411,-8.079126179218292,-6.098347854614258,-0.22993986681103715,0.44020479917526245,2.4432319005330405,-1.708881805340449,-9.427843888600668,1.9688955942789714
6.9,-1.0022165409543298,-13.16197931066607,-3.2168781278711376,0.0,0.0,0.9719542264938354,33.71200052897135,3.533394972483317,201.84434000651038,43.400001525878906,-122.7537969,49.1878581,0.5454863607883453,-0.5011309285958608,-0.48869311809539795,0.39489130675792694,0.8766383032004038,1.333950678507487,1.5743620693683624,-0.729559862613678,42.11683959960938,21.679399573616685,4.527402413853754,10.280964026848475,-1.3733269075552623,-255.27035217285157,137.58183898925782,-111.5323974609375,1.841714779535929,-19.592203219731648,2.5635171929995217,-1.7343975255886714,-31.31816037495931,-0.22841483354568481,4.782031337420146,11.22917926311493,-1.3622040463766705,-1.2185476093242567,-9.403963883717855,-1.6191252668698628
7.0,-0.2888789637522264,-20.737615178931843,-2.9593777493997053,0.0,0.0,0.9719542264938354,33.401000340779625,3.344103535016378,197.28703053792316,43.400001525878906,-122.75379415,49.1878508,0.6017489532629648,-0.4948873321215312,-0.4923560619354248,0.3578309118747711,1.430338477094968,1.300422469774882,0.9372485876083374,-7.670139801502228,41.18963966369629,26.049439239501954,-2.6156333684921265,-9.42320728302002,2.333383083343506,-262.2109344482422,136.65463562011718,-107.16235885620117,-0.7916458994150162,9.863614797592163,5.5023454030354815,-0.5333003401756287,-0.414556539307038,3.68933367729187,-2.6884942849477134,-9.02092711130778,2.1952460606892905,-0.012007070084412855,-9.468243598937988,-2.0441936453183494
7.1,-0.5392823914686838,-0.3972085217634837,3.626522183418274,0.0,0.0,0.9719542264938354,33.09000015258789,3.1548120975494385,192.7297210693359,43.400001525878906,-122.7537914,49.1878435,0.7187506159146627,-0.6027346253395081,-0.12279696327944595,0.312590683499972,-0.6341070470710596,1.24600350856781,-1.8718016346295674,-27.235279655456544,42.7731990814209,-0.17324006408452988,-3.2429309089978537,-4.548859010140101,1.4148402611414592,-281.77607421875,138.23819580078126,-133.38503799438476,-3.1498205423355103,10.37495698928833,-0.4866247415542603,-0.5865406890710195,0.7815556625525156,1.3788640449444454,-3.2729243278503417,-4.556932497024536,1.4424055576324464,2.036576271057129,-9.36072235107422,1.8306777834892274
7.2,-0.592522660891215,0.7989036490519842,1.3160524641474087,0.0,0.0,0.9740239381790161,33.00559997558594,3.1867121696472167,186.18899841308593,43.400001525878906,-122.75378478,49.18783716,0.7095508674780527,-0.5454251070817312,-0.20744844650228814,0.3705103397369385,-0.21043692777554193,1.208362837632497,-2.069573779900869,-28.1856595993042,41.00663871765137,4.9775998711586,2.9716811974843345,7.215082089106242,-2.0985003312428794,-282.72645263671876,136.4716369628906,-128.23419876098632,-5.084757288297017,0.25379435221354135,7.281762480735779,-3.640181084473928,-11.51785167058309,10.130812168121338,2.7510825296243033,6.929451862970988,-1.7012597133095066,2.6863877375920615,-9.178268273671469,1.4070990964149435
7.3,-3.6461631655693054,-11.50050381819407,10.068000753720602,0.0,0.0,0.9760936498641968,32.921199798583984,3.218612241744995,179.64827575683591,43.400001525878906,-122.75377816,49.18783082,0.5445354223251343,-0.5873706459999084,-0.4789046585559845,0.3539449155330658,1.3299208402633667,1.3549721956253051,1.8237922191619873,-0.5148399531841278,44.566598892211914,21.939259624481203,-3.293709084391594,-1.2054917911688487,-3.887291803956032,-255.05563507080078,140.0315963745117,-111.27253646850586,-10.031264781951904,-15.581852118174234,0.6374405225118002,-14.719448471069336,-26.406591796875,-0.5867202281951904,-2.821917419632276,-0.3441716432571411,-3.6660823225975037,-1.7000106150905292,-9.527275085449219,-0.9308359908560911
7.4,-0.6336040090430863,-15.16861950086825,3.231851471870235,0.0,0.0,0.9781633615493774,32.83679962158203,3.2505123138427736,173.10755310058593,43.400001525878906,-122.75377154,49.187824479999996,0.47023628155390423,-0.7829015552997589,-0.2728637754917144,0.29672909528017044,-2.643546541531881,1.1171879172325134,0.3547728893657525,8.281360006332397,49.21113929748535,2.2570000275969506,-2.581669282913208,-0.5807190895080563,-0.15134194493293762,-246.25943908691406,144.67613525390624,-130.9547966003418,19.6919903755188,-3.456977128982544,-8.168307304382324,16.63859184583028,-12.560324827829996,-6.003791451454163,-2.544355571269989,-1.1029680470625562,-0.3814090887705484,-3.998728076616923,-8.683151404062906,2.022466460863749
7.5,2.3789551474831323,-18.836735183542427,-3.604297809980132,0.0,0.0,0.9802330732345581,32.75239944458008,3.282412385940552,166.56683044433592,43.400001525878906,-122.75376492,49.18781814,0.5325236171483994,-0.7567504743734995,-0.18132022768259046,0.33023208876450855,-2.1736263831456504,1.1844896078109741,-0.21244248344252503,-3.0536599338054655,49.70767936706543,-4.276099896430969,-0.9462811847527822,-1.7254397571086884,2.1832578778266907,-257.5944534301758,145.17267761230468,-137.48789672851564,0.790134286880493,9.89179801940918,-5.358286952972412,-1.697408527135849,0.37806595116853714,-2.6625136931737265,-0.9509644746780396,-1.8305493116378784,2.1188776969909666,-2.32260115146637,-9.095429801940918,2.8314708709716796
7.6,-1.7033906082312267,0.39541396995385486,-2.725325266520182,0.0,0.0,0.9823027849197388,32.667999267578125,3.31431245803833,160.02610778808594,43.400001525878906,-122.7537583,49.1878118,0.5950650572776794,-0.6846154828866323,-0.22277140244841573,0.3133417069911956,-0.4350826144218445,1.3186184763908386,0.18076980113983154,-9.860039782524108,47.366498947143555,1.9422399878501888,5.2252141659458475,6.319960951805115,0.7521787335475286,-264.400830078125,142.8314971923828,-131.26955795288086,0.032737125953038536,-20.501440048217773,-3.498863995075226,-1.6596218297878902,-32.7998157342275,-1.1399805943171184,4.730285992225011,5.492849459250768,0.8179740011692047,-1.2001987397670746,-9.421946366628012,1.8476415971914928
7.7,-1.6656040549278257,-32.78246728579203,-1.2027921676635742,0.0,0.0,0.9823027849197388,32.74599914550781,3.340469312667847,160.36449584960937,43.400001525878906,-122.75375754,49.18780866,0.4997786382834117,-0.4598293602466583,-0.6156196594238281,0.3839063098033269,2.182137946287791,1.2332809368769329,2.5717052618662515,9.486719799041747,38.925319290161134,29.754579162597658,0.4605160852273305,-0.391946434974671,0.09992743531862895,-245.0540771484375,134.39031677246095,-103.45721817016602,1.4056078791618347,0.08252414067586263,5.920243223508199,2.339781833191713,-5.761418307820956,4.281457622845967,1.0065277460962534,0.8225046743949248,0.03866268197695414,-2.261005699634552,-9.19991938273112,-2.4125400384267173
7.8,2.333799570798874,-5.744070370992024,4.218646089235942,0.0,0.0,0.9823027849197388,32.8239990234375,3.366626167297363,160.7028839111328,43.400001525878906,-122.75375678,49.18780552,0.6883308291435242,-0.6074134707450867,-0.26215296685695644,0.27737900018692013,0.24163064062595369,1.4102528810501098,-1.3374677896499634,-18.923419380187987,44.01515884399414,13.844559705257415,-3.8338156938552856,-7.8984620571136475,1.489874889453252,-273.46421203613284,139.48015899658202,-119.3672378540039,-1.4518624345461528,12.142170906066895,3.2616493304570517,-0.9814162135124207,2.600639295578003,2.962912654876709,-3.8025852839152017,-8.174573262532553,1.5267558594544728,0.6719382852315903,-9.677706241607666,-0.31157361653943855
7.9,0.9452102123336359,-3.4159672955671945,3.5296264042456946,0.0,0.0,0.9823027849197388,32.901998901367186,3.39278302192688,161.04127197265626,43.400001525878906,-122.75375602,49.18780238,0.7246639231840769,-0.6214856406052908,-0.052264607045799445,0.2869077225526174,-0.9137630065282186,1.2042259971300762,-1.7340240081151326,-28.411359786987305,42.11927947998047,-5.799879896640777,-0.7286400318145752,2.9216767817735674,0.9608604863286019,-282.9521514892578,137.58427734375,-139.0116760253906,-2.3850524624188743,3.988882223765055,1.144486625989278,0.015952120224634807,-4.1934216519196825,2.8538398345311484,-0.28962647418181103,3.3752849400043488,0.776282457013925,2.0427157878875732,-9.233792781829834,2.4949214259783425
8.0,-0.4433791461316022,-1.0878642201423645,2.8406067192554474,0.0,0.0,0.9823027849197388,32.97999877929688,3.4189398765563963,161.3796600341797,43.400001525878906,-122.75375526,49.18779924,0.6262532671292623,-0.5629056791464487,-0.3887450372179349,0.34960678219795227,1.3093749980131786,1.3325469096501668,-0.19858612616856894,-13.249199712276459,42.613379287719724,19.313819551467894,1.7011070052782695,6.432869344949722,-4.921690275271733,-267.7899963378906,138.07837677001953,-113.89797821044922,-12.917446613311768,-17.07791213989258,7.951733207702636,-12.465608994166056,-24.555344740549724,6.57198707262675,1.7316807746887206,6.387634706497193,-5.743446588516235,0.07506406418979168,-9.55871295928955,-0.9986649453639984
8.1,-12.471591075261435,-24.537997722625732,6.509175539016724,0.0,0.0,0.9823027849197388,33.05799865722656,3.445096731185913,161.71804809570312,43.400001525878906,-122.7537545,49.1877961,0.48283661901950836,-0.7695635755856832,-0.3028032556176185,0.25224835673967994,-2.932705839474996,1.151811311642329,0.6221923033396403,6.214679914712906,48.08751907348633,10.252879738807678,-4.107254346211751,-5.765015284220378,-2.4908284520109496,-248.32611541748048,143.5525146484375,-122.95891799926758,22.220778425534565,-6.209431012471517,-2.766418218612671,20.153847853342693,-14.702698707580566,-2.0965114682912827,-4.225533127784729,-5.873443841934204,-2.654565840959549,-3.907374302546183,-8.850738366444906,0.5691336120168368
8.2,20.147865772247314,-14.685350894927979,-2.1593230217695236,0.0,0.0,0.9942291975021362,33.23619918823242,3.461668920516968,162.23357543945312,43.400001525878906,-122.7537548,49.18779282,0.5162137031555176,-0.7932372450828552,-0.19867707192897793,0.2516216695308685,-2.605702018737793,1.166747808456421,0.12663956508040425,2.208199840784073,49.8796989440918,0.8405799776315689,-0.7921140516797701,0.06503166506687792,3.1452433268229165,-252.3325958251953,145.34469451904297,-132.3712188720703,-1.9615434408187866,5.64564323425293,-5.293169577916463,-5.524548959732056,-2.7300909638404844,-3.285704469680786,-0.8101091211040815,0.3862450073162715,3.129717151323954,-3.5905664364496865,-8.922756354014078,1.7297826806704204
8.3,-5.530531120300293,-2.712743067741394,-3.348516035079956,0.0,0.0,1.0061556100845337,33.41439971923828,3.4782411098480224,162.7491027832031,43.400001525878906,-122.75375509999999,49.18778954,0.627727746963501,-0.7415462334950765,-0.07476429268717762,0.2157925615708033,-1.9931293725967407,1.3048652013142903,-0.7301640336712202,-13.415119647979736,47.96673927307129,-4.994679975509643,0.25607473850250245,-1.585989499092102,2.982427406311035,-267.95591735839844,143.43173828125,-138.20647735595702,6.499053259690602,-14.021181106567383,-5.749941507975261,3.326422363519669,-18.884555359681446,-5.025924603144328,1.313589374224345,0.6725625991821289,2.7575984597206116,-1.1474693260000397,-9.504594802856445,1.887950375676155
8.4,-2.2769303232431413,-11.097377938032151,-1.8278971900542575,0.0,0.0,1.0180820226669312,33.59260025024414,3.4948132991790772,163.26463012695314,43.400001525878906,-122.7537554,49.18778626,0.5598087906837463,-0.5095969090859095,-0.5202128340800604,0.34918547173341113,1.8094158569971721,1.3131761749585469,2.69785745938619,0.8539999246597292,40.2087589263916,27.679359245300294,4.35636010269324,10.906744519869486,-0.6504696570336819,-253.68679504394532,135.67375793457032,-105.53243713378906,-2.615967959165573,-8.995445060729981,6.624853467941284,-1.3611173629760742,-20.114166736602783,4.53699113925298,3.8884932518005373,11.255955907702447,-1.0408227473497391,-1.4854332864284516,-9.389053344726562,-2.1679776668548585
8.5,0.9766704738140106,-19.482012808322906,-0.3072783450285594,0.0,0.0,1.0300084352493286,33.77080078125,3.5113854885101317,163.78015747070313,43.400001525878906,-122.7537557,49.18778298,0.6840699712435404,-0.5662471354007721,-0.3535434951384862,0.25934372842311854,1.0381535689036052,1.3305051922798157,0.9214478731155396,-15.436659500002861,40.84437942504883,23.581379985809328,-2.4024821122487388,-9.157200972239176,1.6002378861109416,-269.9774566650391,136.30937957763672,-109.63041839599609,-1.4121897493799527,9.979785124460856,5.852927009264628,-1.3829517910877864,0.9506485213836035,3.781856139500936,-2.3064998984336853,-9.309357245763143,1.5678874850273132,0.1752364641676346,-9.50265916188558,-2.0263803700606027
8.6,-1.3889338423808415,0.9679964190969864,3.7190446058909097,0.0,0.0,1.041934847831726,33.94900131225586,3.5279576778411865,164.29568481445312,43.400001525878906,-122.753756,49.1877797,0.7803762257099152,-0.5851486424605051,-0.0424492216746633,0.2105788836876551,-0.5093940372268358,1.2025219798088074,-2.265996297200521,-33.543900108337404,39.29986000061035,-1.2895399987697602,-1.8726837933063507,-1.879657804965973,1.8070411682128906,-288.08469848632814,134.76485900878907,-134.5013397216797,-3.5929102500279746,8.419321537017822,0.15835521618525186,-0.6230311511705319,-1.7192430595556896,1.9026927848656972,-2.060881182551384,-2.348573307196299,1.8728109896183014,2.6072033842404685,-9.292844295501709,1.4626071602106094
8.7,-0.6290132645517588,-1.7018951028585434,1.83988123635451,0.0,0.0,1.041934847831726,34.00040130615234,3.5214494705200194,164.72544555664064,43.400001525878906,-122.75375577999999,49.18777442,0.715574836730957,-0.5852259755134582,-0.25103108435869215,0.25221692621707914,0.7328563213348389,1.3033511638641357,-0.6238960742950439,-24.728179782629013,40.30026016235352,12.568439808487891,2.1715495884418488,7.603006919225057,-5.583868205547333,-279.26897888183595,135.7652587890625,-120.64335784912109,-10.323287963867188,-10.52307923634847,10.079109032948812,-8.551110553741456,-19.62138500213623,10.76710376739502,2.3071616291999817,7.552687009175618,-5.482031986117363,1.1233201622962952,-9.433602492014566,-0.35894085963567096
8.8,-8.557092785835266,-19.60403690338135,10.704292011260986,0.0,0.0,1.041934847831726,34.05180130004883,3.5149412631988524,165.15520629882812,43.400001525878906,-122.75375556,49.18776914,0.5157658159732819,-0.7079629004001617,-0.36211971938610077,0.2937701717019081,-0.975919763247172,1.260874330997467,0.910240630308787,3.070739950239658,47.77641906738281,13.502959632873536,-4.624708080291748,-5.199929398298264,-2.981816474348306,-251.47005462646484,143.24141845703124,-119.70883636474609,11.666825532913208,-9.504879474639893,-5.028559893369675,4.506083567937214,-21.760329087575276,-2.429811696211497,-4.368551890055339,-4.671210030714671,-2.8113291462262473,-3.4019812742869058,-9.05359681447347,0.5632780989011129
8.9,-2.2841785599788027,-17.22600007603566,3.719343643387158,0.0,0.0,1.041934847831726,34.10320129394531,3.5084330558776857,165.58496704101563,43.400001525878906,-122.75375534,49.18776386,0.5067509512106577,-0.7950456639130911,-0.1962822303175926,0.25955295066038764,-2.5466295878092446,1.1423045893510182,0.07788953557610508,2.1703799188137056,49.8052791595459,1.0955599769949913,-0.6278422127167383,1.7475836301843326,3.1834987749656043,-252.37041778564452,145.27027587890626,-132.1162353515625,4.015308380126953,1.1875343322753906,-6.129235649108887,3.483351469039917,-7.970292761921883,-3.9757744868596396,-0.2615725100040436,2.8466014742851256,3.821389675140381,-3.665940284729004,-8.790810775756835,2.0761575937271117
9.0,3.9887356658776603,-14.84796324868997,-3.265604724486669,0.0,0.0,1.041934847831726,34.1546012878418,3.5019248485565186,166.0147277832031,43.400001525878906,-122.75375512000001,49.18775858,0.6443948447704315,-0.6964125633239746,-0.12634909090896443,0.2814935743808746,-1.617270012696584,1.321626603603363,-0.9338464091221491,-17.108059692382813,47.38723907470703,-0.8393599987030029,-0.3219005092978478,-2.40996523698171,3.5053992668787637,-271.6488555908203,142.85223541259765,-134.05115661621093,-2.2880857785542807,5.662266254425049,-7.006944576899211,-1.5934204459190369,-6.503891219384968,-5.264808098475139,-0.3999894702186187,-2.379294733206431,3.5325828393300376,-0.6176618871589502,-9.502291202545166,2.2152421871821084
9.1,-1.5994025270144145,-6.486543361718456,-5.327619632085164,0.0,0.0,1.041934847831726,34.20600128173828,3.4954166412353516,166.44448852539062,43.400001525878906,-122.7537549,49.1877533,0.607938003540039,-0.5527075171470642,-0.3977703183889389,0.33262313902378077,1.0769029974937439,1.359108829498291,0.6759107112884521,-9.195139908790589,41.68739967346191,18.81849961280823,4.198273251454036,12.786580512921015,-2.46858278910319,-263.7359329223633,137.15239562988282,-114.3932991027832,8.328194379806519,-20.881930033365887,0.26923104127248126,8.153423404693603,-32.70258693695068,0.1038485050201416,4.299549569686254,13.015273094177246,-2.39186829328537,-0.48966964582602185,-9.557308355967203,-0.61716295282046
9.2,8.14744167327881,-32.68523979187012,0.041036811470985424,0.0,0.0,1.0427777568499248,34.16333452860514,3.4384243885676065,168.69945271809897,43.400001525878906,-122.75375953333334,49.1877515,0.5811219811439514,-0.5266133397817612,-0.5051973561445872,0.327446237206459,1.8531848788261414,1.2938393155733745,2.578629493713379,-2.9950996875762943,39.712219619750975,29.34465961456299,-1.2022438716143369,-9.72949504852295,1.7467691898345947,-257.53589324951173,135.17721710205078,-103.86713790893555,0.07072888811429341,8.695684909820557,5.5601716836293535,-1.0614162584145863,-1.468196044365565,3.323630670706431,-1.332398923734824,-9.23895494143168,1.5951473315556843,-0.8687986309329668,-9.477482795715332,-2.0419999162356057
9.3,-1.0673982600371044,-1.4508481721083324,3.260819057623545,0.0,0.0,1.0436206658681233,34.12066777547201,3.381432135899862,170.95441691080728,43.400001525878906,-122.75376416666667,49.1877497,0.7303474644819895,-0.6314809819062551,-0.1287963028686742,0.196829246977965,-0.2524160345395406,1.3751644690831502,-2.420134405295054,-26.608199310302734,42.68535957336426,6.905199718475342,-2.8613437016805015,-6.813183705012004,0.7860308388868967,-281.1489959716797,138.15035705566407,-126.30659713745118,-3.2498424530029295,10.639332580566407,1.2255475282669068,-1.5509478847185771,0.5771687179803848,1.624228060245514,-2.9300151824951173,-6.91636905670166,0.7555486917495727,1.117973518371582,-9.683602333068848,0.555674210190773
9.4,-2.1537896133959293,-4.368072812755902,4.073979958891869,0.0,0.0,1.044463574886322,34.07800102233887,3.3244398832321167,173.20938110351562,43.400001525878906,-122.7537688,49.1877479,0.7249371012051901,-0.6135540505250295,-0.14327385586996869,0.23743984103202817,-0.25357918192942935,1.3379377126693726,-1.2872771620750427,-27.43047962188721,41.755719375610354,5.683979940414429,1.9124918580055237,7.472994575082946,-1.3309735357761383,-281.9712768554688,137.22071838378906,-127.52781753540039,-4.990204393863678,-2.8126417795817056,5.99671870470047,-4.917450003325939,-15.182459910710653,8.275676767031351,1.682450147966544,6.978117267290751,-1.0529025942087173,1.417457511027654,-9.579829533894857,1.1151732355356216
9.5,-3.2401809667547545,-7.285297453403473,4.887140860160192,0.0,0.0,1.0453064839045207,34.03533426920573,3.2674476305643716,175.46434529622397,43.400001525878906,-122.75377343333334,49.1877461,0.5539674162864685,-0.6509556969006857,-0.40915554761886597,0.30576739211877185,0.6436327298482258,1.3321800231933594,1.473987062772115,-2.8047798693180086,44.971639251708986,21.648899650573732,-2.7477482557296753,-0.577191345393658,-3.600057969490687,-257.34557342529297,140.43663787841797,-111.56289901733399,-9.856588125228882,-11.998430569966635,-1.114224910736084,-10.317252914110819,-20.98814519246419,-1.9948165267705917,-2.311463197072347,0.4634176939725876,-3.46080619096756,-1.8853552887837093,-9.533326784769693,-0.5768781105677286
9.6,-10.323235233624777,-20.970797379811604,-2.0576279759407043,0.0,0.0,1.0461493929227192,33.99266751607259,3.210455377896627,177.71930948893228,43.400001525878906,-122.75377806666667,49.1877443,0.47421732544898987,-0.8530479073524475,-0.16044942736625667,0.138147522509098,-2.9701008796691895,1.0232722401618957,0.2707000762224197,8.147159814834595,49.4636791229248,4.248039931058884,-2.1421007569879293,-2.1471405029296875,-0.1856011946996056,-246.3936340332031,144.92867736816407,-128.96375885009766,22.55332899093628,-5.693395614624023,-1.512340784072876,25.08730993270874,-14.199967098236083,-0.6910472273826599,-2.43994851061143,-2.9078204234441127,-0.7834600806236267,-5.1087188720703125,-8.28202780087789,0.8300120073060194
9.7,25.08132734298706,-14.182618618011475,-0.7538587450981141,0.0,0.0,1.046992301940918,33.95000076293945,3.153463125228882,179.97427368164062,43.400001525878906,-122.7537827,49.1877425,0.5804682473341624,-0.773997555176417,-0.12625871971249578,0.21161872396866477,-2.4357486565907798,1.2620827158292134,-0.21664942149072886,-7.990999868512153,49.84675941467285,-0.6404999911785125,-0.751578053832054,-1.6375769972801208,3.4834895610809324,-262.53179626464845,145.31175842285157,-133.8522964477539,-2.0260794957478843,9.214353720347086,-5.268005172411601,-4.567300279935201,0.1842473248640696,-3.147459089756012,-0.8853728038569292,-1.8998418251673381,3.515173157056173,-2.401603023211161,-9.305622736612955,1.7807897925376892
9.8,-4.5732823212941485,0.20159534613291422,-3.2102706829706826,0.0,0.0,1.046992301940918,33.8010009765625,3.0721179962158205,179.97921752929688,43.400001525878906,-122.75378292,49.18773944,0.6698594292004904,-0.6648930807908376,-0.16007139238839344,0.1999431227644284,-0.3656092087427775,1.3895530700683594,-0.15271830558776855,-18.975879669189453,44.74471893310547,4.596959888935089,3.7894007513920465,8.595128615697226,1.571807191396753,-273.5166717529297,140.209716796875,-128.61483764648438,6.760784673690796,-25.23332977294922,-0.24929361343383755,3.870988885561625,-31.76152976353963,0.2234297196070353,4.5834441661834715,9.895222890377044,1.2849244713783263,-0.32168236523866656,-9.667985725402833,0.5840540051460266
9.9,-1.937538230170806,-9.016454737633468,-1.0900054723024368,0.0,0.0,1.046992301940918,33.652001190185544,2.9907728672027587,179.98416137695312,43.400001525878906,-122.75378314,49.18773638,0.5868246952692667,-0.5434933553139368,-0.5036461303631464,0.30187770724296564,1.9636088411013286,1.2762774030367534,2.4167499939600625,-1.8226799547672272,38.981439208984376,32.46419887542724,-0.3073670789599419,-3.3141985336939492,-0.5124141195168098,-256.3634735107422,134.4464370727539,-100.74759902954102,0.7410731315612796,2.119030157725016,4.331012606620789,-2.4626133342583976,-4.742175708214442,1.962712784608205,0.013489936478435993,-1.9905805587768552,-0.3802636166413625,-1.4825128416220348,-9.397241910298666,-2.317627271016439
10.0,0.6982058609525362,-18.23450482139985,1.0302597383658092,0.0,0.0,1.046992301940918,33.5030014038086,2.9094277381896974,179.98910522460938,43.400001525878906,-122.75378336,49.18773332,0.7000058412551879,-0.6743340253829956,-0.16611209884285924,0.13798455893993372,0.4165440559387207,1.490349006652832,0.6474987983703613,-22.310139465332032,44.78619956970215,10.418799990415573,-2.951751788457235,-6.899595657984416,-0.1896736572186152,-276.85093383789064,140.2511993408203,-122.79299697875976,-0.729442834854126,11.611929734547934,2.6783824463685355,-1.32981116771698,2.0622541666030885,2.260858488082886,-2.954475204149882,-7.138596773147583,-0.2295326218008995,-0.22037172565857566,-9.758133093516031,-0.48204581687847775
10.1,-1.3357932627201081,2.0796021819114685,2.198046898841858,0.0,0.0,1.046992301940918,33.35400161743164,2.8280826091766356,179.99404907226562,43.400001525878906,-122.75378357999999,49.187730259999995,0.7304604053497314,-0.6722177565097809,0.01782938356821735,0.11093676835298534,-1.1166995863119762,1.3667189280192058,-1.8922733068466187,-28.516279411315917,43.15749893188477,-5.580279931426048,-0.7633066773414612,1.4876095056533813,1.43144052028656,-283.05707092285155,138.62249755859375,-138.79207916259764,-1.6764476895332336,5.382726748784383,0.6497695942719778,-0.4253242143119375,-3.6465620398521423,1.8746768338605762,-0.44076470223565895,1.7838537494341533,1.2030990972804527,0.655745786925157,-9.63940143585205,1.586148242155711
10.2,-0.4313062783330679,-3.629214050869147,1.8118652732421954,0.0,0.0,1.046992301940918,33.20500183105469,2.746737480163574,179.99899291992188,43.400001525878906,-122.7537838,49.1877272,0.6589730878671011,-0.6819930771986643,-0.21978555371363953,0.19489495456218717,1.4989955872297287,1.4045324524243672,0.1482398509979248,-17.414279794692995,45.21929931640625,13.37119996547699,1.6873624821503956,5.691609541575114,-4.15591986477375,-271.9550720214844,140.68429870605468,-119.8405990600586,-11.267072836558023,-18.10562817255656,4.66099492708842,-11.90927799542745,-27.175087292989094,5.404289712508519,0.978606124718984,5.2227197488149,-4.236223191022873,-1.2172436167796452,-9.599412759145102,-0.07911406923085451
10.3,-11.91525967915853,-27.15773916244507,5.341478029886882,0.0,0.0,1.049981379508972,33.00740127563476,2.7262542724609373,179.99918212890626,43.400001525878906,-122.75378341999999,49.18772354,0.49413656691710156,-0.811450848976771,-0.20000339423616723,0.21202048162619272,-2.8268412748972573,1.1136620938777924,0.29415224088976777,2.7632998704910277,49.70401954650879,6.389139801263809,-3.9160534938176474,-2.9498174091180167,-1.9766327071314056,-251.77749786376953,145.1690200805664,-126.82265853881836,25.404040718078612,-4.208125019073487,-6.636720657348633,16.734503904978435,-12.212169408798218,-4.976871728897095,-4.0934384822845455,-3.9337583482265472,-2.255558729171753,-4.502599096298217,-8.515552425384522,1.3899829745292664
10.4,-2.783924490213394,-17.16835279762745,0.7977820287148161,0.0,0.0,1.0529704570770264,32.809800720214845,2.7057710647583004,179.99937133789064,43.400001525878906,-122.75378304,49.187719879999996,0.5332166800896326,-0.8086484769980112,-0.08704099059104914,0.2291258871555328,-2.418619751930237,1.1253152290980022,-0.2600223546226819,-2.6900999784469604,50.044398880004884,-4.082119941711426,-0.6134359613060951,0.21153753250837326,2.84619935353597,-257.23089599609375,145.5093978881836,-137.29391632080078,-0.830117424329122,5.4572218259175616,-5.347069342931111,-4.027718683083852,-2.180459608634313,-2.389333128929138,-0.6811656653881073,0.4424191837509473,2.830851356188456,-3.7594794034957886,-8.623766581217447,2.6748094161351523
10.5,6.34741069873174,-7.17896643280983,-3.74591397245725,0.0,0.0,1.0559595346450805,32.61220016479492,2.685287857055664,179.999560546875,43.400001525878906,-122.75378266,49.18771622,0.6400555729866028,-0.7462534427642822,-0.01301287878304718,0.174418893456459,-1.9774092197418214,1.2930578231811523,-0.8952818274497986,-16.757919597625733,47.04319877624512,-6.043879795074463,2.516993929942449,2.008372187614441,2.4791965608795485,-271.2987121582031,142.50819549560546,-139.25567626953125,4.721134384473165,-11.224652608235678,-4.52027948697408,5.103292322158813,-21.483001232147217,-2.793620491027832,2.119269688924154,1.099328339099884,2.6191865603129068,-1.531664753953616,-9.383474985758463,2.169555127620697
10.6,5.097310400009156,-21.46565270423889,-2.856432056427002,0.0,0.0,1.0589486122131349,32.414599609375,2.664804649353027,179.99974975585937,43.400001525878906,-122.75378228000001,49.187712559999994,0.5666822542746862,-0.5860631962617239,-0.4558884451786677,0.31907232105731964,2.278660992781321,1.3731746276219685,2.0466205875078836,-2.7205999843776225,41.32993927001953,26.01283941268921,2.1040031611919403,7.934437084197998,-1.242408323287964,-257.2613952636719,136.79493713378906,-107.19895706176757,-4.663916885852814,-5.72181510925293,2.9361483057339988,-1.354736566543579,-18.89562217394511,2.306780735651652,1.9748510134716828,6.152761975924174,-0.8520806481440862,-1.7381434738636017,-9.55370839436849,-1.194946527481079
10.7,-1.3607183694839478,-18.878273963928223,2.24396912753582,0.0,0.0,1.061937689781189,32.21699905395508,2.64432144165039,179.99993896484375,43.400001525878906,-122.7537819,49.1877089,0.6667000154654185,-0.6533495883146921,-0.26512153322498,0.20401069025198615,1.0880681922038395,1.4634802142779033,0.6426802277565002,-17.428919553756714,43.57473907470703,17.07511963844299,-2.4045692483584085,-8.69052537282308,1.0588331036269665,-271.9697204589844,139.03973846435548,-116.13667755126953,0.16340297460556022,10.61357822418213,4.006264734268188,-1.0072786280264456,0.6365905354420344,3.3358938296635947,-2.5288294315338136,-8.515858554840088,0.9707259587943554,-0.5373847603797912,-9.743989562988281,-0.7201968014240264
10.8,-1.013260642066598,0.6539384623368582,3.2730822960535684,0.0,0.0,1.04581618309021,31.84099922180176,2.664345598220825,179.9989013671875,43.400001525878906,-122.75378134,49.187705179999995,0.7245319286982218,-0.678304006656011,0.0231907513613502,0.10949282472332315,-1.2204559743404388,1.3695517182350159,-1.7984005411465962,-26.63503952026367,43.14529876708984,-5.586380061507225,-1.7568993767102559,-2.1789053877194724,1.4344133883714676,-281.17583618164065,138.61029815673828,-138.79817810058594,-0.7254917075236639,9.262038469314575,0.06245907147725427,-0.25692934294541675,-1.141177033384641,1.911566158135732,-1.9060268426934879,-2.6428321649630866,1.3648256609837215,0.17527857547005019,-9.65639861424764,1.5606968303521473
10.9,-2.3772194526920263,-4.923427356463491,4.5349291572065065,0.0,0.0,1.029694676399231,31.464999389648437,2.6843697547912595,179.99786376953125,43.400001525878906,-122.75378078,49.18770146,0.7222609043121337,-0.6380429983139038,-0.15545664522796865,0.1814845561981201,0.46776413470506667,1.3847973108291627,-0.6109907150268554,-25.951839923858643,41.76425895690918,9.043859750032425,1.8999945273001988,7.475361585617065,-3.586491644382477,-280.4926361083984,137.22926025390626,-124.16793975830078,-8.787299315134684,-11.95073159535726,9.279016733169556,-7.909116220474243,-21.77049865722656,10.59721336364746,2.049580236275991,7.441356817881267,-3.3309462666511536,0.4873319168885549,-9.64742660522461,0.3433450659116109
11.0,-3.741178263317455,-10.500793175263839,5.796776018359444,0.0,0.0,1.013573169708252,31.088999557495118,2.704393911361694,179.996826171875,43.400001525878906,-122.75378022000001,49.18769774,0.5305415640274683,-0.7603670159975687,-0.25960229833920795,0.24724167088667548,-1.8446925083796184,1.2340800265471141,0.4962657292683919,-1.4432600021362305,48.824398803710935,10.346819871664048,-4.207762002944946,-4.459591126441955,-3.420295535027981,-255.9840515136719,144.28939514160157,-122.86497650146484,12.438527146975199,-9.290802478790283,-4.906361828247706,5.395616292953491,-19.760527928670246,-2.968994369109472,-4.052327315012614,-3.81269001464049,-3.0552933503252766,-3.694220264752706,-8.882928768793741,1.229614906013012
