time,TotalAcceleration_z,TotalAcceleration_y,TotalAcceleration_x,Location_bearingAccuracy,Location_speedAccuracy,Location_verticalAccuracy,Location_horizontalAccuracy,Location_speed,Location_bearing,Location_altitude,Location_longitude,Location_latitude,Orientation_qz,Orientation_qy,Orientation_qx,Orientation_qw,Orientation_roll,Orientation_pitch,Orientation_yaw,Magnetometer_z,Magnetometer_y,Magnetometer_x,GyroscopeUncalibrated_z,GyroscopeUncalibrated_y,GyroscopeUncalibrated_x,MagnetometerUncalibrated_z,MagnetometerUncalibrated_y,MagnetometerUncalibrated_x,Accelerometer_z,Accelerometer_y,Accelerometer_x,AccelerometerUncalibrated_z,AccelerometerUncalibrated_y,AccelerometerUncalibrated_x,Gyroscope_z,Gyroscope_y,Gyroscope_x,Gravity_z,Gravity_y,Gravity_x
3.1,0.8448657616972923,-22.256142298380535,-2.7523442258437476,123.42857142857144,0.46304344449724466,4.383830383845738,37.82671356201172,2.33224607195173,10.81683850969587,43.400001525878906,-122.75287718,49.18791862571429,-0.1655254910389582,0.32863374551137287,-0.5325973431269327,0.7609344323476156,0.9684350192546844,1.1694536407788594,-0.23850591108202931,13.001539707183838,49.51613922119141,-1.3078399665653706,3.2544609705607095,3.7066538532574973,0.7711664785941442,-244.4184539794922,144.13933563232422,-134.19023742675782,-2.3760626713434854,9.489146868387857,5.135918855667114,0.8508478254079819,-22.273489952087402,-2.689532627662023,3.2553518613179526,3.7022761503855386,0.7687484833101431,2.1880629857381186,-8.893476645151773,-3.406083027521769
3.2,-0.45371180755848234,-3.0836413313042033,0.0451373349536549,128.57142857142858,0.4823369213512965,4.3953085626874655,35.738285064697266,2.429422991616385,11.267540114266533,43.400001525878906,-122.7528375,49.187931614285716,-0.1558869451284408,0.20635060966014857,-0.5769609808921814,0.7742660760879516,0.5126754939556122,1.281236433982849,0.0111682431772351,11.14347972869873,49.64911880493164,4.82143991580233,-1.3786256695589558,-0.9112721248106523,-0.07882938508621673,-246.27651672363282,144.27231674194337,-128.0609558105469,-2.392940938472748,8.196165323257446,2.4907182653745017,-0.4477297389371829,-3.1009893783114175,0.10794891010631219,-1.3777232827110724,-0.9156731041994962,-0.08120343114503406,2.475729068120321,-9.382749080657959,-1.4071439107259114
3.3,-0.18552986974122399,-2.135190816116378,0.5642937392447934,133.71428571428572,0.5016303982053484,4.406786741529192,33.64985656738281,2.526599911281041,11.718241718837193,43.400001525878906,-122.75279782,49.187944602857144,-0.15433400869369504,0.2215735167264938,-0.6012296179930369,0.7513673305511475,0.6948520938555399,1.3368385632832844,-0.15280837193131444,12.007239770889282,49.72109870910644,-0.5605899900663642,-0.8237922718028792,-1.5733412933168989,-0.026344724803824333,-245.41275634765626,144.34429664611815,-133.44298629760743,-9.014003276824951,-16.065648873647053,2.2370178004105887,-0.17954780978404666,-2.1525388704330632,0.6271053209449307,-0.8228829260351079,-1.5777561874552206,-0.028740745785674364,1.7266984184583027,-9.546668688456217,-1.3876409729321797
3.4,0.08265206807603438,-1.1867403009285529,1.0834501435359318,138.85714285714286,0.5209238750594003,4.41826492037092,31.56142807006836,2.623776830945696,12.168943323407854,43.400001525878906,-122.75275814,49.18795759142857,-0.18760028667747972,0.181916544213891,-0.6636759142080942,0.6904525781671207,-0.3596441845099131,1.3432360341151555,0.36872811143014883,12.870999813079834,49.79307861328125,-5.942619895935058,-0.2689588740468025,-2.2354104618231454,0.02613993547856806,-244.5489959716797,144.41627655029296,-138.82501678466798,-0.8378331010991875,-8.40308075240164,-1.4222749494241946,0.08863411936908956,-1.2040883625547092,1.146261731783549,-0.26804256935914356,-2.239839270710945,0.02372193957368533,0.3344205324396943,-9.535930691343365,0.021002664710536134
3.5,-7.28744113445282,-25.61247444152832,0.8492526412010193,144.0,0.5402173519134521,4.429743099212646,29.472999572753906,2.7209537506103514,12.619644927978516,43.400001525878906,-122.75271846,49.187970580000005,-0.2208665646612644,0.1422595717012882,-0.7261222104231516,0.6295378257830938,-1.4141404628753662,1.3496335049470265,0.8902645947916122,16.256499671936034,48.95981864929199,-6.503819799423217,-0.7318929185469946,1.3660728707909584,-0.9536624451478323,-241.16349334716796,143.58301849365233,-139.38621978759767,7.338337074626576,-0.7405126311562278,-5.0815676992589776,-7.2814589738845825,-25.629822254180908,0.9120642493168513,-0.7309766262769699,1.3616440817713737,-0.9560804565747579,-1.0578573535789142,-9.525192694230514,1.429646302353252
3.6,12.301301995913187,-14.785450458526611,-4.572983145713806,149.14285714285717,0.5595108287675039,4.441221278054374,27.384571075439453,2.818130670275007,13.070346532549177,43.400001525878906,-122.75267878,49.18798356857143,-0.20643337070941917,0.07025088990728055,-0.6942423681418101,0.6842346290747324,-1.4279032051563263,1.3691474397977192,1.824117124080658,28.34303970336914,41.588579177856445,-14.424059581756591,-2.978528082370758,-1.5156330143411954,-3.2551227112611136,-229.07695770263672,136.21177825927734,-147.30645599365235,0.8340701311826706,7.191164652506511,-4.268346826235454,12.307284156481428,-14.802798589070639,-4.51017153263092,-2.97763721148173,-1.52006180336078,-3.25751527150472,0.18231755308806896,-9.595794836680094,1.9838239351908367
3.7,0.12486199221827766,-3.512772386724299,-2.4038622704419224,154.2857142857143,0.5788043056215558,4.4526994568961005,25.296142578125,2.9153075899396623,13.521048137119838,43.400001525878906,-122.7526391,49.18799655714286,-0.24635808765888215,0.3635605573654174,-0.5603671431541443,0.6814570903778077,0.9872997999191284,1.2927143812179565,-0.07248550951480866,28.205179309844972,39.05707912445068,-21.91058988571167,0.2696692482991652,-0.4303406714038415,1.7534747936508872,-229.21481475830078,133.68027725219727,-154.79298706054686,-0.9740579724311829,-21.50542974472046,-1.0375808874766033,0.13084386153654617,-3.5301204242489557,-2.3410506627776404,0.27054389092055237,-0.4347555491734635,1.7510729730129242,0.44109321137269336,-9.351157824198404,-1.9222166041533153
3.8,-0.20411948583117007,-17.184758099642664,-2.681891939405239,159.42857142857144,0.5980977824756077,4.464177635737828,23.207714080810547,3.012484509604318,13.9717497416905,43.400001525878906,-122.75259942,49.18800954571429,-0.2340762118498484,0.4720911184946696,-0.5610912541548411,0.6282059252262115,1.7756797870000203,1.2072429060935974,-0.7027452488740286,21.472609472274783,43.772988986969,-15.954854869842528,2.339969075538895,5.052778808343592,0.09038838570598862,-235.94738540649413,138.396187210083,-148.8372520446777,0.9732692341009775,7.6279927889506025,6.5033641656239825,-0.1981375590531209,-17.202106183677007,-2.619080329031655,2.3408518273270493,5.048369653353637,0.08797848457470536,-0.5296633392572403,-9.195733229319254,-3.0213839610417685
3.9,-0.5331009638806178,-30.856743812561035,-2.9599216083685556,164.57142857142858,0.6173912593296595,4.475655814579555,21.119285583496094,3.1096614292689733,14.42245134626116,43.400001525878906,-122.75255974,49.188022534285714,-0.2265392113476991,0.33015946112573147,-0.5772630199790001,0.6889488125840824,0.9459817149521161,1.2689419190088906,-0.11513910822880769,14.74003963470459,48.488898849487306,-9.999119853973388,4.4102689027786255,10.535898288091024,-1.5726980222389102,-242.6799560546875,143.11209716796876,-142.8815170288086,-2.333907230785399,5.354218735839382,4.459373692671457,-0.527118979642788,-30.87409194310506,-2.89710999528567,4.411159763733546,10.531494855880737,-1.5751160038635135,0.8796603496779094,-9.352659131541397,-1.555110560673656
4.0,0.4434697876373927,-1.5678970118363698,3.4818560679753623,169.71428571428572,0.6366847361837114,4.487133993421282,19.03085708618164,3.2068383489336285,14.873152950831821,43.400001525878906,-122.75252006,49.18803552285715,-0.21900221084554986,0.1882278037567933,-0.5934347858031591,0.7496916999419531,0.11628364290421207,1.330640931924184,0.47246703241641325,17.697319507598877,48.78047981262207,-5.453399896621704,-2.1143318712711334,-6.09689337015152,1.762168049812317,-239.7226760864258,143.40367431640624,-138.33579711914064,-5.641083695671775,3.0804446827281606,2.415383219718933,0.4494518886009852,-1.5852449933687847,3.544667681058248,-2.1134410301844277,-6.101321975390117,1.7598009904225667,2.288984038613059,-9.509585033763539,-0.0888371603055434
4.1,-0.32697921991348267,0.7489534974098206,0.9388239681720734,174.85714285714286,0.6559782130377633,4.498612172263009,16.942428588867188,3.304015268598284,15.323854555402484,43.400001525878906,-122.75248038,49.188048511428576,-0.17468805313110347,0.19775510132312774,-0.6435322523117065,0.7163893699645996,-0.10382068157196045,1.4388752222061156,-0.618199210986495,11.49361972808838,48.837819290161136,-12.761199712753296,-2.5625797271728517,-1.895026159286499,1.2098186373710633,-245.92637481689454,143.4610168457031,-145.6435989379883,-4.416798532009125,-12.220369497934977,-0.6530747711658478,-0.3209971278905869,0.7316055357456207,1.0016355514526367,-2.5616939544677733,-1.8994243621826172,1.2074667811393738,0.8870226493260512,-9.674100399017334,-0.5360338563720385
4.2,-4.701597303152084,-17.152899185816448,1.1467602749665577,180.0,0.6752716898918152,4.510090351104736,14.854000091552734,3.4011921882629395,15.774556159973145,43.400001525878906,-122.7524407,49.1880615,-0.056025774683803264,0.05585859731460608,-0.790224035580953,0.6008652448654175,0.12122273445129395,1.2991422613461812,-1.0083481470743816,14.877289772033691,48.19426918029785,-11.24473979473114,0.12484558175007503,-0.21871520051111779,-1.7221945871909459,-242.54270401000977,142.81746673583984,-144.12713851928712,18.83213957150777,0.7162787119547526,0.06475222607453635,-4.6956152717272435,-17.170247554779053,1.2095718656977017,0.125736432770888,-0.22313125400493541,-1.7245744072521727,-2.4997927149136863,-9.437761147816977,0.21722641587257385
4.3,5.815306777755419,-12.937269131342571,0.7143074286480744,180.0,0.6551968276500701,4.470154714584351,14.626100063323975,3.417730116844177,16.2433180809021,43.400001525878906,-122.75243445,49.18806963,-0.06350606416041649,0.043596968525283324,-0.6807097494602203,0.7255134582519531,-0.9013483896851539,1.4588552316029866,1.053216169277827,27.01659460067749,42.27452392578125,-7.955009838938713,-0.49165744210282963,-1.421279666169236,-0.8623190497358639,-230.4034008026123,136.89772262573243,-140.83740882873536,-5.5613594849904375,6.056617259979248,-3.323516766230265,5.821288714806238,-12.954617341359455,0.7771189697086811,-0.49075385058919596,-1.4256894015707078,-0.8647052249871197,1.0305861321588357,-9.690859317779541,0.2744868832329909
4.4,16.332210858662922,-8.721639076868692,0.2818545823295911,180.0,0.6351219654083252,4.430219078063965,14.398200035095215,3.434268045425415,16.712080001831055,43.400001525878906,-122.7524282,49.188077760000006,-0.09267141976306445,0.19225794123728215,-0.6057663944860299,0.7334537183245022,0.09356145560741436,1.283089076479276,0.3319712777156383,39.15589942932129,36.35477867126465,-4.665279883146286,-1.1081604659557343,-2.6238441318273544,-0.0024435122807819156,-218.26409759521485,130.977978515625,-137.54767913818358,-2.7478268977367515,-1.0949177525260234,0.19438849434708105,16.33819270133972,-8.73898712793986,0.34466607371966046,-1.1072441339492798,-2.62824754913648,-0.00483604272206654,1.1970377440253892,-9.188284938985651,-1.742443262796962
4.5,-4.530909315372507,-3.634398447970549,-3.0491539438565574,180.0,0.6150471031665802,4.390283441543579,14.170300006866455,3.450805974006653,17.18084192276001,43.400001525878906,-122.75242195,49.18808589,-0.1218367753657124,0.340918913949281,-0.5308230395118395,0.7413939783970515,1.0884713008999825,1.1073229213555653,-0.3892736138465504,23.936399364471434,46.16113967895508,-5.60711989402771,0.6138941223422686,-2.2722660303115845,3.988720973332723,-233.4835968017578,140.78433685302736,-138.48951873779296,0.06570568951693448,-8.246452765031295,3.7122937549244273,-4.524927291398247,-3.6517464642723403,-2.986342420180639,0.6147594923774401,-2.276694784561793,3.986302971839905,1.363489355891943,-8.685710560191762,-3.7593734088269146
4.6,4.714937210083008,-33.006594848632815,-0.9810572147369381,180.0,0.5949722409248351,4.350347805023193,13.942399978637695,3.4673439025878907,17.649603843688965,43.400001525878906,-122.7524157,49.18809402,-0.11958356648683544,0.14581720381975172,-0.5895021200180054,0.7835576653480529,0.31920394748449327,1.281099796295166,0.06271258294582367,10.155279779434204,50.166399002075195,2.071559987962246,2.928610110282898,14.1051531791687,-0.4242458403110504,-247.26471557617188,144.7895965576172,-130.81083908081055,-4.396775325139363,10.732956886291504,2.876115143299103,4.720919990539551,-33.02394390106201,-0.9182456016540528,2.929526460170746,14.10072431564331,-0.42662826776504514,2.598405957221985,-9.357326030731201,-0.8607357119520506
4.7,-1.5538392119730513,-1.0808080683151882,1.3731312472373247,180.0,0.5748973786830902,4.310412168502808,13.714499950408936,3.4838818311691284,18.11836576461792,43.400001525878906,-122.75240944999999,49.18810215,-0.11357146377364791,0.029901555351292047,-0.5673209726810455,0.8145392537117004,-0.22348549837867415,1.1968942681948345,0.43032850821812946,11.777269840240479,49.97302894592285,1.66346994638443,-2.1841995927194753,-4.466010351975759,0.37922004610300064,-245.64272384643556,144.5962272644043,-131.21892585754395,-3.6855504512786865,2.409614086151123,4.334675242503484,-1.5478571457788348,-1.0981560796499252,1.4359428385893505,-2.1832960322499275,-4.470426440238953,0.3768656797086199,3.5438119967778525,-9.098991870880125,0.7124105046192805
4.8,-0.8478568297189971,-3.8851712196289254,3.210046307183802,180.0,0.5548225164413452,4.270476531982422,13.486599922180176,3.500419759750366,18.587127685546875,43.400001525878906,-122.75240319999999,49.188110280000004,-0.16432482625047362,0.18438619251052535,-0.6573606332143148,0.7039555609226227,-0.13083243370056152,1.4031177759170532,-0.4154157194619377,8.879464888572693,50.15694408416748,-3.347374945878982,-0.44636433385312557,-2.0640372907121973,0.39746964598695433,-248.54052848815917,144.78014106750487,-136.22977237701417,-12.45711374282837,-19.08547706604004,3.8677019476890564,-0.8418747684918344,-3.9025192436141274,3.272857988874118,-0.4454544124503932,-2.0684470223883786,0.3950961901185413,0.5570255190134049,-9.661737632751464,-0.4477557301521301
4.9,-0.14187444746494296,-6.6895343709426625,5.0469613671302795,180.0,0.5347476541996001,4.2305408954620365,13.258699893951416,3.516957688331604,19.05588960647583,43.400001525878906,-122.75239694999999,49.18811841,-0.17642423665771878,0.12163911682243145,-0.6819305643439293,0.6867064138253529,-0.8657476082444191,1.3513095329205194,0.7704110367534063,5.981659936904907,50.34085922241211,-8.358219838142395,1.2914709250132244,0.33793577055136365,0.4157192458709081,-251.4383331298828,144.96405487060548,-141.24061889648436,-3.1886423230171204,-8.284050440788269,-1.3127680718898773,-0.135892391204834,-6.7068824075783295,5.109773139158885,1.2923872073491414,0.3335323954621951,0.4133267005284627,0.14781537142116574,-9.556977844238281,0.7256934811671575
5.0,-11.900225162506104,-28.747371673583984,3.419822084903717,180.0,0.5146727919578552,4.19060525894165,13.030799865722656,3.533495616912842,19.524651527404785,43.400001525878906,-122.75239069999999,49.18812654,-0.18852364706496394,0.058892041134337554,-0.7065004954735438,0.6694572667280833,-1.6006627827882767,1.2995012899239857,1.95623779296875,17.298379802703856,47.34087905883789,-7.620119833946228,-2.5235454082489013,3.869159293174744,-4.650089502334595,-240.12161407470703,141.96407623291014,-140.5025192260742,6.079829096794128,2.517376184463501,-6.493238091468811,-11.894242429733277,-28.76471939086914,3.4826337933540343,-2.522629165649414,3.8647611856460573,-4.6523802280426025,-0.2613947761710734,-9.452218055725098,1.8991426924864452
5.1,14.954344511032104,-12.935000816980997,-5.266203780968984,180.0,0.49459792971611016,4.1506696224212645,12.802899837493896,3.5500335454940797,19.99341344833374,43.400001525878906,-122.75238445,49.188134670000004,-0.14123289883136744,0.14635854866355658,-0.5712045907974244,0.7717056989669799,0.275636138021946,1.2274556636810303,0.14679354727268218,31.882259368896484,38.223818969726565,-17.724159526824952,-1.29200545946757,-0.44104475776354474,0.7089600364367167,-225.53773498535156,132.84701690673828,-150.60655670166017,3.868383447329203,-20.218900203704834,-0.352669636408488,14.960326512654623,-12.952349185943604,-5.203392167886098,-1.2910891969998677,-0.445447971423467,0.7065929571787516,2.1566804945468903,-9.212063471476236,-0.499848614136378
5.2,1.3535899817943573,-15.183057677621642,-2.3874387244383493,180.0,0.4745230674743652,4.110733985900879,12.574999809265137,3.5665714740753174,20.462175369262695,43.400001525878906,-122.7523782,49.1881428,-0.23443108548720673,0.47646182278792065,-0.5786154270172119,0.611057827870051,1.9557222326596577,1.2204521497090657,-0.8777735829353333,13.138789963722228,48.09605884552002,-10.917779797315598,1.930945021410783,3.900501767794291,1.2366330698132515,-244.28120498657228,142.71925659179686,-143.80018005371093,1.017935112118721,3.6317451000213623,4.347672502199809,1.359571894009908,-15.200406061795851,-2.3246271510918937,1.9318231816093128,3.8960986733436584,1.2342659297088783,-1.1602717290321987,-9.234881242116293,-2.908863663673401
5.3,0.6055586623648803,-10.393175142196316,-0.47437707583109523,180.0,0.4745230674743652,3.9568018913269043,12.24199981689453,3.577139663696289,20.870564270019532,43.400001525878906,-122.75237434,49.18814836,-0.16246563196182248,0.1583090256899595,-0.6422198017438253,0.7282818754514059,0.19454563657442728,1.4078610738118489,0.2653245298812787,16.253754818439482,48.157059001922605,-6.991819855570793,0.11232284021874261,-0.45556553204854344,0.5914766577382883,-241.1662395477295,142.780256652832,-139.87421875,-0.01911040544509888,11.07941551208496,1.5660661339759827,0.6115406602621078,-10.410523402659845,-0.41156548758347844,0.11322007079919172,-0.4599560797214508,0.5890968174984058,1.2102739095687867,-9.685200691223145,-0.16937101483345032
5.4,-0.14247265706459677,-5.603292606770992,1.4386845727761586,180.0,0.4745230674743652,3.8028697967529297,11.908999824523926,3.587707853317261,21.27895317077637,43.400001525878906,-122.75237048,49.18815392,-0.17013125324791123,0.1357278688387437,-0.6434601834326079,0.7297093479922323,-0.13040300842487454,1.4017078135952805,0.2830058202203928,19.36871967315674,48.2180591583252,-3.0658599138259888,-1.7062993409732978,-4.8116328318913775,-0.05367975433667501,-238.05127410888673,142.84125671386718,-135.94825744628906,-3.6272532363732655,2.5932782053947445,1.4773941005269686,-0.13649057348569238,-5.620640743523836,1.501496175924937,-1.705383040010929,-4.81601083278656,-0.056072294712066616,1.2489484327534834,-9.65576708316803,0.2617687689761321
5.5,1.1910274893045425,1.3940585017204286,1.396570909023285,180.0,0.4745230674743652,3.648937702178955,11.57599983215332,3.5982760429382323,21.6873420715332,43.400001525878906,-122.75236662,49.18815948,-0.177796874534,0.11314671198752789,-0.6447005651213906,0.7311368205330588,-0.45535165342417633,1.3955545533787121,0.30068711055950686,15.92221965789795,48.796338653564455,-7.327319884300232,-3.3657147884368896,-4.0146979808807375,0.8368548393249512,-241.49777526855468,143.4195358276367,-140.2097183227539,-7.235396067301433,-5.892859101295472,1.3887220670779545,1.1970095098018647,1.3767105042934418,1.4593825221061707,-3.3648595809936523,-4.019096326828003,0.8344419240951538,1.2876229559381802,-9.626333475112915,0.6929085527857145
5.6,-2.686441878477732,-4.309074744582176,2.4276182949543,180.0,0.4745230674743652,3.4950056076049805,11.242999839782716,3.6088442325592043,22.09573097229004,43.400001525878906,-122.75236276,49.18816504,-0.1215342699239651,0.07891343658169106,-0.7946031292279562,0.5805652737617493,-2.771421035130819,1.259074608484904,2.012529412905375,14.044639682769775,47.88255920410156,-14.07879991531372,0.4182899302492539,0.7043785415589809,0.5853361648817857,-243.37535400390624,142.50575561523436,-146.96119384765626,22.487215518951416,-2.7150623003641763,-2.7497854232788086,-2.6804598942399025,-4.326422820488612,2.490429845949014,0.4191553791364034,0.6999752136568228,0.5829945181806883,-2.9018262227376304,-9.26036008199056,1.0139167805512745
5.7,5.187938650449117,-19.352601130803425,-0.00029907623926798504,180.0,0.4745230674743652,3.341073513031006,10.90999984741211,3.619412422180176,22.504119873046875,43.400001525878906,-122.7523589,49.1881706,-0.0745082351689537,0.00360569321007155,-0.7438479959964752,0.6614656547705332,-2.1384273767471313,1.402958333492279,2.2496818900108337,25.199099493026733,43.43443927764893,-9.716689896583556,-1.0070113440354664,-0.8829929704467455,-2.055637846390406,-232.22089462280275,138.05763778686523,-142.59908752441407,-3.3514746189117433,8.47961778640747,-2.660970997810364,5.193920572598775,-19.369949181874592,0.06251247723897298,-1.0060950467983882,-0.8874090462923049,-2.0580177704493203,-1.026656511425972,-9.659123039245605,1.109947884082794
5.8,0.4048357049624123,-10.266131351391474,-0.7757231791814168,144.0,0.3796184539794921,3.341073513031006,10.917799949645996,3.7528007507324217,26.058201599121094,43.400001525878906,-122.75235404,49.18817394,-0.09318430100878076,0.14464354095980528,-0.5889054238796234,0.7557262976964315,0.3095909307400386,1.2776883443196614,0.04530631906042496,26.893679690361022,43.70588903427124,-8.487234890460968,-0.1878410578394929,-1.2650955585141976,0.8113588760296504,-230.52631492614745,138.32908821105957,-141.3696319580078,5.245606740315755,-16.551974534988403,0.5693113009134931,0.41081774632136003,-10.28347934881846,-0.7129116078217823,-0.18694003013273086,-1.26951797157526,0.8089929858843488,1.8937145272890727,-9.406006813049316,-0.5916197650755445
5.9,-4.378267240524292,-1.1796615719795227,-1.5511472821235657,108.0,0.2847138404846191,3.341073513031006,10.925600051879883,3.886189079284668,29.612283325195314,43.400001525878906,-122.75234918,49.18817728,-0.11314794212353949,0.2106369590937075,-0.5891205627809871,0.7381897342927528,0.631001746169094,1.2679356679771885,-0.14864315853143734,28.588259887695312,43.977338790893555,-7.257779884338379,0.6313292283564806,-1.6471981465816499,3.678355598449707,-228.83173522949218,138.6005386352539,-140.14017639160156,0.8949558734893799,-5.536273896694183,1.3370775083700817,-4.372285079956055,-1.197009515762329,-1.4883356928825378,0.6322149865329265,-1.6516268968582153,3.6760037422180174,1.3940393787343055,-9.343835870424908,-1.3804976786486804
6.0,7.1391855875651045,-25.958137313524883,-0.022432764371236164,72.0,0.1898092269897461,3.341073513031006,10.933400154113771,4.019577407836914,33.16636505126953,43.400001525878906,-122.75234432,49.188180620000004,-0.1331115832382982,0.27663037722760975,-0.5893357016823508,0.7206531708890741,0.9524125615981492,1.2581829916347156,-0.3425926361232996,9.85393979549408,50.30425910949707,-1.0125999748706818,2.0207931560774646,10.1193900903066,2.218204438686371,-247.56605682373046,144.92745971679688,-133.8949981689453,-3.4556949933369956,5.479426741600037,2.10484371582667,7.145167460044225,-25.975485861301422,0.040378967920939125,2.0216839549442134,10.115037560462952,2.215786417325338,0.8943642301795384,-9.281664927800497,-2.1693755922218165
6.1,-4.641278404742479,-7.791030605634053,-2.5789643923441568,36.0,0.09490461349487306,3.341073513031006,10.941200256347658,4.15296573638916,36.72044677734375,43.400001525878906,-122.75233946,49.18818396,-0.13007241114974016,0.06247718756397561,-0.5803903738657633,0.8001063565413157,-0.17427101420859492,1.2401158412297566,0.4516491542259852,14.008039855957032,49.6234992980957,4.371259927749634,-0.8254062334696451,-4.381634513537089,-0.5035820603370667,-243.41195678710938,144.24669647216797,-128.51113739013672,-4.737727403640747,6.1589391231536865,3.36722069978714,-4.635296240448952,-7.808378616968791,-2.5161526997884116,-0.8245153427124023,-4.386012315750122,-0.5060000419616699,3.214333256085714,-9.228175640106201,0.36520829051733017
6.2,-1.0025926878054936,-1.4415759903689225,3.090978523095449,0.0,0.0,3.341073513031006,10.949000358581545,4.286354064941406,40.27452850341797,43.400001525878906,-122.7523346,49.1881873,-0.1762046838800112,0.2373311842481295,-0.6338622371355692,0.7072927753130595,0.5036317855119705,1.3674381573994954,-0.953180397550265,7.917189812660217,50.72881851196289,-4.137019902467728,-0.79252128303051,-0.6907613215347131,0.588810468558222,-249.5028045654297,145.35201873779297,-137.01941680908203,-10.140729570388794,-16.245475864410402,6.806374549865723,-0.9966106427212557,-1.4589238992581766,3.15379007657369,-0.7916049808263779,-0.6951774023473263,0.5864688085857779,0.7462851941585541,-9.593740844726563,-1.1356196641921996
6.3,-5.198586699614921,-13.640474455679458,4.3808046321074166,0.0,0.0,3.3285906655447826,11.148428916931154,4.261523587363107,40.26337650844029,43.400001525878906,-122.75233175714285,49.188190000000006,-0.23864361395438513,0.13122127577662465,-0.7734164098898569,0.5648085673650106,-2.435504734516144,1.229446570078532,1.92763884862264,10.397754764556884,50.14931869506836,-3.8503198817372324,-1.2110479697585106,1.701247003798683,-2.048201882420108,-247.02224044799806,144.77251739501952,-136.73271636962892,18.27769096692403,-8.675367832183838,-4.996252005298932,-5.192604583377639,-13.65782284097125,4.44361621538798,-1.2101469501852988,1.6968245912343263,-2.0505638516275213,-2.3244071006774902,-9.237345854441324,1.894879122575124
6.4,-9.39458071142435,-25.83937292098999,5.670630741119385,0.0,0.0,3.316107818058559,11.347857475280763,4.236693109784808,40.252224513462615,43.400001525878906,-122.75232891428571,49.1881927,-0.23794256297476363,0.10236118627786212,-0.7173137416442235,0.6317306422826016,-1.7258631465109913,1.2626404093973564,1.6965783016022407,12.878319716453552,49.56981887817383,-3.5636198610067367,-1.6295746564865112,4.09325532913208,-4.685214233398438,-244.54167633056642,144.1930160522461,-136.44601593017578,7.971496969461441,-4.996133625507355,-5.147566882272561,-9.388598524034023,-25.856721782684325,5.73344235420227,-1.62868891954422,4.088826584815979,-4.6875965118408205,-0.6858641511450212,-9.327271143595377,1.9791202762474618
6.5,15.953147888183596,-17.912869453430176,-3.1014968579014144,0.0,0.0,3.3036249705723355,11.547286033630373,4.2118626322065085,40.241072518484934,43.400001525878906,-122.75232607142857,49.188195400000005,-0.23724151199514212,0.07350109677909956,-0.6612110733985901,0.6986527172001925,-1.0162215585058385,1.295834248716181,1.4655177545818416,30.44021987915039,39.287659072875975,-17.571659755706786,-3.0003155867258706,0.4852816164493561,-1.5710181792577107,-226.97977600097656,133.91085510253907,-150.4540573120117,-2.3346970280011496,-1.3168994188308714,-5.29888175924619,15.95912965138753,-17.9302175839742,-3.0386854112148285,-2.9994246562321982,0.48090365529060364,-1.5734361410140993,0.952678798387448,-9.41719643274943,2.0633614299197993
6.6,-6.439484467109044,-0.9307082295417786,-3.603391488393148,0.0,0.0,3.2911421230861118,11.74671459197998,4.187032154628208,40.22992052350725,43.400001525878906,-122.75232322857143,49.1881981,-0.2824828252196312,0.48257506887118023,-0.5826036930084229,0.5811242659886678,2.101920704046885,1.2759634653727214,-0.938238799571991,15.709939765930176,43.98221893310547,-23.067759895324706,1.1070914665857952,-2.8468865950902305,3.865046262741089,-241.7100570678711,138.60541839599608,-155.95015716552734,1.5013505220413201,-8.366915321350097,4.65683114528656,-6.433502535025279,-0.9480562905470529,-3.540579915046692,1.1079822828372319,-2.8513152798016868,3.862704555193583,-1.7059206746518611,-9.3376615524292,-2.2757286071777343
6.7,1.9115933504971592,-19.250040726228193,-0.482044978575273,0.0,0.0,3.2786592755998885,11.94614315032959,4.162201677049909,40.21876852852957,43.400001525878906,-122.75232038571428,49.188200800000004,-0.2371336047848065,0.26476142555475235,-0.6434512635072073,0.6726593176523844,0.6377833237250646,1.4556052287419636,0.09112901985645287,13.857979726791381,48.801828956604005,-9.419009804725647,2.206139886921102,4.527788598429073,-0.9744828113100745,-243.56201629638673,143.42502517700194,-142.30140762329103,2.0953655739625296,10.18561045328776,2.9815995395183563,1.9175754568793557,-19.267388820648193,-0.41923336549238727,2.207028304311362,4.5233738124370575,-0.9768290465528314,0.045848116278648376,-9.712971369425455,-0.7116836433609327
6.8,2.0263355834917585,-9.388778985223986,0.8938733420588754,0.0,0.0,3.2661764281136647,12.1455717086792,4.13737119947161,40.2076165335519,43.400001525878906,-122.75231754285714,49.1882035,-0.2601272587974866,0.12609002615014706,-0.6635250747203827,0.6897894342740377,-1.0969805320103962,1.3771804769833882,1.6529624660809834,14.313039755821228,49.099814128875735,-8.56226476430893,-0.44263547433145156,-0.3574048185890373,0.40855431714744284,-243.1069564819336,143.7230113983154,-141.4446620941162,-3.0252408385276794,8.406957149505615,-0.9769071141878763,2.032317617625901,-9.406127005815506,0.9566849551417611,-0.4417331046001478,-0.3618266334136333,0.4061848945689924,0.8761236369609833,-9.623750368754068,1.6696537534395854
6.9,2.141077816486358,0.47248275578022003,2.2697916626930237,0.0,0.0,3.2536935806274414,12.345000267028809,4.1125407218933105,40.19646453857422,43.400001525878906,-122.7523147,49.1882062,-0.22640914633644346,0.12280541304216687,-0.6958165669983083,0.6612588131066525,-1.388286275394035,1.356907117547411,1.8909863793488704,14.768099784851074,49.39779930114746,-7.705519723892212,-3.091410835584005,-5.242598235607147,1.7915914456049602,-242.65189666748046,144.0209976196289,-140.5879165649414,2.7350758860508604,-0.35014681021372596,-0.026512335985899083,2.1470597783724465,0.4551348090171814,2.3326032757759094,-3.0904945135116577,-5.247027079264323,1.7891988356908162,-0.07878215455760562,-9.526670257250467,1.441667021562656
7.0,-2.1492532392342887,-1.2169497112433116,0.6926224629084269,0.0,0.0,3.301322507858276,12.48960018157959,4.0832273960113525,39.61135406494141,43.400001525878906,-122.75231498,49.1882073,-0.19269103387540032,0.11952079993418668,-0.728108059276234,0.6327281919392672,-1.6795920187776738,1.3366337581114336,2.1290102926167576,12.309799671173096,47.65807914733887,-16.55173988342285,-0.7474190791447958,-0.913218080997467,0.4881576895713806,-245.11019439697264,142.28127899169922,-149.43413848876952,8.4953926106294,-9.107250769933065,0.9238824422160783,-2.143271178007126,-1.2342977225780487,0.7554340610901514,-0.7465282479921976,-0.9176468700170517,0.48576513926188153,-1.0336879460761945,-9.429590145746866,1.2136802896857262
7.1,-6.184848308563232,-27.301907459894817,2.780160834391912,0.0,0.0,3.3489514350891114,12.634200096130371,4.0539140701293945,39.0262435913086,43.400001525878906,-122.75231526,49.1882084,-0.13703794404864308,0.0395434697469075,-0.7721519271532694,0.6164044141769409,-2.3684410452842712,1.3029547333717346,2.621363878250122,12.2548996925354,48.819518661499025,-11.957219791412353,0.5873978137969971,0.4584289143482844,-0.9313913683096567,-245.16509399414062,143.44271697998047,-144.83961486816406,-6.112705516815185,4.56777400970459,-3.190089797973633,-6.178866187731425,-27.319254875183105,2.8429723580678306,0.5883140961329142,0.4540001551310222,-0.9337329914172491,-1.9070624351501464,-9.429713439941406,1.6992461681365967
7.2,7.868035598234697,-7.540273623033003,0.13758726959878767,0.0,0.0,3.396580362319946,12.778800010681154,4.0246007442474365,38.44113311767578,43.400001525878906,-122.75231554,49.1882095,-0.08733390892545378,0.03395465086214245,-0.6323176026344299,0.7573836942513784,-0.49116957063476246,1.3474944829940796,0.6663040556013585,29.322699546813965,41.07678928375244,-12.262829804420472,-0.8607507740909403,-1.673368212851611,0.08670123056931929,-228.09729614257813,135.69998626708986,-145.1452278137207,3.8695332407951355,-12.0370880762736,-1.021048863728841,7.8740175637331875,-7.55762155489488,0.20039889715950598,-0.8598761463707144,-1.677783120762218,0.08432716673070734,1.4933174202839534,-9.561469078063965,0.8605549335479736
7.3,6.615374895998023,-14.56949376382611,-0.011515438330895716,0.0,0.0,3.4442092895507814,12.923399925231935,3.995287418365479,37.85602264404297,43.400001525878906,-122.75231582,49.1882106,-0.2567882508039474,0.49093190431594846,-0.5640288233757019,0.6096915364265442,1.9273648262023926,1.2269476890563964,-0.7927961826324463,19.763389694690705,45.162264347076416,-8.968524861335755,0.032049608332189616,0.8588487519459291,1.7221482477404855,-237.6566047668457,139.78546295166018,-141.850923538208,-3.7159897287686667,-3.250041405359904,3.0886183977127075,6.6213570496801175,-14.5868419092713,0.051296162122691225,0.032983250069347325,0.8544269158984672,1.7198031373096234,-0.8646341661612192,-9.26506233215332,-2.9143168528874717
7.4,5.362714193761349,-21.598713904619217,-0.16061814626057913,0.0,0.0,3.491838216781616,13.067999839782717,3.965974092483521,37.27091217041016,43.400001525878906,-122.7523161,49.1882117,-0.19903055398414526,0.31727372778501983,-0.6036441867550214,0.6661120012402535,1.0066586720446744,1.302530375123024,-0.23331632365783062,10.204079842567443,49.24773941040039,-5.674219918251038,0.9248499907553196,3.3910657167434692,3.3575952649116516,-247.21591339111328,143.87093963623047,-138.5566192626953,-2.5589661871393523,3.2946729660034175,2.526424065232277,5.3686965356270475,-21.616062263647716,-0.09780657291412354,0.925842646509409,3.3866369525591526,3.35527910788854,0.014684249336520794,-9.446463584899902,-1.441105059037606
7.5,-4.58075982828935,-12.515260100364685,0.1741776466369632,0.0,0.0,3.491838216781616,13.229999923706057,3.7798257350921634,31.13145418167115,43.400001525878906,-122.75232438,49.18821542,-0.14127285716434315,0.14361555125409117,-0.6432595501343409,0.7225324660539627,0.08595251788695651,1.3781130611896515,0.32616353531678516,14.976719665527344,48.926879501342775,1.73117995262146,1.064458151658376,4.195498983065288,-2.2213351279497147,-242.44327545166016,143.55007781982422,-131.1512191772461,-1.4019426455100377,9.83938733736674,1.9642297327518463,-4.57477780431509,-12.532608270645142,0.23698912064234445,1.0654253164927165,4.1910702387491865,-2.2236258760094643,0.8940026648342609,-9.627864837646484,0.032106734812259695
7.6,-0.5897310872872671,1.1112667520840962,2.0510477821032205,0.0,0.0,3.491838216781616,13.392000007629395,3.5936773777008058,24.991996192932135,43.400001525878906,-122.75233266000001,49.18821914,-0.10487211992343264,0.03923982697112175,-0.6739510695139567,0.7256736755371094,-0.8683815995852152,1.4466983675956726,1.073406810561816,11.382600021362304,50.05537910461426,-0.14274001717567444,-2.7663541634877524,-5.759568452835083,0.6966918123265108,-246.03739318847656,144.67857818603517,-133.02513732910157,-4.501094043254852,-14.023062419891357,4.329573011398315,-0.5837490459283193,1.0939187457164128,2.113859395186106,-2.765361507733663,-5.763997157414754,0.6943501730759939,0.8215474009513855,-9.715375518798828,0.8678815513849258
7.7,-1.9051762196150692,-11.165834926746108,3.4213556809858843,0.0,0.0,3.491838216781616,13.554000091552735,3.4075290203094486,18.852538204193117,43.400001525878906,-122.75234094,49.188222859999996,-0.1883814285198847,0.1127671214441458,-0.7848649024963379,0.57453520099322,-2.559485991795858,1.252111832300822,2.994848370552063,13.512109804153443,49.325208473205564,-7.502999806404114,0.1213816919110038,0.4105847315354781,-0.45635799250819464,-243.9078842163086,143.94840927124022,-140.3853988647461,18.973997155825298,-7.45105504989624,-6.433555821577708,-1.8991942459886724,-11.183182752945207,3.484167304905978,0.122367417270487,0.4061560183763504,-0.4586487344720147,-2.360094686349233,-9.282694657643637,1.469170977671941
7.8,7.354294947150982,-13.949870478700507,-0.7715765454552392,0.0,0.0,3.491838216781616,13.716000175476074,3.221380662918091,12.713080215454102,43.400001525878906,-122.75234922,49.18822658,-0.18004032671451564,0.05116007328033444,-0.7517414450645447,0.6290404677391053,-2.0820586681365967,1.3107321500778197,2.4142666339874266,20.917814564704898,45.49349355697632,-10.19309984445572,-1.2286929628162675,-0.15958509165229223,-2.138481873680245,-236.50217971801757,140.11669273376464,-143.07549591064452,-5.483007311820984,3.8773905436197915,-5.009790062904358,7.360277491085457,-13.96721857628136,-0.7087649766242867,-1.227703792127696,-0.1640138328075409,-2.1407726075161584,-1.4041976891458035,-9.413527806599935,2.0731231768925986
7.9,16.613766113917034,-16.733906030654907,-4.964508771896362,0.0,0.0,3.491838216781616,13.878000259399414,3.0352323055267334,6.573622226715088,43.400001525878906,-122.7523575,49.1882303,-0.17219844684004781,0.15935655837723361,-0.66435766518116,0.6609504461288452,-0.7231245189905167,1.276387380560239,1.2196766283363103,28.32351932525635,41.66177864074707,-12.883199882507324,-2.5787676175435386,-0.7297549148400625,-3.820605754852295,-229.09647521972656,136.28497619628905,-145.76559295654297,-2.5085820338942786,-2.0121492544809976,-3.91264671087265,16.619749228159588,-16.751254399617512,-4.9016972581545515,-2.577775001525879,-0.7341836839914322,-3.8228964805603027,-0.44194934127682983,-9.319454048619125,0.31916810769700654
8.0,-6.887341221173604,-5.536293665568034,-2.936790943145752,0.0,0.0,3.439327764511108,13.915800285339355,3.0043187618255613,6.080722904205322,43.400001525878906,-122.7523591,49.188230680000004,-0.16435656696557996,0.26755304347413283,-0.5769738852977753,0.6928604245185852,0.6358096301555634,1.2420426110426586,0.025086622685194016,25.440659523010254,43.14529991149902,-14.552159786224365,0.9063967615365982,-1.2491430938243866,4.393521070480347,-231.97933654785157,137.76849670410155,-147.43455963134767,0.46584324403242633,-7.901689052581787,-2.8155033588409424,-6.8813590208689375,-5.553641726573308,-2.8739794294039407,0.9073385149240494,-1.2535718580087025,4.391230305035909,0.5202990065921437,-9.225380290638316,-1.4347869614985855
8.1,4.554339031378428,-16.25693674882253,-1.7544374863306682,0.0,0.0,3.3868173122406007,13.953600311279295,2.9734052181243897,5.587823581695557,43.400001525878906,-122.7523607,49.18823106,-0.17994312196969983,0.26511076837778086,-0.641641636689504,0.6863068342208862,0.7374587145944437,1.4019625186920166,-0.08951879044373827,6.858839845657348,50.02243843078613,-6.35131983757019,1.6762906218258042,5.7092485427856445,2.5030711591243744,-250.5611587524414,144.64563903808593,-139.2337158203125,1.0244163970152538,8.421952962875366,4.338638703028361,4.5603212515513105,-16.274284680684406,-1.6916259129842122,1.6772578405216336,5.704819738864899,2.500754992167155,-0.04063093413909279,-9.560381253560385,-1.6119928807020187
8.2,-0.9616427902470935,-8.880852552977474,-1.806254879994826,0.0,0.0,3.3343068599700927,13.991400337219238,2.9424916744232177,5.094924259185791,43.400001525878906,-122.7523623,49.18823144,-0.2349111944437027,0.054796083271503405,-0.712457275390625,0.6582747340202332,-1.6549707412719727,1.303859496116638,2.0715195178985595,12.833179686963557,49.5746992111206,2.6199499904178083,-1.9300842718644575,-1.1729999238794497,-1.1566178311001172,-244.5868148803711,144.1978973388672,-130.26244735717773,-2.0456397334734597,8.526633183161417,-1.1489852666854858,-0.9556607692079111,-8.898200186816128,-1.7434432235631077,-1.9291402101516724,-1.1774287548932163,-1.1589224555275657,-0.23538182303309438,-9.443725426991781,2.5494092106819153
8.3,-1.621400181655631,-4.899050610873735,-0.20297757107200054,0.0,0.0,3.281796407699585,14.029200363159179,2.911578130722046,4.602024936676026,43.400001525878906,-122.75236389999999,49.18823182,-0.20122617483139035,0.0701355154936512,-0.6915035744508108,0.6889687776565552,-1.3251236081123352,1.3819605708122253,1.713269571463267,14.908399879187344,47.74835901260376,-7.500864753173664,-2.129911230820598,-0.7852602404626932,-0.6057087696637169,-242.51159439086913,142.3715576171875,-140.38326148986818,-6.383072078227997,-9.903148969014486,0.5322069327036539,-1.615418145489512,-4.91639842600985,-0.14016594624880607,-2.1289428770542145,-0.7896890403900408,-0.6080191765319217,0.2775221262127161,-9.631100177764893,1.7089950541655223
8.4,-2.2811575730641684,-0.9172486687699953,1.400299737850825,0.0,0.0,3.229285955429077,14.06700038909912,2.880664587020874,4.10912561416626,43.400001525878906,-122.7523655,49.1882322,-0.18868794742350775,0.06548204327312607,-0.7394040748476982,0.630927645911773,-1.8345638662576675,1.2947944800059,2.200268864631653,16.98362007141113,45.92201881408691,-17.621679496765136,-2.3297381897767386,-0.3975205570459366,-0.054799708227316536,-240.43637390136718,140.54521789550782,-150.5040756225586,2.416500229727138,-6.212103352402196,-0.182222118883422,-2.275175521771113,-0.9345966652035713,1.4631113310654957,-2.3287455439567566,-0.40194932588686544,-0.05711589753627785,-1.2550383249975063,-9.321645368229259,1.8698754820859795
8.5,-6.105685830116272,-19.534406105677288,2.241077810525894,0.0,0.0,3.229285955429077,14.210400390624999,2.829816436767578,3.7630216121673583,43.400001525878906,-122.75236776,49.18823544,-0.17614972001562512,0.06082857105260092,-0.7873045752445856,0.5728865141669909,-2.344004124403,1.2076283891995747,2.687268157800039,13.332159900665284,48.08751907348633,-13.626179885864257,1.7796031832695007,0.9381617399825094,0.44086653490861255,-244.08783416748048,142.7107162475586,-146.50857696533203,11.216072537682273,-2.5210577357899058,-0.8966511704704978,-6.09970376888911,-19.551753838857014,2.30388938387235,1.7805194854736328,0.9337329908739775,0.4385758067170779,-2.787598776207729,-9.012190558693625,2.0307559100064365
8.6,8.271091024080912,-14.708880186080933,3.1434709131717686,0.0,0.0,3.229285955429077,14.353800392150879,2.7789682865142824,3.416917610168457,43.400001525878906,-122.75237002,49.18823868,-0.09440291797121363,0.0109510839295884,-0.7005009551843008,0.7020446062088013,-1.4124747514724731,1.401336093743642,1.5625584125518799,20.818079566955568,43.63939933776855,-18.12797966003418,-2.2677608728408813,-4.217566302667062,-4.563570618629456,-236.60191650390624,138.2625961303711,-151.0103790283203,2.9693127274513245,-5.6987870534261065,-1.588662068049113,8.27707290649414,-14.726227760314941,3.2062827199697495,-2.2666918436686196,-4.221995130181313,-4.565861344337463,-0.3028743759108086,-9.637554168701172,1.3441200852394104
8.7,5.371179992502386,-11.875741763548417,-0.7140944031151858,0.0,0.0,3.229285955429077,14.497200393676756,2.728120136260986,3.070813608169556,43.400001525878906,-122.75237227999999,49.18824192,-0.2757243037223816,0.3928604125976562,-0.5924580216407775,0.6421045184135437,1.5795175552368164,1.373822808265686,-0.5868022501468658,26.02625968456268,43.30877952575683,-9.329339790344239,0.2766386595639316,1.282955780625343,3.6036606918681753,-231.39373474121095,137.93197708129884,-142.21173706054688,-5.810703794161479,-6.414524078369141,2.6970198154449463,5.3771620121869175,-11.893089879642833,-0.65128277648579,0.2776521278375929,1.2785271094603974,3.6013560728593306,-0.05845501522223154,-9.62660312652588,-1.5056688686211903
8.8,-0.24905744465914648,-13.958512546438158,0.2385662761940196,0.0,0.0,3.229285955429077,14.640600395202636,2.6772719860076903,2.7247096061706544,43.400001525878906,-122.75237453999999,49.18824516,-0.19679730882247284,0.2632955585916837,-0.6197404265403748,0.7076360384623209,0.8267049963275591,1.397521197795868,-0.15902754664421082,17.810779774188994,46.835189437866205,-5.513179893791676,1.1458397546049321,3.91199945906798,1.0404631838654028,-239.60921401977538,141.45838661193847,-138.39557723999025,-1.047783836722374,9.075548648834229,2.577538013458252,-0.2430753545327624,-13.975860769098455,0.3013777949240509,1.146830066191879,3.9075706991733927,1.0381655015728692,0.7977701524893442,-9.688453356424967,-0.8915705426285664
8.9,-5.869294881820679,-16.0412833293279,1.191226955503225,0.0,0.0,3.229285955429077,14.784000396728516,2.6264238357543945,2.378605604171753,43.400001525878906,-122.7523768,49.1882484,-0.1832022902866204,0.15959874672989824,-0.6474037518103917,0.7103754455844561,-0.12632550174991286,1.3935720324516296,0.621172900001208,9.595299863815308,50.361599349975585,-1.697019997239113,2.0150408496459327,6.541043137510617,-1.5227343241373699,-247.82469329833984,144.98479614257812,-134.57941741943358,-2.49610391326926,4.128648172725331,2.837068024006757,-5.863312721252441,-16.058631658554077,1.2540383663338919,2.0160080045461655,6.536614288886388,-1.5250250697135925,0.7442904083114681,-9.66393805995132,0.3498834796870748
9.0,-0.2501496731614073,-0.6130610952774683,1.685843288898468,0.0,0.0,3.2085352738698325,14.910000324249268,2.629371444384257,2.3751420180002847,43.400001525878906,-122.75237718333332,49.18824958333333,-0.16960727175076798,0.05590193486811279,-0.6750670770804087,0.7131148527065913,-1.079355999827385,1.3896228671073914,1.4013733466466267,8.043459939956666,50.900839233398436,-1.337120021879673,-2.393420954545339,-4.82939875125885,0.4154647259662549,-249.37653503417968,145.52403564453124,-134.21951904296876,-3.9444239898161455,-0.8182523033835671,3.096598034555262,-0.24416761938482523,-0.6304090674966574,1.748654882113139,-2.392479181289673,-4.833827575047811,0.413148516168197,0.690810664133592,-9.639422763477672,1.591337502002716
9.1,-1.1955738306045531,-0.48658051788806916,2.1869202613830567,0.0,0.0,3.1877845923105874,15.03600025177002,2.6323190530141196,2.371678431828817,43.400001525878906,-122.75237756666667,49.18825076666666,-0.2272411316633224,0.058399027399718736,-0.7910940051078796,0.5603238403797149,-2.2721465110778807,1.160057246685028,2.687838315963745,9.430599689483643,49.9114185333252,-11.016599750518798,-1.3870917469263078,-2.6282477378845215,0.41034873127937316,-247.98939361572266,144.53461608886718,-143.8990005493164,18.577931483586628,-7.800090154012044,-5.50198479493459,-1.1895917773246765,-0.5039284318685532,2.2497318506240847,-1.386083760857582,-2.6326764583587647,0.40805797800421717,-2.7015175024668374,-8.86027971903483,2.936903198560079
9.2,5.453691276411216,-17.713866750399273,2.1033409337202706,0.0,0.0,3.1670339107513428,15.162000179290771,2.635266661643982,2.3682148456573486,43.400001525878906,-122.75237795,49.188251949999994,-0.2615780060489972,0.049289067275822114,-0.7714945276578268,0.5735483169555664,-2.0515275597572327,1.1506512761116028,2.5060416062672934,17.393539667129517,45.607869148254395,-14.303889560699464,-1.0861820330222447,0.6130923330783844,-2.6714028293887773,-240.0264549255371,140.2310676574707,-147.18628845214843,-5.674521605173747,4.191471974054973,-6.0540023644765215,5.4596730917692184,-17.73121492067973,2.1661525244514146,-1.0852020978927612,0.6086636036634445,-2.6737062906225524,-1.7626340687274933,-8.96210527420044,3.3971960147221885
9.3,-0.9918001530071097,-11.242328320940336,-0.27679477632045746,0.0,0.0,3.146283229192098,15.288000106811523,2.6382142702738443,2.3647512594858804,43.400001525878906,-122.75237833333333,49.18825313333333,-0.11606317882736522,0.0017885739604632152,-0.6938392221927643,0.7071265578269958,-1.1772373008231323,1.3897504409154255,1.3450512290000916,20.397179818153383,43.47256422042847,-18.108154630661012,0.32926274836063385,0.26834165056546533,0.5369442018369832,-237.02281532287597,138.09576148986815,-150.99055328369138,5.051722407341003,-9.668139298756918,-2.9016602834065757,-0.9858183041214943,-11.259676352143288,-0.2139831644793353,0.3302363033095994,0.2639128789305687,0.5346471083660922,0.22987189143896103,-9.65225076675415,1.3809464325507481
9.4,-7.437291582425435,-4.7707898914813995,-2.6569304863611856,0.0,0.0,3.125532547632853,15.414000034332275,2.641161878903707,2.3612876733144126,43.400001525878906,-122.75237871666667,49.188254316666665,-0.17261034622788426,0.1456684103856484,-0.6787320201595624,0.6676195710897446,-0.16331503726541996,1.3994506299495697,0.367542455593745,23.400819969177245,41.33725929260254,-21.912419700622557,1.7447075297435124,-0.07640903194745374,3.745291233062744,-234.01917572021483,135.96045532226563,-154.79481811523436,2.167484082958915,-3.701074499072451,-0.4156070152918496,-7.431309700012207,-4.788137783606847,-2.594118853410085,1.7456747045119603,-0.08083784580230713,3.7430005073547363,-0.4419823189012029,-9.651439515027132,0.48469714391412155
9.5,5.2814580996831255,-19.320547421773274,-1.5208382308483124,0.0,0.0,3.1047818660736084,15.539999961853027,2.6441094875335693,2.3578240871429443,43.400001525878906,-122.7523791,49.1882555,-0.2291575136284033,0.2895482468108336,-0.6636248181263605,0.6281125843524933,0.8506072262922922,1.4091508189837139,-0.6099663178126017,12.54769983291626,48.86465950012207,-10.158939838409424,2.565353997051716,2.9029081563154855,1.4557682573795319,-244.8722930908203,143.48785858154298,-143.0413375854492,-0.7167542414231736,2.265990300612016,2.070446252822876,5.287440339724223,-19.337894936402638,-1.458026538292567,2.5663466627399125,2.8984793027242026,1.453477531671524,-1.1138365292413668,-9.650628263300115,-0.41155214472250506
9.6,-3.2520851612091066,-17.05328788757324,0.6923632383346557,0.0,0.0,3.1047818660736084,15.607799911499024,2.6460501194000243,2.3516297817230223,43.400001525878906,-122.75237916,49.18825732,-0.0966321527957916,-0.09677016846835608,-0.7195626735687256,0.6791107296943665,-1.7726013898849486,1.2901450872421265,1.7721992969512939,15.169479846954346,49.229439163208006,-2.6461799502372743,0.2784018337726593,5.535507917404175,-2.3729671001434327,-242.25051574707032,143.85263671875,-135.52857971191406,0.7298425287008286,8.703464190165201,-1.6026930212974548,-3.2461031675338745,-17.070636081695557,0.7551748514175415,0.27947084307670594,5.5310791492462155,-2.3752578258514405,-0.761112297574679,-9.4068972269694,2.6330270965894065
9.7,-0.3388336634573837,-0.015653034672141075,1.7471593618392944,0.0,0.0,3.1047818660736084,15.67559986114502,2.6479907512664793,2.3454354763031007,43.400001525878906,-122.75237922,49.18825914,-0.060316380734244925,-0.07008310376356043,-0.7398341794808706,0.6632524927457174,-2.1870312889417014,1.3507920503616333,2.172791043917338,15.483629608154297,48.6609188079834,-9.733159792423248,-2.1991530309120813,-5.4824011127154035,0.9168705654640993,-241.9363639831543,143.28411788940429,-142.61555862426758,-8.01789140701294,-14.297496636708578,0.41632018486658734,-0.33285159346026677,-0.0330010112375021,1.809970922768116,-2.198173150420189,-5.486829857031505,0.9145543736716112,-1.3153769373893738,-9.550513267517088,1.6629674633344014
9.8,-4.836118834015602,-11.931909909161428,1.913161426782608,0.0,0.0,3.1047818660736084,15.743399810791015,2.6499313831329347,2.3392411708831786,43.400001525878906,-122.75237928,49.188260959999994,-0.11001758712033427,0.04835124461290735,-0.8135323822498322,0.5541372448205948,-1.6925339698791504,1.1839501559734344,2.967384179433187,17.52438440322876,48.08812923431397,-9.060939890146255,0.14158712575832988,-1.0395208795865374,0.13453672205408418,-239.895609664917,142.71132774353026,-141.94333763122557,21.20241680145264,-3.6837188720703127,-1.8934194564819335,-4.830136867744537,-11.949257942847908,1.9759729939202468,0.14256063352028558,-1.0439496636390686,0.13223323722680413,-3.4860604763031007,-8.891962814331055,1.4103130672127009
9.9,-9.333404004573822,-23.848166783650715,2.0791634917259216,0.0,0.0,3.1047818660736084,15.811199760437011,2.6518720149993897,2.333046865463257,43.400001525878906,-122.75237933999999,49.188262779999995,-0.06363116195037338,0.04097594282696565,-0.7722119763493538,0.6073101138075192,-1.0974653710921605,1.263791193564733,1.7717846656839054,19.56513919830322,47.51533966064453,-8.388719987869262,2.4823272824287415,3.403359353542328,-0.6477971213559309,-237.8548553466797,142.13853759765624,-141.2711166381836,13.329671851793925,-5.2988279620806376,-1.0590966577331224,-9.327422142028809,-23.865514874458313,2.1419750650723777,2.4832944174607596,3.398930529753367,-0.6500878992180029,-2.4703531338522833,-9.144696180025736,0.6488616999859611
10.0,17.716219758987428,-12.575838565826416,-0.4832304954528809,0.0,0.0,3.1047818660736084,15.878999710083008,2.6538126468658447,2.326852560043335,43.400001525878906,-122.7523794,49.1882646,-0.0172447367804125,0.033600641041023956,-0.7308915704488754,0.6604829827944437,-0.5023967723051707,1.3436322311560314,0.5761851519346237,28.8139591217041,41.95335922241211,-8.958459877967835,-1.8577023133635522,-4.29548225402832,-5.154358673095703,-228.6060348510742,136.57655639648436,-141.84085845947266,5.456926902135213,-6.913937052090962,-0.22477385898431157,17.722201871871945,-12.593186187744141,-0.42041897773742676,-1.8567248806357384,-4.299911069869995,-5.156679916381836,-1.4546457914014657,-9.397429545720419,-0.11258966724077862
10.1,-0.6341976324717202,-5.5178490082422895,-1.964706798394521,0.0,0.0,3.102382469177246,16.13419990539551,2.6588974952697755,2.2826316356658936,43.400001525878906,-122.75238084,49.18827126,-0.07551980465650551,0.2898777186870575,-0.618588650226593,0.7226049304008484,1.3858230352401733,1.2316100358963014,-0.8539137721061707,30.46339931488037,42.75733871459961,-1.3566399440169334,0.33477960030237836,1.3579025268554688,4.505156675974528,-226.95659484863282,137.3805389404297,-134.2390365600586,-6.6939133405685425,3.5808115800221763,2.1091871658960977,-0.6282157897949219,-5.535196979840596,-1.9018951555093129,0.33579772710800165,1.3534737924734752,4.5028659502665205,0.44080602191388607,-9.334994792938232,-2.9393723805745444
10.2,1.1926227832833927,-16.429768294095993,0.22971095579365905,0.0,0.0,3.099983072280884,16.38940010070801,2.6639823436737062,2.238410711288452,43.400001525878906,-122.75238227999999,49.18827792,-0.02372831928854183,0.0925554207836588,-0.670865794022878,0.7329938809076945,0.6576216866572698,1.4273480574289958,-0.4921340321501096,8.54914984703064,49.90531921386719,7.442609858512879,0.89486667746678,1.3512592713038127,1.1029171844323475,-248.8708465576172,144.5285186767578,-125.43978767395019,-2.312542532881101,10.355374336242676,2.07012144724528,1.1986047091583412,-16.44711647431056,0.29252256235728663,0.8958466340166827,1.3468304673830669,1.1006009733925264,0.46531978249549866,-9.73039197921753,-0.6771750872333845
10.3,-0.3273679936925571,-7.902471244956056,0.811266566005846,0.0,0.0,3.0975836753845214,16.644600296020506,2.6690671920776365,2.1941897869110107,43.400001525878906,-122.75238372,49.18828458,-0.04946050234138962,-0.039104843822618286,-0.6690476934115092,0.7402942876021067,-0.8945356806119283,1.4093761841456096,0.9092268645763397,8.597644877433776,50.30486907958984,6.050894856639207,-0.9982047019681584,-0.4331926107406614,0.22787818064292265,-248.82235107421877,144.9280662536621,-126.83150272369386,-0.29526915550231936,8.389793586730956,0.39207969903945916,-0.321386007592082,-7.919819305961331,0.8740781708620489,-0.9972565825252483,-0.43762138485908486,0.22557469860961044,0.7434612035751342,-9.68642749786377,1.328364360332489
10.4,-1.8473587706685066,0.6248258041838805,1.3928221762180328,0.0,0.0,3.0951842784881594,16.899800491333007,2.6741520404815673,2.1499688625335693,43.400001525878906,-122.75238515999999,49.18829124,-0.1259330669417977,-0.0008243352710974941,-0.7106287000757274,0.6755228579947443,-1.3497790332996484,1.3159153416301266,1.5321587310595945,8.646139907836915,50.7044189453125,4.659179854765535,-2.8912760814030967,-2.2176444927851358,-0.6471608231465021,-248.77385559082032,145.3276138305664,-128.2232177734375,3.0033588017026585,-1.0739468971888222,-0.6338080525398254,-1.8413767243425052,0.6074778623878956,1.455633779366811,-2.890359799067179,-2.222073237101237,-0.6494515761733055,-0.375978376964728,-9.341893446445464,2.067671670516332
10.5,0.4480560392141342,-1.2967902287840842,1.7203198432922364,0.0,0.0,3.092784881591797,17.155000686645508,2.679236888885498,2.105747938156128,43.400001525878906,-122.7523866,49.1882979,-0.20240563154220578,0.037456173280423305,-0.7522097067399458,0.6107514283873818,-1.8050223859873684,1.2224544991146435,2.1550905975428494,6.894219923019409,50.92157897949219,-5.021519875526428,-0.6767165385186672,-0.07987063527107238,0.8980329871177674,-250.5257766723633,145.5447784423828,-137.90391387939454,6.301986758907636,-10.537687381108602,-1.65969580411911,0.45403808951377866,-1.3141382202506064,1.7831314563751222,-0.6756780575960875,-0.08429939746856685,0.8957116961479187,-1.4954179575045903,-8.99735939502716,2.806978980700175
10.6,-3.71405953168869,-27.824938615163166,7.485347549120585,0.0,0.0,3.092784881591797,17.467800521850585,2.680056095123291,2.0604312658309936,43.400001525878906,-122.75238762,49.18829996,-0.35862890382607776,0.025740552364974665,-0.7104852596918741,0.6021802028020223,-1.5936683813730876,1.063219964504242,2.1635319193204245,10.817739772796632,49.78087959289551,-8.708359813690185,-1.4635822375615437,4.0222930908203125,-3.4839171431958675,-246.60225524902344,144.4040771484375,-141.59075622558595,-4.1340353066722555,6.423901319503784,-9.916152477264404,-3.7080775424838066,-27.842286109924316,7.548159162203471,-1.4625895222028096,4.017864386240642,-3.4862078726291656,-0.10979882876078291,-8.510884443918863,4.85206667582194
10.7,4.541477642953396,-6.666304185986519,-5.127619499961535,0.0,0.0,3.092784881591797,17.780600357055665,2.680875301361084,2.015114593505859,43.400001525878906,-122.75238863999999,49.18830202,-0.2359061613678932,0.018738619672755433,-0.6879073679447174,0.679331382115682,-1.1403396725654602,1.2580762704213462,1.5084521174430847,17.2965496301651,41.3915491104126,-25.133219528198243,-0.7012224135299524,0.5541946813464166,0.803733269373576,-240.12344512939453,136.0147476196289,-158.01561737060547,2.405507105588913,-11.866571998596191,-6.713058376312256,4.547459616015355,-6.6836522196729975,-5.064807931582133,-0.7002424855406085,0.549765999118487,0.8014425039291383,0.2564047455787658,-9.150748443603515,3.203390288352966
10.8,3.601626741141081,-13.841890515387059,-4.318705842395624,0.0,0.0,3.092784881591797,18.09340019226074,2.681694507598877,1.969797921180725,43.400001525878906,-122.75238966,49.18830408,-0.2905927697817484,0.42287538448969525,-0.6444766422112783,0.5581991920868555,2.6151389280954995,1.3428015510241191,-1.5437524716059368,13.06345475912094,43.95080404281616,-22.097249627113342,2.286387148623665,0.5171673737466336,0.49859715302785246,-244.3565391540527,138.57400283813476,-154.979647064209,1.2430759941538174,-10.706358194351196,3.55548087755839,3.607608784114321,-13.859238581607741,-4.255894299348196,2.287381117573629,0.5127386366327603,0.4962758630514146,-1.8479252606630325,-9.560393333435059,-0.6467811614274979
10.9,2.661775839328766,-21.0174768447876,-3.509792184829712,0.0,0.0,3.092784881591797,18.40620002746582,2.68251371383667,1.9244812488555907,43.400001525878906,-122.75239068,49.18830614,-0.24581100746537696,0.2404050514989208,-0.6851160368233016,0.6006714744549808,0.783966322739919,1.3254994975798058,-0.061927576859792,8.830359888076782,46.51005897521973,-19.06127972602844,5.273996710777283,0.48014006614685056,0.1934610366821289,-248.58963317871093,141.1332580566406,-151.9436767578125,1.2374300807714462,-0.8469035029411316,1.2407320539156594,2.6677579522132873,-21.034824943542482,-3.446980667114258,5.275004720687866,0.4757112741470337,0.1911092221736908,-1.5008036121726036,-9.449255506197613,0.7871347963809967
11.0,-0.604985344534119,-20.266908446947735,2.908575733502706,0.0,0.0,3.092784881591797,18.7189998626709,2.683332920074463,1.8791645765304563,43.400001525878906,-122.7523917,49.1883082,-0.2010292451490055,0.05793471850814636,-0.725755431435325,0.6431437568231062,-1.0472062826156616,1.3081974441354924,1.4198973178863525,16.182079792022705,48.97445907592773,-3.429419958591461,1.1589131553967793,5.247103492418925,-1.9060522317886353,-241.2379150390625,143.5976577758789,-136.3118148803711,1.231784167389075,9.012551188468933,-1.074016769727071,-0.5990032386034727,-20.28425677617391,2.9713871479034424,1.1599058012167613,5.2426747878392534,-1.908368428548177,-1.1536819636821747,-9.338117678960165,2.2210507541894913
