time,TotalAcceleration_z,TotalAcceleration_y,TotalAcceleration_x,Location_bearingAccuracy,Location_speedAccuracy,Location_verticalAccuracy,Location_horizontalAccuracy,Location_speed,Location_bearing,Location_altitude,Location_longitude,Location_latitude,Orientation_qz,Orientation_qy,Orientation_qx,Orientation_qw,Orientation_roll,Orientation_pitch,Orientation_yaw,Magnetometer_z,Magnetometer_y,Magnetometer_x,GyroscopeUncalibrated_z,GyroscopeUncalibrated_y,GyroscopeUncalibrated_x,MagnetometerUncalibrated_z,MagnetometerUncalibrated_y,MagnetometerUncalibrated_x,Accelerometer_z,Accelerometer_y,Accelerometer_x,AccelerometerUncalibrated_z,AccelerometerUncalibrated_y,AccelerometerUncalibrated_x,Gyroscope_z,Gyroscope_y,Gyroscope_x,Gravity_z,Gravity_y,Gravity_x
3.1,1.5877375528216362,-3.649652731915315,-2.0148563981056213,0.0,0.0,1.2226094007492063,9.67760009765625,0.0465871930122375,0.0,20.299999237060547,-122.75005004,49.19301298,0.6396613518397013,-0.7567669351895651,0.05908337297538912,0.11227437729636823,-2.0854919950167337,1.268343945344289,-0.9799685378869375,2.098400005698204,48.83415908813477,-14.194699668884278,0.7419467469056448,0.7902560035387675,2.662023444970449,-253.5281967163086,143.68915710449218,-147.32109832763672,3.1590121388435364,5.36681334177653,-5.454364577929179,0.41036910315354663,-4.156831492980321,-0.713160882393519,-0.024510969563076968,0.850368980007867,0.09047166196008538,-1.249794453382492,-9.34290075302124,2.5714407761891684
3.2,0.5245764950911204,-18.799659729003906,5.750451311469078,0.0,0.0,1.2226094007492063,9.770200157165528,0.0491054572165012,0.0,20.299999237060547,-122.75004978,49.19301296,0.5056248686530374,-0.3880257958715612,0.021141518584706535,0.04656536305661901,-0.4880422313104976,1.0417304743419995,-2.706457582387057,-27.699489378929137,39.45906915664673,-10.977559804916382,0.4682143289934505,-1.4548450058156794,5.03723651712591,-283.3260894775391,134.3140655517578,-144.1039581298828,-3.713385303815206,-10.854164441426596,2.9279207785924277,-0.4707878530025482,-20.156811649149116,5.98417743769559,0.705422098437945,0.43820672544340294,3.5962654650211334,4.516025055538524,-8.092470602555709,1.9179360433058306
3.3,0.12141083975632982,-5.401841914653778,3.4596725914627315,0.0,0.0,1.2226094007492063,9.862800216674804,0.0516237214207649,0.0,20.299999237060547,-122.75004952,49.19301294,-0.21088033011465357,-0.0486778643998233,-0.1049271154245644,0.042726325428564846,-0.49998891150409525,0.8163076842373068,-2.886090004082882,-35.05761421918869,29.682294511795043,-17.14770963191986,0.21958639034754454,-1.2734978544441136,2.206593396988782,-290.68421325683596,124.53729095458985,-150.27410812377929,-5.327379326025645,1.1926809151967372,-0.413661785920461,0.07856432721018791,-6.596499892346788,3.6117799305780367,0.3075706407427787,-2.8733879566192626,5.492808628082275,5.826397651975805,-6.672421552918174,3.051079986673413
3.4,-0.2817548155784607,7.99597589969635,1.1688938714563846,0.0,0.0,1.2226094007492063,9.955400276184083,0.0541419856250286,0.0,20.299999237060547,-122.75004926,49.19301292,-0.9273855288823446,0.2906700670719146,-0.2309957494338353,0.038887287800510685,-0.5119355916976929,0.5908848941326141,-3.065722425778707,-42.41573905944824,19.905519866943358,-23.31785945892334,-0.029041548298361402,-1.092150703072548,-0.624049723148346,-298.04233703613284,114.76051635742188,-156.4442581176758,-6.941373348236084,13.239526271820068,-3.7552443504333497,0.627916507422924,6.963811864455541,1.2393824234604836,0.31691179151336346,-1.4017473950982093,2.0420512422919272,7.136770248413086,-5.25237250328064,4.184223930040996
3.5,1.4971093833446503,-3.7906298637390137,1.0811570187409718,0.0,0.0,1.2226094007492063,10.04800033569336,0.0566602498292923,0.0,20.299999237060547,-122.750049,49.1930129,-0.8947904407978058,0.40650026500225067,-0.17892836779356,0.018974728571871848,-0.4674393634001414,0.8265870213508606,-2.9766354163487754,-38.45561904907227,29.098219680786134,-19.249159812927246,0.7551566933592161,1.484402557214101,-2.4947991172472634,-294.08221740722655,123.95321807861328,-152.37555999755858,-4.196587959925334,3.0470898946126304,-2.9811825354894004,0.45084776480992667,-4.524528520802657,1.0975080107649167,0.32625294228394824,0.06989316642284393,-1.4087061434984207,6.017055114110311,-7.01782504717509,3.2007944583892822
3.6,-4.031906167666118,-11.295120080312094,10.149356842041016,0.0,0.0,1.2253156661987303,10.197000312805175,0.06037108898162842,0.0,20.299999237060547,-122.75004854000001,49.193012859999996,0.13877395391464234,-0.154732346534729,-0.007935108244419103,0.02779253832995888,-0.49307897686958313,1.1351533889770509,-2.763356399536133,-29.81923904418945,40.246578979492185,-12.61601972579956,-0.16722434908151626,2.6127928853034974,-4.875162744522095,-285.4458374023437,135.10157623291016,-145.74241638183594,-7.542138973871867,-2.700519323348999,7.241550366083781,-2.6011178493499756,-11.320922565460204,11.24028434753418,-0.11004135712529678,0.25526762956922705,-2.952163641425696,3.8190708637237547,-8.725327110290527,2.0405954360961913
3.7,5.888247099789706,-15.624859961596401,0.9782838604666971,0.0,0.0,1.2280219316482544,10.346000289916992,0.06408192813396454,0.0,20.299999237060547,-122.75004808,49.19301282,0.6407723526159922,-0.7509337365627289,0.10390271681050456,0.08656040330727892,-2.0161048670609794,1.221749484539032,-1.1505554169416428,-1.3340699434280394,48.445589256286624,-14.508239698410033,-0.3889048161605994,-0.28309789144744474,-1.8072321092089016,-256.9606643676758,143.3005859375,-147.63463668823243,7.470729264346036,-6.7369817386973985,-2.528778758915988,5.064259668191274,-15.137693844735622,1.176919799298048,-0.5463356565345417,0.44064209271561017,-4.495621139352972,-1.3180681963761647,-9.189540386199951,2.723267753918966
3.8,1.6467151386155328,-10.130925532543298,-0.8177879163713165,0.0,0.0,1.2307281970977781,10.495000267028807,0.06779276728630065,0.0,20.299999237060547,-122.75004762,49.19301278,0.6689020693302155,-0.7273040662209194,0.08549854562928275,0.09429616232713059,-1.7897090365489325,1.2619023124376931,-1.339493634800116,-4.184904902428388,48.62950448989868,-13.807349801063538,0.1426306761180361,0.06586526163543266,0.952370719363292,-259.81150131225587,143.48450241088867,-146.93374671936036,2.534782167636987,-1.1050333723877408,-4.23308470213052,1.5379618803660073,-10.637642042090496,-0.3163261469453573,0.09936741475636758,0.6033567090829214,0.32963814314765233,-0.5565251484513283,-9.301348527272541,2.6060787836710615
3.9,-2.5948168225586414,-4.636991103490193,-2.61385969320933,0.0,0.0,1.2334344625473022,10.644000244140624,0.07150360643863678,0.0,20.299999237060547,-122.75004716,49.19301274,0.6970317860444387,-0.7036743958791097,0.06709437444806093,0.10203192134698226,-1.5633132060368855,1.3020551403363545,-1.5284318526585896,-7.035739861428738,48.81341972351074,-13.106459903717042,0.6741661683966717,0.41482841471831006,3.711973547935486,-262.66233825683594,143.66841888427734,-146.23285675048828,-2.401164929072062,4.526914993921916,-5.937390645345052,-1.988335907459259,-6.137590239445369,-1.8095720931887627,0.3201888344871501,0.5382804641267285,2.1549989331591255,0.2050178994735082,-9.413156668345133,2.4888898134231567
4.0,2.108076790968577,-31.92663510640462,10.481759389241537,0.0,0.0,1.2361407279968262,10.79300022125244,0.0752144455909729,0.0,20.299999237060547,-122.7500467,49.1930127,0.8390622138977051,-0.5295517444610596,0.06935144960880273,0.08149445677796995,-0.4730223814646403,1.0734226802984874,-2.650948961575826,-28.62729969024658,41.22501907348633,-10.804319763183594,0.4070144146680832,0.26109399025638896,4.393877426783244,-284.25389404296874,136.08001556396485,-143.93071899414062,-1.758071184158325,-23.488840738932293,7.5259703397750854,1.872682849566142,-31.150861740112305,10.658230225245157,0.5410102542179326,0.4732042191705356,3.9803597231705985,4.3485482931137085,-8.44545841217041,2.1409480770428977
4.1,-3.4045878052711487,2.5279174645741787,2.860519766807556,0.0,0.0,1.2361407279968262,10.89080009460449,0.0778140142560005,0.0,20.299999237060547,-122.75004642,49.19301262,-0.18652874231338504,0.04410953521728513,-0.0757025197148323,0.02268694583326574,-0.4478379487991333,0.7157378673553467,-2.978286075592041,-41.278699493408205,26.498399353027345,-16.88967971801758,0.2981327785179019,-3.773406195640564,2.854420593380928,-296.9053009033203,121.35339584350587,-150.01607513427734,-9.678346792856852,8.825747688611349,-1.1999962727228801,-2.6306692123413087,2.349871572852135,2.708077037334442,0.4624070567008334,-0.6386220255535038,1.8915459233703036,6.707231044769287,-6.252762317657471,3.39627947807312
4.2,-0.9983507110313936,-7.02271691235629,2.3419750888239252,0.0,0.0,1.2361407279968262,10.988599967956542,0.0804135829210281,0.0,20.299999237060547,-122.75004614,49.19301254,-0.5816220243771871,0.2827078402042389,-0.15565371885895726,0.018769033621841368,-0.6016010642051697,0.883781298995018,-2.8896246353785195,-35.5270094871521,31.9713191986084,-21.502499675750734,0.6911685665448507,0.3990604265903433,-1.7804431207478046,-291.1536071777344,126.82631721496583,-154.62889556884767,-5.720723325555975,0.3039636178450149,-2.0581216595389624,-1.2862916191418965,-5.508227720856667,2.3238794251034656,0.3838038591837341,-1.7504482702775435,-0.1972678764299913,5.180152257283528,-7.3913159767786665,3.68751984834671
4.3,-3.2040121462760554,-11.477015188697614,6.9214886406605896,0.0,0.0,1.2361407279968262,11.086399841308593,0.0830131515860557,0.0,20.299999237060547,-122.75004586,49.19301246,-0.18324380616346997,0.01111915210882819,-0.0829250564177831,0.044263987753462616,-0.7337378114461899,1.071458530922731,-2.5888412992159524,-30.117834615707398,37.95053958892822,-16.195499658584595,-0.1786144574483236,2.0410216616777084,-3.502854053551952,-285.7444320678711,132.80553760528565,-149.32189483642577,-6.726085650198387,-3.3061792669874253,3.340477755575469,-4.225749562184016,-12.200728418926397,6.9033682169392705,0.817999467253685,0.5583308835824331,-0.49698978165785473,3.6562981751048937,-8.312713960806528,2.838981101910273
4.4,-5.409673581520717,-15.931313465038935,11.501002192497253,0.0,0.0,1.2361407279968262,11.184199714660645,0.0856127202510833,0.0,20.299999237060547,-122.75004557999999,49.19301238,0.2151344120502472,-0.26046953598658246,-0.010196393976608919,0.06975894188508387,-0.8658745586872101,1.2591357628504436,-2.2880579630533853,-24.708659744262697,43.92975997924805,-10.888499641418457,-1.0483974814414978,3.6829828967650733,-5.225264986356099,-280.3352569580078,138.78475799560547,-144.0148941040039,-7.7314479748408,-6.916322151819865,8.739077170689901,-7.165207505226135,-18.893229116996128,11.482857008775076,-0.009996563817064041,0.9764553693433602,-2.2423781355222068,2.1324440929262587,-9.23411194483439,1.9904423554738362
4.5,9.271988352139791,-15.22044583161672,-2.499402870734533,0.0,0.0,1.2361407279968262,11.281999588012695,0.0882122889161109,0.0,20.299999237060547,-122.7500453,49.1930123,0.6017080307006836,-0.7813185572624206,0.11906393915414806,0.10264131128787993,-2.2377512216567994,1.1600977897644043,-0.9277464747428894,-0.2244800031185151,48.52427864074707,-15.242679786682128,-0.9348070979118347,-1.5893797039985658,-3.2426865220069887,-255.8510757446289,143.37927856445313,-148.36907653808595,11.49136789639791,-6.543882052103679,-6.3554337819417315,13.621980285644531,-14.825211334228516,-3.119762109220028,-0.837992594887813,1.3945798551042874,-3.9877664893865585,-2.2853939056396486,-8.966803359985352,3.1301624298095705
4.6,1.0642079710960388,-0.9279166162014008,-2.5415764451026917,0.0,0.0,1.2461487531661988,11.452799606323243,0.090369789302349,0.0,20.059999465942383,-122.75004504,49.19301222,0.6176689565181732,-0.7661527196566263,0.0735117364674806,0.1537630086143811,-2.0669904351234436,1.1800424456596375,-0.959057499965032,0.619759911298752,48.55843925476074,-15.818519592285156,0.9416996923585733,1.8585829238096874,2.101198265949885,-255.0068359375,143.41343688964844,-148.94491882324218,2.425345023473104,7.8783369064331055,-6.525021473566691,1.4238293021917345,-1.0891331483920415,-2.04297203818957,0.08046934023767593,1.1997335325700766,-0.41433841870589694,-1.6108158578475316,-9.046624342600504,3.3145137230555215
4.7,-0.8249800909649242,-21.946425611322578,6.106211478059942,0.0,0.0,1.2561567783355714,11.623599624633789,0.0925272896885871,0.0,19.81999969482422,-122.75004478,49.19301214,0.8080420643091202,-0.5664343138535818,0.022892943001352233,0.09868851117789741,-0.5816025858124096,1.1492322484652202,-2.4517324964205423,-25.258269596099854,43.23740901947021,-6.886289846897125,1.1478666899104912,-1.2950342918435733,3.9646172722180686,-280.8848648071289,138.0924057006836,-140.01268768310547,-4.311220179904591,-13.297050562771885,3.7226517417214136,-0.9148557980855306,-20.020049147307873,5.795416429638863,0.9989312753631648,1.004887210035866,3.1590896519747647,3.5190483977397284,-8.74257524808248,1.677898223201434
4.8,-2.6778949056610917,-4.1961409720507525,4.222847041758624,0.0,0.0,1.2661648035049438,11.794399642944336,0.09468479007482519,0.0,19.579999923706055,-122.75004452,49.19301206,0.09830822795629501,-0.16206946223974228,-0.04409481536519402,0.0541183344709376,-0.5164636659125487,0.968021829922994,-2.7099471986293793,-33.574704599380496,35.90246410369873,-11.30360477566719,0.4074343877534071,-1.289294702311357,1.3646220415830612,-289.2012992858887,130.7574619293213,-144.43000106811525,-7.452453340544845,3.478107409043746,1.1378353942524302,-2.6271696885426836,-3.2662027937670537,4.051347829401493,1.4323771794637044,-2.6202810307343802,3.9827651182810464,4.9138472601771355,-7.761261463165283,2.4266355906923613
4.9,-4.530809720357259,13.55414366722107,2.339482605457306,0.0,0.0,1.2761728286743164,11.965199661254882,0.0968422904610633,0.0,19.34000015258789,-122.75004426,49.19301198,-0.6114256083965302,0.2422953893740972,-0.11108257373174028,0.009548157763977784,-0.4513247460126877,0.7868114113807678,-2.9681619008382163,-41.891139602661134,28.567519187927246,-15.720919704437256,-0.33299791440367693,-1.2835551127791405,-1.235373189051946,-297.5177337646484,123.42251815795899,-148.847314453125,-10.593686501185099,20.253265380859375,-1.4469809532165527,-4.339483578999837,13.487643559773764,2.3072792291641235,0.8445975541447599,-1.6503033889457583,1.5936583764851093,6.308646122614543,-6.779947678248088,3.1753729581832886
5.0,7.353642622629802,-15.13001698255539,0.05423730611801147,0.0,0.0,1.286180853843689,12.13599967956543,0.0989997908473014,0.0,19.100000381469727,-122.750044,49.1930119,-0.5123065114021301,0.2937717854976654,-0.10378651469945907,0.005682780779898139,-0.5250628173351288,1.0185731291770934,-2.8514405727386474,-33.01807899475098,37.1819393157959,-15.063339710235596,1.052001616358757,0.6386290311813354,-0.7016397714614868,-288.64466857910156,132.03693771362305,-148.18973846435546,3.0652021169662476,-7.056944449742635,-3.445294658342997,9.858788394927979,-18.15410614013672,0.21798614263534546,0.2568179288258155,-0.6803257471571366,-0.7954483653108279,4.546802234649658,-8.222908401489258,2.744391584396362
5.1,-6.964908401171367,-8.405188421408335,9.106285274028778,0.0,0.0,1.2861357927322388,12.438833077748617,0.10719598457217208,18.908857981363933,19.100000381469727,-122.75004361666667,49.193011500000004,-0.5753397444883982,0.3238900701204936,-0.09567846978704131,0.020274727915724083,-0.3006391692906618,1.0670998990535736,-3.0129870176315308,-33.46703910827637,38.57517967224121,-9.561139965057373,1.153771738211314,2.5312982896963754,-1.6595427418748538,-289.09363708496096,133.4301773071289,-142.68753662109376,-11.097436964511871,0.1438594659169515,6.897905747095744,-7.562117139498393,-8.005985697110495,7.204489866892497,-0.19740436053975968,0.6993701327781751,-2.220851498119759,4.539922912915547,-8.475391864776611,1.6449306358893712
5.2,2.4140319986776877,-17.39353667606007,0.3272729353471236,0.0,0.0,1.2860907316207886,12.741666475931803,0.11539217829704276,37.81771596272787,19.100000381469727,-122.75004323333333,49.1930111,0.6354412784179052,-0.7516317764918009,0.028823354788376786,0.13372727949172256,-1.865851202358802,1.2426255544026692,-1.125014637907346,-3.6349899888038637,49.245299339294434,-8.731539809703827,-1.7475454624121387,0.8325583785772324,-3.042452516655127,-259.2615852355957,144.1002975463867,-141.85793762207032,3.7390093478289517,-8.419717701998623,-2.8950004577636723,3.193570725619793,-16.636897027492523,1.0862914721171062,-0.6516266499053348,2.079066012713487,-3.6462546309286896,-1.2052662080774705,-9.194047292073568,2.4493306229511895
5.3,-0.10614514034805822,-8.107934558933431,-0.06786912312787591,0.0,0.0,1.2860456705093384,13.04449987411499,0.12358837202191345,56.7265739440918,19.100000381469727,-122.75004285,49.1930107,0.6334887976447741,-0.7545776685078939,0.025837740276134932,0.14592892834916707,-1.960990364725391,1.2488295237223306,-1.0080714518825213,-2.548884963989258,49.474659061431886,-10.131489795446395,-0.0020985750171045314,0.18810575976967803,-0.1741615129013856,-258.17547874450685,144.32965774536132,-143.2578872680664,1.1326439516110853,0.9028838114304971,-3.429589827855428,0.6666951976716518,-7.219963473081588,0.3889283140500387,-1.1784608750604093,0.6391940911610922,-1.2202287490169208,-1.2331485214953621,-9.246984926859538,2.604314521451791
5.4,-2.6263222793738046,1.1776675581932068,-0.4630111816028754,0.0,0.0,1.2860006093978882,13.347333272298178,0.13178456574678413,75.63543192545573,19.100000381469727,-122.75004246666667,49.193010300000005,0.631536316871643,-0.7575235605239868,0.02285212576389308,0.15813057720661158,-2.05612952709198,1.2550334930419922,-0.8911282658576966,-1.462779939174652,49.70401878356934,-11.531439781188965,1.7433483123779296,-0.4563468590378762,2.694129490852356,-257.089372253418,144.55901794433595,-144.6578369140625,-1.473721444606781,10.22548532485962,-3.964179197947184,-1.8601803302764892,2.196970081329346,-0.3084348440170288,0.012291343014856793,0.530755120516529,0.9688403871700617,-1.2610308349132537,-9.299922561645507,2.7592984199523927
5.5,4.813661215205987,-31.76103186607361,6.751747965812683,0.0,0.0,1.285955548286438,13.650166670481363,0.1399807594716548,94.54428990681967,19.100000381469727,-122.75004208333333,49.1930099,0.7618661125500997,-0.6343425611654917,-0.00043493521904263327,0.11808437357346212,-0.7393680761257807,1.309897243976593,-2.2326889038085938,-19.26989984512329,46.76991920471191,-4.764099931716919,0.7570402026176453,0.9927069234351317,3.691433231035868,-274.89649353027346,141.62491912841796,-137.89049835205077,2.44391659895579,-22.571704149246216,4.5105317036310835,4.656034032503764,-29.593632976214092,6.789933135112126,1.2030435610901227,0.4223161498719657,3.1579095233570444,2.0727915366490683,-9.399621168772379,1.5655471483866374
5.6,-3.529014547665914,-8.982058032105366,3.4597224394480386,0.0,0.0,1.2859104871749878,13.95300006866455,0.1481769531965255,113.4531478881836,19.100000381469727,-122.7500417,49.1930095,0.872220774491628,-0.47466517488161725,0.049748506552229316,0.07040639283756411,-0.2788479626178741,0.9734932978947958,-2.8341710964838662,-35.44099941253662,36.27425956726074,-4.899519979953766,0.27432938416798913,-3.728288729985555,4.001014590263367,-291.0675933837891,131.12925720214844,-138.02591552734376,-8.930824001630148,-1.2903126080830896,0.862890621026357,-3.4813575396935144,-11.113564481337866,3.23469740152359,0.7748929696637348,-0.9135211887451906,2.2356921662435387,5.374887307484944,-7.950274070103963,1.693825125694275
5.7,0.2008339302106337,-3.3035637248646124,0.9498962037773295,0.0,0.0,1.2859104871749878,14.015800094604492,0.15760242044925682,116.08716888427735,19.100000381469727,-122.75004174,49.193009180000004,0.8738893022139868,-0.4568323915203412,0.15294344288607434,0.017215883456325725,-0.49569325149059296,0.9204504638910294,-2.8499461809794107,-36.7976393699646,32.32145938873291,-14.527149772644043,0.41850632533896714,-0.007024952520926793,-0.8449920925001303,-292.4242309570312,127.1764575958252,-147.65354843139647,-4.733819224617698,4.27661470933394,-2.6949534849687056,-0.3307577967643738,-3.680260847012202,1.7004992798125993,0.3467423782373468,-2.2493585273623466,1.3134748091300328,5.2809397379557295,-7.640670339266459,2.9570658802986145
5.8,-2.9146890870549464,-6.71464558984294,5.973505013834007,0.0,0.0,1.2859104871749878,14.078600120544433,0.16702788770198818,118.7211898803711,19.100000381469727,-122.75004178,49.19300886,0.8509590382377307,-0.504352224121491,0.09750065404611327,0.024572770276184465,-0.39346793591976165,1.0404328182339668,-2.858149822552999,-33.77386965751648,36.01561899185181,-10.341024804115296,0.3977661555283703,1.7857117967059217,-2.6199463025977217,-289.4004623413086,130.87061862945558,-143.46742362976073,-7.140557794859916,1.4719162204048852,3.0946411671060505,-2.4751706080511213,-5.769623695810635,5.854240099348439,0.43093998978535336,0.6338745132088661,-0.12270755569140114,4.5525692780812586,-8.248252459367116,2.0986244857311247
5.9,-6.030212104320526,-10.125727454821268,10.997113823890686,0.0,0.0,1.2859104871749878,14.141400146484376,0.1764533549547195,121.35521087646484,19.100000381469727,-122.75004181999999,49.19300854,0.8280287742614746,-0.551872056722641,0.0420578652061522,0.0319296570960432,-0.29124262034893034,1.1604151725769043,-2.866353464126587,-30.75009994506836,39.7097785949707,-6.154899835586548,0.37702598571777346,3.57844854593277,-4.394900512695313,-286.37669372558594,134.56477966308594,-139.281298828125,-9.547296365102133,-1.33278226852417,8.884235819180807,-4.619583419337869,-7.85898654460907,10.007980918884277,-0.23777814017552318,0.6816862893121487,-2.301542402216882,3.824198818206787,-8.855834579467773,1.2401830911636353
6.0,3.7717860539754233,-23.632214387257893,-2.3899312975505986,0.0,0.0,1.2859104871749878,14.204200172424317,0.18587882220745083,123.98923187255859,19.100000381469727,-122.75004186,49.193008219999996,0.6505615810553232,-0.7461006045341492,0.057339772116392795,0.10469101866086321,-1.9316109816233318,1.2854564388593037,-1.142632285753886,-5.470479941368104,48.47669906616211,-9.213439846038819,-2.0541871190071106,-1.5653676627359043,-4.651306072870891,-261.0970764160156,143.33169708251953,-142.33983764648437,5.283529758453369,-14.59412670135498,-5.597064812978108,2.8681966066360474,-25.38665246963501,-0.935294508934021,-0.9064962701363997,0.7294980654154312,-4.480377248742363,-1.094531177232663,-9.346118132273356,2.370850364367167
6.1,5.263013458251953,-2.7137001752853394,0.49040900468826293,0.0,0.0,1.2859104871749878,14.267000198364258,0.1953042894601822,126.62325286865234,19.100000381469727,-122.7500419,49.1930079,0.5848274926344553,-0.7938114504019419,0.07931673216323055,0.14216454202930126,-2.27425487836202,1.1347148219744365,-0.7764078577359518,5.7693798542022705,47.75689926147461,-14.427719783782958,0.31864257467289764,1.9884427562355995,0.9680686891078949,-249.85721435546876,142.61189880371094,-147.55411529541016,7.833940029144287,5.869212818145752,-3.4691941261291506,5.277270674705505,-3.0097720424334207,0.39461634556452435,-0.05019797875799914,0.8544911577817843,-1.2188728522847998,-2.5195529659589133,-8.885572910308838,3.2511834303538003
6.2,0.620389113823573,-17.935302486022312,2.9778178880612054,0.0,0.0,1.2888742208480835,14.479400253295898,0.1902338296175003,135.42376403808595,19.100000381469727,-122.75004314,49.19300716,0.7387227361852472,-0.6517558260397478,0.023328727873211517,0.13182694193991742,-1.112649597904899,1.253679026256908,-1.8734503117474643,-15.337229692935944,45.90127944946289,-8.64308979511261,0.7882244194095785,-0.3422372327609496,3.5886250842701304,-270.9638244628906,140.75627746582032,-141.76948776245118,-0.8738335768381754,-8.932875911394754,0.03997826576232925,0.9349409233440052,-18.840759315273978,3.0148477879437534,0.8061003126204014,0.9794842501481374,2.042631544172764,1.5080848282033747,-9.230956597761674,2.184829007495533
6.3,-2.7531667600075402,-8.723633115490276,3.3215618493656316,0.0,0.0,1.291837954521179,14.691800308227538,0.1851633697748184,144.22427520751953,19.100000381469727,-122.75004438,49.193006419999996,0.8104945195443702,-0.541158776165861,0.09607942223153776,0.08561348019054887,-0.8209682693987181,1.0523680394346062,-2.342285311583317,-26.096714287996292,38.08839921951294,-12.721244728565217,0.25003709418304043,-1.8763616730205037,3.411412840539759,-281.72330780029296,132.94339752197266,-145.84764366149903,-6.162422974904379,-0.7225585182507839,-0.27413241068522126,-2.2515237981622866,-10.43977195927591,3.374822573228316,0.15505796174208322,-0.8999317983786265,3.888360937436422,3.536571927142866,-8.231650493361734,2.812628493164525
6.4,-6.126722633838654,0.4880362550417579,3.665305810670058,0.0,0.0,1.294801688194275,14.904200363159179,0.1800929099321365,153.02478637695313,19.100000381469727,-122.75004562,49.19300568,0.8822663029034933,-0.43056172629197437,0.16883011658986402,0.03940001844118033,-0.5292869408925375,0.8510570526123047,-2.811120311419169,-36.85619888305664,30.27551898956299,-16.799399662017823,-0.28815023104349774,-3.410486113280058,3.234200596809387,-292.4827911376953,125.130517578125,-149.92579956054686,-11.451012372970581,7.4877588748931885,-0.5882430871327718,-5.437988519668579,-2.038784603277842,3.7347973585128784,0.22582345952590305,-1.0156410045808915,1.8806366085103066,5.5650590260823565,-7.232344388961792,3.4404279788335166
6.5,5.591229061285655,0.11036908626556396,-1.0555339256922405,0.0,0.0,1.2977654218673706,15.116600418090819,0.1750224500894546,161.8252975463867,19.100000381469727,-122.75004686,49.193004939999994,0.8689137200514475,-0.44646070897579193,0.20462098220984137,0.008100175842021851,-0.6226348181565603,0.8868753214677175,-2.8164127270380654,-35.12989978790283,30.887959480285645,-19.87867965698242,0.883336583773295,1.2396237617358565,-2.9834913139541945,-290.756494140625,125.74295806884766,-153.00507507324218,1.0332337220509837,7.615313688913981,-5.3137809832890825,3.242175062497457,4.084249258041382,-0.29132612546285,0.2965889573097229,-1.1313502107831566,-0.12708772041580893,5.064856608708699,-7.447601874669393,3.737030585606893
6.6,-5.716333694756031,-14.63163194656372,5.302734208106995,0.0,0.0,1.3007291555404663,15.32900047302246,0.1699519902467727,170.6258087158203,19.100000381469727,-122.7500481,49.1930042,-0.2900587519009908,0.15583045780658722,-0.05113204692800838,0.013084896966271685,-0.5111343661944071,0.9876063168048859,-2.8613365093866983,-33.00343894958496,34.87248001098633,-15.55743932723999,1.194419726729393,0.5644904126723608,0.5976043542226156,-288.6300354003906,129.72747955322265,-148.6838363647461,-10.196593284606934,-6.666700649261474,1.7513261318206788,-4.71096936861674,-14.04796247680982,4.682753970225652,0.18100121353442472,0.18419380909339944,-1.1695981122214687,4.756418863932292,-8.091704686482748,2.8105515042940774
6.7,1.712513359884421,-16.08938943594694,3.7376886953910193,0.0,0.0,1.2859109401702882,15.559000396728514,0.16821778118610378,171.930908203125,19.100000381469727,-122.7500488,49.19300336,0.5368244051933289,-0.6047430634498596,0.0594793603840199,0.07350348462138999,-1.4985552023757587,1.238002517006614,-1.6417353044856677,-11.810819813609124,45.379119300842284,-9.639829754829407,-1.209929676895792,0.5013954639434814,-4.309210007840937,-267.4374153137207,140.2341178894043,-142.7662269592285,1.7975710928440092,-7.122120539347331,0.9084706703821817,2.2972183606841345,-17.237078720873054,4.177759480577978,0.06541346975912654,1.4997378289699554,-2.212108504027128,-0.037935509431091224,-9.187067812139338,2.1245836344632236
6.8,0.6359674098591008,-8.825402973840635,0.7649555181463561,0.0,0.0,1.2710927248001098,15.78900032043457,0.16648357212543483,173.2360076904297,19.100000381469727,-122.7500495,49.19300252,0.5759302079677582,-0.6891299883524578,0.06863671490414572,0.0998785043978414,-1.8421122923944937,1.2200697055368712,-1.2640383487397973,-4.869629906490445,46.522259044647214,-11.906284821033477,-0.14353250317049748,0.7852811738848686,-1.3478429145885236,-260.4962245941162,141.37725791931155,-145.03268241882324,1.5840087483326593,0.12102047602335642,-2.4414449334144597,1.1488085976152709,-9.724372414025394,1.0210327764860159,-1.083216809357206,-1.2796608408292134,-2.7324002583821616,-0.983008133445048,-9.154819322354866,2.55328567461534
6.9,-0.4405785401662194,-1.5614165117343266,-2.207777659098307,0.0,0.0,1.2562745094299317,16.019000244140624,0.1647493630647659,174.54110717773438,19.100000381469727,-122.7500502,49.193001679999995,0.6150360107421875,-0.7735169132550558,0.07779406942427154,0.12625352417429284,-2.1856693824132285,1.2021368940671284,-0.886341392993927,2.071560000628233,47.66539878845215,-14.17273988723755,0.9228646705547968,1.0691668838262558,1.6135241786638896,-253.5550338745117,142.52039794921876,-147.29913787841798,1.3704464038213093,7.364161491394043,-5.791360537211101,0.0003988345464070638,-2.2116661071777344,-2.135693927605947,-0.27457004647250427,-0.347732711018938,0.15154316027959203,-1.9280807574590046,-9.122570832570394,2.981987714767456
7.0,5.42129852026701,-14.149717736244202,3.819423457980156,0.0,0.0,1.2414562940597533,16.24900016784668,0.16301515400409694,175.84620666503906,19.100000381469727,-122.7500509,49.193000839999996,0.736755887667338,-0.6636525690555573,0.06031490117311475,0.09330880269408222,-1.1916761100292206,1.3015503287315369,-1.9028065204620361,-13.584699559211732,46.56861953735351,-10.006439876556396,0.0714966803789139,0.14665855327621105,4.251112977663676,-269.2112976074219,141.42361602783203,-143.1328369140625,4.355770027637481,-4.898256111145019,0.9270025491714481,5.547759294509888,-15.409478584925333,4.603292425473531,0.5340767164121974,0.5841954187913374,3.035486578941345,1.1713875060280163,-9.39438772201538,2.2280490398406982
7.1,-0.8444670637448631,-27.210181713104248,7.3038915793101,0.0,0.0,1.2266380786895752,16.479000091552734,0.161280944943428,177.15130615234375,19.100000381469727,-122.7500516,49.193,0.8566731909910837,-0.5017259021600088,0.06846460824211432,0.06973345018923276,-0.391985555489858,1.021169275045395,-2.7488011916478476,-32.469079399108885,37.42105960845947,-8.724219799041748,0.9127344936132431,-1.2970196604728699,3.906381368637085,-288.0956787109375,132.27605819702148,-141.85061798095703,-5.254268964131673,-18.93456506729126,4.618761618932088,-2.6205395062764487,-23.44318111737569,6.296712835629781,0.5026159935567358,-0.4540360199541531,2.551709073285262,4.807811578114827,-8.237743139266968,2.014150559902191
7.2,2.513460751467695,-1.6567305078109105,0.4939184654504061,0.0,0.0,1.2266380786895752,16.64099998474121,0.1756619185209274,177.6370422363281,19.100000381469727,-122.7500522,49.1929988,-0.568632039156827,0.25314962322061707,-0.132703537968072,0.014143524511547883,-0.5011673894795504,0.889057685028423,-2.9272971803491767,-36.66709928512573,30.941029739379882,-16.585289669036865,0.4843744933605194,-0.1231726123528047,-0.7912926213307814,-292.29369201660154,125.79602737426758,-149.71168746948243,-2.5779228607813516,5.811525305112203,-3.1339309016863504,2.540090122006156,-0.8272096352143721,0.4632287052544681,0.4711552707012743,-1.4922674586996436,2.0679315676291785,5.414054957303134,-7.477280269969594,3.0911280892112036
7.3,-3.106880828194941,-3.798406568666299,4.011965993481377,0.0,0.0,1.2266380786895752,16.802999877929686,0.1900428920984268,178.1227783203125,19.100000381469727,-122.7500528,49.1929976,-0.574500378334161,0.28658687300754315,-0.10546356512967381,0.012923289019840176,-0.3814838430420918,0.9749516889904484,-2.967975092656685,-35.27507939338684,33.84859447479248,-12.693794798851012,0.6695893028130133,0.9801552686275858,-1.2201871188413915,-290.90167541503905,128.7035930633545,-145.82019081115723,-7.766656021277109,4.217290143171946,1.2005734543005624,-2.956228103150021,-3.8307051515263137,3.4864513887600466,0.9236028095086416,1.6154076717793941,-1.451848606268565,5.018566770987077,-7.9787463202621,2.2700031465201667
7.4,-8.727222407857576,-5.9400826295216875,7.530013521512349,0.0,0.0,1.2266380786895752,16.964999771118165,0.2044238656759262,178.60851440429687,19.100000381469727,-122.7500534,49.1929964,-0.580368717511495,0.3200241227944692,-0.07822359229127561,0.011703053528132466,-0.2618002966046333,1.0608456929524739,-3.008653004964193,-33.88305950164795,36.75615921020508,-8.80229992866516,0.8548041122655073,2.0834831496079764,-1.649081616352002,-289.50965881347656,131.6111587524414,-141.92869415283204,-12.955389181772867,2.6230549812316895,5.535077810287476,-8.452546328306198,-6.834200667838256,6.509674072265625,0.02302662125139532,1.2664913936433466,-2.564711981932774,4.6230785846710205,-8.480212370554606,1.4488782038291295
7.5,-9.265846741199493,-27.92794876098633,5.6268422365188595,0.0,0.0,1.2266380786895752,17.12699966430664,0.2188048392534256,179.09425048828126,19.100000381469727,-122.750054,49.1929952,0.6963811218738556,-0.7063425183296204,0.027820049474636666,0.09274600508312382,-1.4766031379501026,1.345585823059082,-1.5725845098495483,-14.347199726104737,46.83457908630371,-5.48389995098114,-2.4848725398381553,-0.7203119496504465,-5.250055770079295,-269.9737976074219,141.6895751953125,-138.61029663085938,-9.220553636550903,-18.514076042175294,3.1123327255249036,-7.0459656318028765,-26.338695844014484,5.063611666361491,-0.8775495670058511,0.9175751155072992,-3.6775753575969827,0.049580881992975834,-9.522168636322021,1.8028842906157176
7.6,14.313266714413961,-7.884350568056107,-2.0481565495332084,0.0,0.0,1.2266380786895752,17.288999557495117,0.233185812830925,179.57998657226562,19.100000381469727,-122.7500546,49.192994,0.5761990745862325,-0.8029128213723501,0.09301052863399184,0.1158808295925458,-2.3783817688624063,1.1305559674898784,-0.7300892869631449,5.743759882450104,47.43969917297363,-13.556639766693115,-0.23169612139463425,1.2328533331553142,-0.522162506977717,-249.8828369140625,142.29469604492186,-146.68303985595702,17.287097295125324,0.7385577360788981,-5.637739976247151,14.660425454378128,-6.433203314741452,-1.5304094950358074,-0.22470470334431436,0.5817814703014763,-1.2815513153080689,-2.9059752225875854,-8.864098072052002,3.0094939867655435
7.7,0.3799104491869607,-17.06566099325816,2.4585255533456802,0.0,0.0,1.2266380786895752,17.50433286031087,0.24595686048269272,179.71453348795572,19.100000381469727,-122.75005485,49.1929932,0.7295202125202526,-0.6646723476323214,0.053090525113723454,0.10046980868686325,-1.2282603599808433,1.2570001537149602,-1.8455308025533503,-12.532449740171433,45.40961894989014,-9.578219747543335,0.9090646545995366,-0.25259279137985274,3.715046427466653,-268.15904541015624,140.26461791992188,-142.70461807250976,-0.6341666678587594,-8.003946344057718,-0.468112587928772,1.1465427658774636,-17.350248159925368,3.094409151510759,0.4281401603172223,0.24598782509565353,1.1144727269808452,1.0775037055665797,-9.264508334073154,2.2633410583842886
7.8,-1.912438593308131,-10.556261177857717,2.629064030945301,0.0,0.0,1.2266380786895752,17.71966616312663,0.25872790813446045,179.84908040364584,19.100000381469727,-122.7500551,49.1929924,0.21168488309238898,-0.2775484982765082,-0.020049444117555125,0.06555296386112315,-0.8156771817893693,1.0785567489537327,-2.4137783520149463,-23.865944585204126,39.03328914642334,-9.986919808387757,0.5856265619848714,-1.893669520448329,3.476201574910771,-279.49253845214844,133.88828773498534,-143.11331748962402,-5.0841906299193695,-2.249453421433767,-0.4196067929267883,-1.1726915249318786,-10.51316073137533,3.0263677555503268,0.5401270508766174,-0.14914278984069823,4.220498561859131,3.324630232922959,-8.423535231387977,2.41842870369102
7.9,-4.204787635803223,-4.046861362457276,2.799602508544922,0.0,0.0,1.2266380786895752,17.934999465942383,0.2714989557862282,179.98362731933594,19.100000381469727,-122.75005535,49.1929916,-0.30615044633547467,0.10957535107930501,-0.0931894133488337,0.030636119035383047,-0.4030940035978953,0.9001133441925049,-2.982025901476542,-35.199439430236815,32.65695934295654,-10.395619869232178,0.26218846937020623,-3.534746249516805,3.237356722354889,-290.82603149414064,127.51195755004883,-143.5220169067383,-9.53421459197998,3.5050395011901854,-0.37110099792480467,-3.491925815741221,-3.676073302825292,2.9583263595898948,0.46618308443576095,-0.8288054263840119,2.1990283777316413,5.571756760279338,-7.5825621287028,2.5735163489977517
8.0,-3.71555495262146,6.554240465164185,1.8646070559819539,0.0,0.0,1.2266380786895752,18.150332768758137,0.28427000343799586,180.11817423502603,19.100000381469727,-122.7500556,49.1929908,-0.8648551007111868,0.45524448653062183,-0.2009493584434191,0.027791410374144666,-0.5834208130836487,0.928331067164739,-2.902099847793579,-34.31859931945801,31.52723960876465,-14.805919742584228,0.5324454084038734,0.8578838727747401,-3.0988939106464386,-289.94519958496096,126.38223800659179,-147.93231658935548,-8.43233871459961,14.133936723073324,-2.0907034079233804,-1.2619146903355916,4.020340800285339,1.4951153496901195,0.3922391179949045,-1.5084680629273255,0.1775581936041514,4.9110110600789385,-7.7413707574208575,3.336101492245992
8.1,0.10697873433430989,-15.922240833441416,1.2792627811431885,0.0,0.0,1.2266380786895752,18.365666071573894,0.2970410510897636,180.25272115071616,19.100000381469727,-122.75005585,49.19299,-0.002193500598271688,-0.0026673227548599243,0.006569713974992452,0.005546652595512517,-0.3893958379824956,1.0385275880495708,-2.9160892168680825,-31.01605968475342,35.65327911376953,-7.665259838104248,1.2325733328859012,1.591074824333191,0.6960045676678419,-286.6426544189453,130.5082794189453,-140.79165802001953,-4.148838599522908,-7.546337763468425,-1.5090594291687012,-3.3930226167043056,-14.507882952690125,1.4811572035153706,0.07953974076857168,0.19629774180551363,-1.1840540934354065,4.619310299555461,-8.397625923156738,2.0367174545923867
8.2,2.256032969802618,-15.285999109347662,3.079363226890564,0.0,0.0,1.2266380786895752,18.58099937438965,0.3098120987415313,180.38726806640625,19.100000381469727,-122.7500561,49.1929892,0.6690390706062317,-0.7234908071431246,0.027693018804050295,0.09509368016469204,-1.6570992361415515,1.2583873488686301,-1.3880566629496487,-10.921439987421035,43.06782875061035,-2.0264199703931807,-1.4034767719832333,0.6822531548413363,-4.368824934756214,-266.5480339050293,137.92282638549804,-135.1528175354004,2.847604831059774,-6.2208876212437945,0.5816954572995504,2.3355579918081113,-16.798212908589367,3.1204581531611355,-0.23315963645776114,1.901063546538353,-2.5456663804749646,-0.5892795324325562,-9.254780249162154,1.8718005906451831
8.3,1.8133209835737945,-8.798792676130931,0.12390826940536481,0.0,0.0,1.2396183729171752,19.000599670410157,0.3524429321289062,180.639111328125,19.100000381469727,-122.75005702,49.19298636,0.6337802360455196,-0.7526662114894751,0.017779313892154307,0.13129016769005716,-1.9505278612628127,1.233068725376418,-1.0278958317005273,-5.376540029048919,44.585204124450684,-3.435519944131374,-0.3245163648812608,0.9214231261249743,-1.2059590522425645,-261.00313301086425,139.44020118713377,-136.561918258667,3.1948288003603618,0.18886792262395247,-2.830877163012822,2.247889188202945,-9.081708969117962,0.6171578639610247,-0.964800588786602,-0.7734469771385193,-2.659279653429985,-1.3472700417041779,-9.197229840538718,2.3189003910079147
8.4,1.3706089973449707,-2.3115862429142,-2.831546688079834,0.0,0.0,1.2525986671447753,19.420199966430665,0.3950737655162811,180.89095458984374,19.100000381469727,-122.75005794,49.19298352,0.5985214014848074,-0.7818416158358256,0.007865608980258317,0.16748665521542228,-2.2439564863840737,1.207750101884206,-0.6677350004514059,0.1683599293231964,46.102579498291014,-4.844619917869568,0.7544440422207117,1.1605930974086125,1.956906830271085,-255.4582321166992,140.95757598876952,-137.97101898193358,3.5420527696609496,6.598623466491699,-6.243449783325195,2.1602203845977788,-1.3652050296465557,-1.8861424252390862,-0.23971498338505626,-0.2580599822103977,0.24034749766190844,-2.1052605509757996,-9.139679431915283,2.766000191370646
8.5,4.6691946883996325,-20.99991023540497,3.8890346735715866,0.0,0.0,1.2655789613723756,19.83980026245117,0.437704598903656,181.1427978515625,19.100000381469727,-122.75005886,49.19298068,0.7382199366887411,-0.6560442050298055,0.011623587226495117,0.13874566803375876,-1.075726310412089,1.298536439736684,-1.8840995232264202,-19.313819694519044,42.49137878417969,-3.6965999603271484,0.16966783379515016,-0.4547891815503438,4.421977241834004,-274.94042053222654,137.34638061523438,-136.822998046875,3.7571895917256675,-11.711438179016113,1.1224173704783122,4.25344177087148,-25.364518066247303,5.658925880988439,0.4853706220164895,0.25732701271772385,3.139974648753802,1.3827056139707565,-9.394776503245035,2.1097352306048074
8.6,-6.409574270248413,-18.297216951847076,5.153441925843556,0.0,0.0,1.2785592555999756,20.25940055847168,0.4803354322910309,181.39464111328124,19.100000381469727,-122.75005978,49.19297784,0.8520726919174194,-0.5073497593402863,0.03409198746085162,0.11006304174661632,-0.35322279334068296,1.0336913108825683,-2.677499008178711,-37.46131916046143,31.393039512634278,-5.682759952545166,0.9423818081617356,-2.0183292865753173,3.913813591003418,-293.0879150390625,126.24804000854492,-138.8091552734375,-10.923900524775187,-10.010581254959106,2.6430614590644836,-5.548955631256104,-17.058432388305665,3.997808504104614,0.46559558787637134,-0.7709396857429636,2.607646084870353,4.728748607635498,-8.356133842468262,1.8273038625717164
8.7,2.5814749706875193,-2.438123193654148,1.1239740523425015,0.0,0.0,1.2915395498275757,20.679000854492188,0.5229662656784058,181.646484375,19.100000381469727,-122.7500607,49.192975,0.8776438136895498,-0.4535135254263878,0.13853596212963257,0.03756026644259686,-0.4723951518535614,0.9078860630591711,-2.821464955806732,-38.718529510498044,25.080149555206297,-16.251619815826416,0.40158026044567424,-0.3329470157623291,-0.2512946551044782,-294.34512481689455,119.93514862060547,-149.37801971435547,-2.406872966072776,5.19975571198897,-2.3460765318437056,0.43130630254745456,-2.7944677670796714,0.890329398214817,0.44582055373625323,-1.7992063842036508,2.075317520986904,5.3356053829193115,-7.649358193079631,2.8722704648971558
8.8,-3.1834419948810884,-4.352163730697199,4.16562778863943,0.0,0.0,1.2915395498275757,20.778600692749023,0.5363227844238281,181.7240753173828,19.100000381469727,-122.75006106000001,49.19297384,0.8568911353747051,-0.4953782248000304,0.09290872844091302,0.04373292733604704,-0.40109972407420474,1.0132942472894986,-2.815471202135086,-36.968744564056394,28.914304399490355,-12.767299818992615,0.09560677719612914,1.220966915289561,-2.050012848029534,-292.59534072875977,123.76930313110353,-145.8936996459961,-7.701679874550212,3.7682936408303007,1.3543238025723086,-2.4738295922676725,-4.925550589958826,4.920740106453498,0.7651596367359161,1.2860495190446575,-0.9325621326764425,4.670317868391672,-8.19074841340383,2.185062343875567
8.9,-8.948358960449696,-6.26620426774025,7.207281524936358,0.0,0.0,1.2915395498275757,20.87820053100586,0.5496793031692505,181.80166625976562,19.100000381469727,-122.75006142000001,49.19297268,0.8361384570598602,-0.537242924173673,0.047281494752193474,0.049905588229497234,-0.3298042962948481,1.1187024315198262,-2.80947744846344,-35.21895961761474,32.74845924377441,-9.282979822158813,-0.21036670605341592,2.774880846341451,-3.84873104095459,-290.845556640625,127.60345764160157,-142.4093795776367,-12.996486783027649,2.3368315696716313,5.054724136988322,-5.378965487082799,-7.056633412837982,8.951150814692179,-0.1158925940593083,1.0431287830385068,-2.6513460626204806,4.005030353864034,-8.732138633728027,1.4978542228539784
9.0,0.19860405723253885,-25.38665183385213,1.4440682729085286,0.0,0.0,1.2915395498275757,20.977800369262695,0.5630358219146728,181.87925720214847,19.100000381469727,-122.75006178,49.19297152,0.647574245929718,-0.7432681918144226,-0.00017436523921784963,0.1475985671083132,-1.8925758600234985,1.2968942125638325,-1.0377509991327922,-14.094659674167634,44.90209884643555,-8.308199787139893,-1.8274033864339192,-0.9622654759635528,-5.032766064008077,-269.72125244140625,139.75709533691406,-141.43459777832032,0.898911714553833,-16.111087481180828,-1.2922279437383015,0.5770691633224487,-25.056641896565754,-0.23589249451955188,-0.9969448248545328,0.8002080470323563,-4.370129992564519,-1.062336045006911,-9.374756018320719,2.244705935319265
9.1,7.402994473775228,-6.08335280418396,-1.227916767820716,0.0,0.0,1.2915395498275757,21.07740020751953,0.5763923406600953,181.95684814453128,19.100000381469727,-122.75006214,49.19297036,0.5703719854354858,-0.8008771300315857,0.01808413942344484,0.17909915745258329,-2.312161588668823,1.1370944499969482,-0.5957676053047181,0.037819966301321985,46.678418731689455,-12.910039806365967,0.18350391611456873,2.350945436954498,1.0778717398643494,-255.58877716064453,141.53341522216797,-146.03643798828125,10.102025747299194,2.57634703318278,-4.911396026611328,7.278966331481934,-5.5797034978866575,-1.1011770009994506,-0.11022590224941575,0.8818406852978198,-1.200169718175223,-2.710439133644104,-8.879524421691894,3.1307546138763427
9.2,1.105320871214975,-18.234885814515028,3.4654596989805047,0.0,0.0,1.2915395498275757,21.177000045776367,0.5897488594055176,182.0344390869141,19.100000381469727,-122.7500625,49.1929692,0.7291582822799683,-0.6543208807706833,-0.0180496371400901,0.16294040779272712,-1.1194267670313518,1.2611167927583058,-1.7622073342402775,-20.955939531326294,44.41653881072998,-9.88199987411499,0.9754118095928183,-0.17489834502339363,3.392478257417679,-276.58253173828126,139.27153472900392,-143.0083969116211,-0.17721179940483786,-9.060201558199795,0.875582673332908,0.5964110096295675,-17.436598191658657,3.2387852172056832,0.7764930203557014,0.9634733235632832,1.9697905562140725,1.3453534903625648,-9.272806564966837,2.005798796812693
9.3,-1.6972409087713018,-9.130453885956245,3.374305881334074,0.0,0.0,1.2972079277038575,21.43460006713867,0.5987816214561462,182.00816040039064,19.100000381469727,-122.75006316,49.1929672,0.806965912381808,-0.5511634449164072,0.040878194862974254,0.10576152165109909,-0.7421887839833896,1.0834274142980576,-2.3084789837400117,-29.909519219398497,37.77058925628662,-11.979789733886719,0.6202000317474207,-1.6226171646267176,2.815649688243866,-285.53611450195314,132.62558555603027,-145.1061882019043,-4.982532520185818,-0.6688918633894492,0.7025367906599334,-1.9909779764711852,-7.194818849364918,3.372135177254677,0.5770895034074783,-0.02204205592473348,3.7861937284469604,3.472471736992399,-8.473240653673807,2.160763641198476
9.4,-4.499802688757579,-0.026021957397460938,3.2831520636876426,0.0,0.0,1.3028763055801391,21.692200088500975,0.6078143835067749,181.9818817138672,19.100000381469727,-122.75006382,49.192965199999996,0.8847735424836477,-0.4480060090621312,0.09980602686603861,0.048582635509471055,-0.36495080093542737,0.9057380358378092,-2.854750633239746,-38.8630989074707,31.12463970184326,-14.077579593658447,0.264988253902023,-3.0703359842300415,2.238821119070053,-294.489697265625,125.97963638305664,-147.2039794921875,-9.787853240966797,7.722417831420898,0.5294909079869587,-4.5783669625719385,3.046960492928822,3.5054851373036704,0.548703346401453,-0.5952118101219337,1.9341966286301613,5.599589983622233,-7.673674742380778,2.315728485584259
9.5,2.987738331158956,1.526920199394226,-0.5574279675881068,0.0,0.0,1.308544683456421,21.949800109863283,0.6168471455574036,181.95560302734376,19.100000381469727,-122.75006448,49.1929632,0.8555962920188904,-0.49111652970314024,0.15660417377948757,0.015028501860797341,-0.5517627477645874,0.9916608452796936,-2.7993868350982667,-34.340559577941896,32.69477920532226,-18.707479763031007,0.6997461259365082,0.3943440645933151,-3.004265856742859,-289.96715393066404,127.54977569580078,-151.83388061523436,-1.318855206171671,9.61047069231669,-3.946051557858785,1.9962121486663817,2.347239446640015,-1.2234501957893371,0.5203171893954277,-1.1683815643191338,0.08219952881336212,4.550178289413452,-8.145282459259032,2.9051360130310058
9.6,-4.768696308135986,-14.79821240901947,4.951148947079976,0.0,0.0,1.3142130613327025,22.207400131225587,0.6258799076080322,181.92932434082033,19.100000381469727,-122.75006514,49.1929612,0.28154972195625305,-0.17327741285165152,0.04331832751631737,0.010180606700790384,-0.39347313344478607,1.0421268741289775,-2.89841894308726,-33.353579711914065,35.97047882080078,-13.306539821624757,0.9821440515418848,1.1887946991870801,1.04763388261199,-288.9801727294922,130.82547607421876,-146.4329376220703,-9.11207135518392,-6.36975113550822,2.5004508097966514,-2.741477111975352,-17.27239066362381,4.855735143025716,0.11622347750447015,0.3511202521622181,-1.2997702515938065,4.543084621429443,-8.444828510284424,2.0229976773262024
9.7,2.2083577432415704,-16.557136297225952,3.0804872512817383,0.0,0.0,1.3198814392089844,22.46500015258789,0.6349126696586609,181.90304565429688,19.100000381469727,-122.7500658,49.1929592,0.5366914918025335,-0.6267237762610117,0.026993843668606115,0.08706295098333307,-1.5688257062186797,1.2634423871835072,-1.4918290376663208,-11.113589774817228,46.18614902496338,-8.034309887886048,-1.169412449002266,0.8356508910655976,-4.142824489623308,-266.74018478393555,141.04114532470703,-141.16070861816405,2.816354437307878,-7.38236800107089,0.7267783988605848,2.1802602310975394,-14.931013951698938,2.8286154394348464,-0.28787023438648746,1.87062206864357,-2.681740032000975,-0.41474926968415576,-9.258606910705566,1.7641902963320415
9.8,2.009014811028134,-8.592227324843407,0.6187576353549957,0.0,0.0,1.304081380367279,22.764833450317383,0.6326474249362946,181.82164001464844,19.300000190734863,-122.7500668,49.19295423333333,0.5719187085827192,-0.7026144365469614,0.024670698456854226,0.11963558249408376,-1.9013034623737135,1.2421831736962,-1.1064604421456654,-4.470384925231338,47.255173969268796,-9.9860049366951,-0.16910152075191331,0.9760290011763573,-1.0436060074716806,-260.0969799041748,142.11017074584962,-143.1124038696289,3.4419926621697163,0.45735923810438717,-2.2195085034225923,1.752094532052676,-7.753842120369275,0.43913277611136436,-0.9940813506642977,-1.0586040417353313,-2.6110416452089944,-1.2326671406626701,-9.217312335968018,2.2320041557153067
9.9,1.8096718788146973,-0.6273183524608611,-1.8429719805717468,0.0,0.0,1.2882813215255737,23.064666748046875,0.6303821802139282,181.740234375,19.5,-122.7500678,49.192949266666666,0.6071459253629049,-0.7785050968329111,0.022347553245102333,0.15220821400483445,-2.2337812185287476,1.2209239602088928,-0.7210918466250101,2.1728199243545534,48.32419891357422,-11.93769998550415,0.8312094074984392,1.116407111287117,2.055612474679947,-253.45377502441406,143.1791961669922,-145.06409912109376,4.067630887031555,8.297086477279663,-5.16579540570577,1.3239288330078125,-0.5766702890396118,-1.9503498872121174,-0.07266750341902173,0.04475857689976692,0.12970706323782588,-2.0505850116411843,-9.176017761230469,2.6998180150985718
10.0,4.547459592421849,-23.63261327147484,3.251048356294632,0.0,0.0,1.2724812626838684,23.364500045776367,0.6281169354915619,181.65882873535156,19.699999809265137,-122.75006880000001,49.1929443,0.7380069375038147,-0.6590600132942199,-0.011713229212909858,0.13414518684148785,-0.9596237540245056,1.3419826745986938,-1.9739225149154662,-14.947439885139465,47.16519966125488,-6.28665988445282,0.983004343509674,0.6508464127779007,4.138214921951294,-270.57403564453125,142.02019805908202,-139.41305694580078,3.3093898544708886,-14.247546593348185,0.9723109602928162,5.698985755443573,-23.404676914215088,2.542373960465193,0.8487463438262542,1.1481211955348651,2.8704557716846466,1.3047519654035569,-9.52163791656494,1.6915009260177611
10.1,-3.827219973007838,-15.85095477104187,5.494219958782196,0.0,0.0,1.256681203842163,23.66433334350586,0.6258516907691956,181.57742309570312,19.899999618530273,-122.7500698,49.19293933333333,0.8408103684584299,-0.5235630919535955,-0.021224392189954717,0.11665495485067362,-0.20637149363756177,1.0960732797781627,-2.7348942359288535,-32.15797882080078,38.91433906555176,-1.550619974732399,0.732580146441857,-1.6367879509925842,3.5773032506306968,-287.7845703125,133.76933898925782,-134.67701873779296,-8.391257286071777,-7.389079888661702,3.833778659502665,-4.134498526652654,-19.948663155237835,6.929714202880859,0.49910697817915317,-0.5247332461629852,2.3882054537534714,4.384764671325684,-8.650193055470785,1.0136435131231945
10.2,4.6478403887965465,-2.4854357567700474,-0.17913540655916388,0.0,0.0,1.2408811450004578,23.96416664123535,0.6235864460468292,181.4960174560547,20.09999942779541,-122.7500708,49.19293436666666,0.8693255384763082,-0.473546822865804,0.10820241179317232,0.06217341125011439,-0.44657045354445773,0.949341336886088,-2.764570474624634,-37.59246988296509,32.48066940307617,-11.535709857940674,0.18122335616499183,-0.12993613630533218,-0.6147468114892641,-293.2190643310547,127.33566856384277,-144.66210708618163,-0.21309377930381082,5.338514371351763,-3.3681442737579346,2.8067311296860376,-3.4476586182912192,-0.2327019969622294,0.1494676125320521,-2.197587687860836,1.9059551358222961,5.086975733439128,-7.902955373128255,2.5691340068976083
10.3,-3.6882460672747,-4.296806977553802,3.798619571057233,0.0,0.0,1.2250810861587524,24.263999938964844,0.6213212013244629,181.41461181640625,20.299999237060547,-122.7500718,49.1929294,0.8568194250265757,-0.5004523615042369,0.05702871009707449,0.06780173107981675,-0.3129533432579289,1.0244082768758138,-2.814458656311035,-36.16720461845398,35.0490743637085,-7.064104883372783,0.6575251934118569,1.1448352985084056,-1.2186163497467835,-291.7937973022461,129.90407314300538,-140.19050254821775,-8.155563047437957,3.9768161195697207,1.4223739703496303,-4.660944163302581,-3.557927850882212,4.150709853569666,0.8005134463310242,1.6601281364758809,-1.377857506275177,4.678890689214071,-8.31002327601115,1.7850508747001488
10.4,-12.024332523345947,-6.108178198337555,7.77637454867363,0.0,0.0,1.2266053915023805,24.1939998626709,0.6234435439109802,181.29129943847656,20.299999237060547,-122.75007272,49.192922839999994,0.8443133115768433,-0.5273579001426697,0.005855008400976658,0.07343005090951912,-0.17933623297140003,1.0994752168655395,-2.8643468379974366,-34.74193935394287,37.61747932434082,-2.5924999088048937,1.133827030658722,2.4196067333221434,-1.822485888004303,-290.3685302734375,132.47247772216798,-135.7188980102539,-16.0980323155721,2.6151178677876787,6.212892214457194,-12.128619456291199,-3.6681970834732054,8.534121704101562,-0.012570174580270654,1.0957210153115517,-2.4666298817504533,4.2708056449890135,-8.717091178894043,1.0009677425026893
10.5,-3.217249780893326,-26.002803802490234,3.4231321016947427,0.0,0.0,1.2281296968460083,24.123999786376952,0.6255658864974976,181.16798706054686,20.299999237060547,-122.75007364,49.19291628,0.6954310437043508,-0.7041051586469015,-0.0006880120684703665,0.11538571243484809,-1.414051844427983,1.343771239121755,-1.5619999170303345,-14.311819744110107,47.91549911499023,-3.746619939804077,-2.5035803516705832,-1.0829622745513916,-5.202866514523824,-269.93841247558595,142.77049865722657,-136.87301788330078,-2.7112635523080826,-16.645823796590168,0.9469890594482422,-3.666701634724935,-25.22015126546224,5.9667026201883955,-0.8256537954915654,0.5313138941472227,-3.55540225722573,-0.017589968939622207,-9.517762819925943,1.7072059214115143
10.6,12.144970695177713,-6.234898229440053,-2.352543463309606,0.0,0.0,1.2296540021896363,24.05399971008301,0.6276882290840149,181.0446746826172,20.299999237060547,-122.75007456,49.192909719999996,0.555568257967631,-0.8146084845066071,0.045737166578570944,0.15693390866120652,-2.3954328695933023,1.1006531516710918,-0.5841332773367564,5.332619869709015,48.701179122924806,-11.735179710388184,-0.6538803403576215,0.662992405394713,-1.181871583064397,-250.29397735595703,143.5561782836914,-144.8615753173828,15.38327157497406,2.225923220316569,-6.085803667704265,12.801002939542135,-7.718747238318126,-3.1359935303529105,-0.32476049678569485,0.5073241432282058,-1.4050033393908632,-3.2447938124338784,-8.701353391011557,3.1267677942911782
10.7,0.7462343736128375,-18.143795399503276,3.4340811534361406,0.0,0.0,1.231178307533264,23.98399963378906,0.6298105716705322,180.9213623046875,20.299999237060547,-122.75007547999999,49.19290316,0.7039894958337148,-0.6797968993584315,0.01999016417539675,0.16669665587445096,-1.3597870965798695,1.227575530608495,-1.5707259128491085,-12.856969931721688,46.83518905639649,-8.879769849777222,0.7498880078395208,-0.2803235092045118,3.65282142162323,-268.4835624694824,141.69018783569337,-142.00616760253905,0.16629951650446112,-9.083156802437522,0.21855003183538296,0.4482055629293124,-17.647166540225346,3.036541690429052,0.17613280192017558,0.48333439230918884,0.7453955784440041,0.6294993273913861,-9.180136680603027,2.6894686818122864
10.8,-1.6961260158004183,-10.717411865113359,2.4747677328008595,0.0,0.0,1.232702612876892,23.913999557495117,0.6319329142570496,180.7980499267578,20.299999237060547,-122.7500764,49.1928966,0.7878453264633815,-0.5718708818157514,0.07419825799006499,0.11611227362106238,-0.9261933008829752,1.0739711175362268,-2.1575769638021787,-25.013354732096197,39.860144233703615,-10.073234891891481,0.47940195972720784,-1.8542495984972143,3.549982261657715,-280.639945602417,134.71514320373535,-143.19963302612302,-4.427851848530047,-2.3218446464249576,-0.863603221647667,-1.8815213116506733,-10.601330901185671,2.1785104403893154,0.40228022386630374,-0.9486482838789622,4.239506681760152,2.891791718825698,-8.478196859359741,2.8139221012592315
10.9,-4.138486405213674,-3.2910283307234445,1.5154543121655781,0.0,0.0,1.232702612876892,23.930399703979493,0.630597984790802,180.71324768066407,20.299999237060547,-122.75007682,49.19289352,0.8717011570930481,-0.4639448642730713,0.12840635180473323,0.06552789136767381,-0.4925995051860809,0.9203667044639587,-2.744428014755249,-37.1697395324707,32.88509941101074,-11.266699934005738,0.20891591161489487,-3.428175687789917,3.4471431016921996,-292.79632873535155,127.74009857177734,-144.39309844970703,-9.022003213564554,4.439467509587606,-1.945756475130717,-4.211248186230659,-3.555495262145996,1.320479190349579,0.379401697128108,-1.1451166662189995,2.4095672488664137,5.15408411026001,-7.776257038116455,2.9383755207061766
11.0,-1.5446667714665334,4.448157409826915,0.8150551915168762,0.0,0.0,1.232702612876892,23.94679985046387,0.6292630553245544,180.6284454345703,20.299999237060547,-122.75007724,49.19289044,0.8689138889312744,-0.45362913111845654,0.18985353161891297,0.034409463095168215,-0.6165514091650645,0.8892405927181244,-2.7595529556274414,-37.546718978881835,29.969299125671387,-16.805499744415282,0.4792237828175227,0.5883396118879318,-2.1490239103635154,-293.1733123779297,124.82429656982421,-149.93190002441406,-6.080862522125244,12.093336979548136,-3.257258097330729,-3.8551363150278726,6.496712855684261,0.7134599635998408,0.3565231703899123,-1.341585048559037,0.579627815972675,4.968353986740112,-7.58583386739095,3.665463447570801
11.1,-0.651326322555542,-18.757097244262695,2.0666809558868406,0.0,0.0,1.232702612876892,23.96319999694824,0.6279281258583069,180.54364318847655,20.299999237060547,-122.75007766,49.19288736,0.8576057950655619,-0.49690600236256915,0.12029438093304629,0.04740324926873044,-0.49084802468617755,0.9992956717809042,-2.7583699226379395,-34.51501960754395,34.68703918457031,-11.14347972869873,1.103528070108344,0.9753226864462098,0.6922375659147898,-290.14161376953126,129.54203872680665,-144.2698776245117,-5.065381050109863,-10.601562118530273,-1.1142030715942384,1.5528419017791748,-16.23400568962097,2.649751984824737,0.18223220200249643,0.2660838729123389,-1.0217392424290832,4.6160017649332685,-8.241071859995523,2.607638398806254
