time,TotalAcceleration_z,TotalAcceleration_y,TotalAcceleration_x,Location_bearingAccuracy,Location_speedAccuracy,Location_verticalAccuracy,Location_horizontalAccuracy,Location_speed,Location_bearing,Location_altitude,Location_longitude,Location_latitude,Orientation_qz,Orientation_qy,Orientation_qx,Orientation_qw,Orientation_roll,Orientation_pitch,Orientation_yaw,Magnetometer_z,Magnetometer_y,Magnetometer_x,GyroscopeUncalibrated_z,GyroscopeUncalibrated_y,GyroscopeUncalibrated_x,MagnetometerUncalibrated_z,MagnetometerUncalibrated_y,MagnetometerUncalibrated_x,Accelerometer_z,Accelerometer_y,Accelerometer_x,AccelerometerUncalibrated_z,AccelerometerUncalibrated_y,AccelerometerUncalibrated_x,Gyroscope_z,Gyroscope_y,Gyroscope_x,Gravity_z,Gravity_y,Gravity_x
3.1,2.7906296253204337,-32.320931625366214,-0.5057231426239014,0.0,0.0,1.2773511409759524,8.547400093078613,0.037256951257586435,53.60819091796875,27.274217114378445,-122.75001788,49.192116860000006,-0.30729188323020934,-0.03323650807142252,-0.7688752293586731,0.5533320009708405,-1.893487286567688,0.9760273456573486,2.30291953086853,34.82123908996582,26.698479461669923,-27.700099182128906,-2.159281392892202,-1.433777131140232,-5.444260040918986,-220.80535888671875,121.55347747802735,-160.82649841308594,6.445103665192922,-11.470486839612326,-1.4474057356516523,0.902194082736969,-28.69263521830241,1.423231065273285,-2.097955560684204,-1.8266398191452027,-5.434348773956299,0.05313481887181607,-7.407495419184367,6.253083388010661
3.2,5.887440514905999,-12.30882915854454,0.784048154950142,0.0,0.0,1.2861608266830447,8.58479995727539,0.06782491514459248,107.2163818359375,26.88066254968154,-122.75001856,49.19211672,-0.24980473021666205,-0.051911308818186265,-0.5437079817056656,0.7863848606745402,-0.8224682112534841,0.9844829539457957,1.113019327322642,33.25353927612305,23.93578944206238,-30.35847911834717,1.0917561997969945,0.8305985531769693,3.7257943799098334,-222.37305603027343,118.79078750610351,-163.48487701416016,-14.824480017026266,-6.920880397160848,6.097175200780232,4.544187784194946,-11.389726907014847,-0.6028825044631955,1.0544170398886006,0.6451882210870584,3.560529892643293,5.1478350559870405,-6.3186131318410235,5.110100666681926
3.3,-1.894567210304861,-12.774257903297741,5.995715710024039,0.0,0.0,1.2949705123901367,8.622199821472169,0.09839287903159852,160.82457275390624,26.487107984984632,-122.75001924,49.192116580000004,-0.15190622458855307,-0.2821880280971527,-0.3531010200579961,0.8778727054595947,-0.7991576989491781,0.5639998614788055,0.5878290633360544,13.33459976911545,34.25119416713714,-26.827799320220947,1.2568794230620066,-1.1865573887247591,6.103035053114096,-242.29199600219727,129.10619316101074,-159.9541976928711,-16.41045093536377,6.044924068450928,-7.19574556350708,-2.271377881368001,-16.278517519434295,6.273536831140518,0.990397107321769,-1.317502680545052,5.873443854351839,5.520883941650391,-3.238908290863037,7.409556484222412
3.4,-9.676574935515722,-13.239686648050943,11.207383265097937,0.0,0.0,1.303780198097229,8.659599685668946,0.12896084291860455,214.432763671875,26.093553420287726,-122.75001992,49.19211644,-0.18381968874371407,-0.2037289409093897,-0.4811553817355272,0.8044288050044667,-1.0293399411620516,0.7680552832104943,0.9899008296655887,-6.584339737892151,44.566598892211914,-23.297119522094725,1.4220026463270188,-3.2037133306264876,8.480275726318359,-262.21093597412107,139.42159881591797,-156.42351837158202,-11.412807658314705,0.6809304992357887,-2.1315937419732407,-9.086943546930948,-21.16730813185374,13.149956166744232,0.9263771747549375,-3.280193582177162,8.186357816060385,4.150740166008473,-4.956617752710978,6.7964237610499065
3.5,-10.889496755599975,2.8058238208293913,0.21391830444335938,0.0,0.0,1.3125898838043213,8.696999549865723,0.1595288068056106,268.04095458984375,25.69999885559082,-122.7500206,49.1921163,-0.2157331528988751,-0.12526985372162672,-0.6092097434130582,0.7309849045493386,-1.259522183374925,0.9721107049421831,1.3919725959951228,-18.651359367370606,37.601618957519534,-29.94733943939209,-0.17300214370091757,-1.5391513605912526,-0.34969494740168255,-274.2779571533203,132.4566177368164,-163.07373504638673,-6.41516438126564,-4.68306306997935,2.932558079560598,-7.009774004419644,7.463513096173604,-0.39012977480888394,-0.0026267368346452715,-0.8477893531322479,-1.1665999114513397,2.7805963903665543,-6.674327214558919,6.1832910378774
3.6,5.367300728956859,-12.464412351449331,10.524232218662897,0.0,0.0,1.312871241569519,8.724999618530273,0.35489431619644163,268.32672729492185,25.69999885559082,-122.7500212,49.19211626,-0.28983309616645175,-0.08267929963767523,-0.8609292308489481,0.40146541098753613,-2.2916590372721353,0.7031626303990682,2.6158303022384644,-4.022339940071106,44.1261791229248,-26.45569953918457,0.47723846137523657,1.3345878620942433,-3.5969272454579673,-259.64893035888673,138.9811752319336,-159.58209838867188,10.973453044891357,-12.446860313415527,-3.0769271850585938,5.050650238990783,-13.693525989850363,11.563415010770163,0.41778093328078586,1.110705738266309,-3.6470946073532104,-3.299541453520457,-5.844481945037842,7.0315576394399
3.7,-2.481158033013344,-14.271143158276876,5.831209063529968,0.0,0.0,1.3131525993347168,8.752999687194825,0.5502598255872726,268.6125,25.69999885559082,-122.7500218,49.19211622,-0.3261346668004989,-0.06816060282289978,-0.831722358862559,0.439649631579717,-2.145801226298014,0.7599505484104156,2.5473152001698813,28.736489260196684,30.10715937614441,-26.723489475250243,-1.0841076374053955,1.0121782918771107,-4.9474612300594645,-226.89010620117188,124.962158203125,-159.84988708496093,3.1648934483528137,0.23826257387797037,-13.300813714663187,-0.9617516086860136,-14.249095725742253,6.230420697819103,-1.0440068741639454,1.0564532329638798,-5.143561753133933,-1.8054409623146057,-6.4741653601328535,7.0962174733479815
3.8,-0.5608180413643522,-10.253618886073431,-0.18664016326268573,0.0,0.0,1.3134339570999145,8.780999755859375,0.7456253349781036,268.8982727050781,25.69999885559082,-122.7500224,49.19211618,-0.2252887313564618,-0.1145397250850995,-0.6647283534208933,0.6937398314476013,-1.4047824541727703,1.034101168314616,1.5676572521527607,31.74287431836128,26.391039490699768,-29.491974401473996,0.3156926095485688,0.07307731310526533,-0.7495481761793297,-223.88372116088868,121.24603729248047,-162.61837158203124,-1.79901237487793,-31.74149971008301,13.276300144195556,-0.03596034081596322,-9.807001755375301,-0.7472540790384468,0.2550171514352162,0.08444574226935697,-0.7595600845913095,2.017526629567146,-7.287995529174805,6.038696384429931
3.9,1.3595219502846396,-6.236094613869985,-6.204489390055339,0.0,0.0,1.3137153148651124,8.808999824523926,0.9409908443689345,269.1840454101563,25.69999885559082,-122.750023,49.19211614,-0.1457594749376629,-0.18282891618031438,-0.5446504742810221,0.7782879065383564,-1.0933357973893485,0.9073160706144391,1.0315733421029467,34.74925937652588,22.674919605255127,-32.26045932769775,1.715492856502533,-0.8660236656665802,3.4483648777008056,-220.87733612060546,117.52991638183593,-165.38685607910156,-5.418294266859691,-12.866691176096598,5.086535102128982,0.8898309270540873,-5.364907785008351,-7.724928855895996,1.554041177034378,-0.8875617484251658,3.6244415839513144,3.3690658822655677,-6.370941575368246,6.272480634848277
4.0,0.2185840606689446,-39.02968902587891,19.315103816986085,0.0,0.0,1.31399667263031,8.836999893188477,1.1363563537597656,269.4698181152344,25.69999885559082,-122.7500236,49.1921161,-0.06623021851886399,-0.2511181072755293,-0.42457259514115075,0.8628359816291116,-0.7818891406059265,0.7805309729142622,0.4954894320531325,12.72703971862793,42.23029899597168,-25.149079513549804,1.2389874160289764,0.36613738536834717,7.279579242070516,-242.8995559692383,137.0852958679199,-158.27547912597657,-9.037576158841452,6.0081173578898115,-3.1032299399375916,-0.031206289927164715,-36.25614865620931,17.297914028167725,1.1956770569086075,0.7387193441390991,7.523233032226562,4.720605134963989,-5.4538876215616865,6.506264885266622
4.1,-18.283956964810688,7.318647642930348,-0.1874377429485321,0.0,0.0,1.3114755153656006,8.91279993057251,1.280515718460083,275.97752380371094,25.830619324859526,-122.75002506000001,49.19211771,-0.11612838941315805,-0.14909594133496282,-0.5673251499732336,0.7888736724853516,-1.0052273273468018,1.0588052074114482,0.9524781803290049,-17.28617959022522,43.23191909790039,-21.94657955169678,0.30082570016384125,-3.2321897198756537,5.028897225856781,-272.91277465820315,138.0869171142578,-155.0729766845703,-14.576024770736694,-1.3864800135294593,7.265458981196086,-18.626927932103474,9.71824985742569,-1.7065810859203339,0.4423682490984599,-3.1912109653155007,5.5186583797136946,3.03028712173303,-7.429283698399861,5.25936500231425
4.2,-0.9477568864822388,-7.513263652722041,9.759326706329981,0.0,0.0,1.3089543581008911,8.988599967956542,1.4246750831604005,282.4852294921875,25.961239794128232,-122.75002652,49.19211932,-0.1787971009810765,-0.054526926794399765,-0.8475730319817861,0.4865826318661372,-2.4537134567896524,0.9476902981599172,2.638839840888977,-2.893839830160141,46.636939430236815,-20.242239665985107,1.1981705400076779,1.9158399877223102,-4.6818794933232395,-258.520433807373,141.49193954467773,-153.3686378479004,3.4030473709106444,-24.001210975646973,-1.1900570869445801,-1.3238291306929149,-8.716182762926275,11.544988748702137,1.1443542490402858,1.526654024918874,-5.136956669390202,-2.9620004415512087,-7.582896900177002,5.243989372253418
4.3,-0.2533200860023499,-19.548782776792844,6.90668322344621,0.0,0.0,1.3064332008361816,9.064400005340577,1.5688344478607177,288.99293518066406,26.091860263396942,-122.75002798,49.19212093,-0.29938971996307373,-0.06356368431200578,-0.8651346762975057,0.3916358103354772,-2.300938924153646,0.6972908675670624,2.670987367630005,17.209319785237312,38.924709510803225,-19.248549604415892,-0.584338870012399,0.47696543123685964,-5.861725187662876,-238.41727485656736,133.7797088623047,-152.3749485015869,6.767456928888957,1.30414875348409,-12.765024423599243,-0.27432719685814555,-17.732524223399885,7.914419622358048,-0.8771922821799916,0.30423124829928083,-5.7923960097134115,-3.430835008621216,-6.022802273432414,6.838692903518677
4.4,0.4411167144775391,-31.584301900863647,4.054039740562439,0.0,0.0,1.3039120435714722,9.14020004272461,1.7129938125610351,295.5006408691406,26.222480732665648,-122.75002944,49.19212254,-0.24111461597071449,-0.06869062746056548,-0.7628487908478939,0.5413927271059065,-1.8455972201896436,0.8646250895478509,2.1104948791590603,37.312479400634764,31.21247959136963,-18.25485954284668,-2.366848280032476,-0.9619091252485911,-7.041570882002513,-218.31411590576172,126.06747817993164,-151.38125915527343,-0.054947326580683686,-6.32155462106069,-5.868465532859166,0.7751747369766235,-26.748865683873493,4.283850496013959,-2.8987388134002687,-0.9181915283203125,-6.4478353500366214,-0.7456959709525108,-6.6817236344019575,6.077680170536041
4.5,3.336691459019979,-4.718845546245575,-5.926223834355672,0.0,0.0,1.3013908863067627,9.216000080108643,1.8571531772613525,302.0083465576172,26.353101201934354,-122.75003090000001,49.192124150000005,-0.18283951197835527,-0.07381757060912518,-0.6605629053982821,0.6911496438763358,-1.3902555162256414,1.0319593115286394,1.550002390688116,40.02819938659668,19.26257953643799,-28.69927978515625,0.48204900821050006,3.694385752081871,0.7543931032220522,-215.59839630126953,114.11757736206054,-161.82567596435547,-6.8773515820503235,-13.947257995605469,1.0280933578809102,1.0449656248092651,-4.781258503595988,-8.311270078023275,0.28224522372086835,3.8780271410942078,0.48497607621053856,1.9394430667161942,-7.340644995371501,5.316667437553406
4.6,0.47278183698654175,-22.02872435251872,0.5097708900769552,0.0,0.0,1.298869729042053,9.291800117492675,2.0013125419616697,308.51605224609375,26.48372167120306,-122.75003236,49.19212576,-0.0011045674279254165,-0.2608287458618482,-0.35974183678627014,0.8934077123800913,-0.669812281926473,0.698135644197464,0.2618169859051704,27.783059501647948,35.78259906768799,-24.336559104919434,1.8191312570124865,-2.0373628040154776,6.101271152496338,-227.84353485107422,130.6375991821289,-157.46295623779298,-11.958779136339823,12.95469363530477,-5.970514376958211,3.4308089911937714,-24.935405393441517,3.153839866320292,2.0056487758023045,-2.1306470756729445,5.940079053243001,5.2078588008880615,-5.1173095703125,6.393737236658732
4.7,-8.549655000368753,-6.355137546857198,6.301648010810216,0.0,0.0,1.2963485717773435,9.367600154876708,2.1454719066619874,315.0237579345703,26.614342140471766,-122.75003382,49.19212737,-0.020380924281198518,-0.1935252783199151,-0.5292852222919464,0.8241344292958578,-0.7573430438836416,1.0490559538205464,0.5024628142515818,-12.877099849283695,45.00518913269043,-18.528139638900758,1.0353193946860053,-2.534646510231224,3.347305579618974,-268.50369491577146,139.86018753051758,-151.65453643798827,0.04948091506958008,-12.493486595153808,10.504021739959716,-12.802036252888767,-5.614105723120949,5.884222908453508,1.1527281552553177,-2.14126085738341,2.899115631977717,3.749534034729004,-7.3514350891113285,5.298072338104248
4.8,-2.3752853592236836,-13.10012598435084,11.051924259463945,0.0,0.0,1.293827414512634,9.443400192260743,2.2896312713623046,321.5314636230469,26.744962609740476,-122.75003528,49.19212898,-0.12571678558985386,-0.005020940986772383,-0.772790273030599,0.6028830458720525,-2.097335467735926,1.174537181854248,2.272838979959488,-7.999539900571108,47.236264038085935,-16.409609723091126,0.7943816318204908,0.49465391578886564,0.42957484406052204,-263.62613182067867,142.09126091003418,-149.53600616455077,-21.669663429260254,4.597029368082683,-0.4654699166615804,-3.1479759649796915,-12.49868247996677,11.433092476743639,0.6053343743085862,0.4915810639659566,0.5099249174197515,-0.13749529918034872,-8.632232983907064,3.711426059405009
4.9,3.799084281921387,-19.84511442184448,15.802200508117675,0.0,0.0,1.2913062572479246,9.519200229644776,2.433790636062622,328.03916931152344,26.875583079009182,-122.75003674000001,49.192130590000005,-0.18975968884699268,-0.0333772044995743,-0.8236839762239745,0.5016128120548797,-2.2494267870982485,0.9551153751936825,2.4864833991635926,-3.1219799518585205,49.467338943481444,-14.291079807281495,0.5534438689549764,3.5239543418089547,-2.48815589149793,-258.7485687255859,144.32233428955078,-147.41747589111327,-6.915227373441061,-1.9341429869333906,-4.284994473059973,6.506084322929382,-19.38325923681259,16.98196204503377,0.0579405933618546,3.1244229853153227,-1.879265797138214,-1.843570257226626,-7.582718094189962,4.968710998694102
5.0,-21.80708901087443,-4.035395860671997,3.2460633665323257,0.0,0.0,1.288785099983215,9.595000267028809,2.5779500007629395,334.546875,27.006203548277888,-122.7500382,49.1921322,-0.2538025921041315,-0.06173346801237622,-0.8745776794173501,0.40034257823770697,-2.4015181064605713,0.7356935685331171,2.7001278183676978,23.415459501743317,41.74961910247803,-11.892559719085693,-0.6861543556054434,2.422615170478821,-9.030090113480886,-232.2111373901367,136.60461883544923,-145.01895904541016,7.839208682378133,-8.465315341949463,-8.104519029458364,-20.12244176864624,-7.0399834016958875,0.8330013665060202,-0.36967534323533374,2.7521515687306723,-9.284031867980957,-3.5496452152729034,-6.533203204472859,6.225995937983195
5.1,7.038088142871857,-24.896721323331196,3.9784664312998452,0.0,0.0,1.2905286451180773,9.76241691907247,2.7344871759414673,335.57850646972656,26.948989580618527,-122.75003979166667,49.19213705,-0.16598460823297495,-0.09879779691497481,-0.7193536261717478,0.653767873843511,-1.6796695987383525,1.1227662165959675,1.7788940370082855,44.172539138793944,20.46793975830078,-20.742439651489256,-1.810579148431619,2.2755747735500336,-2.015753423174222,-211.4540557861328,115.3229377746582,-153.86883850097655,3.492769706249237,-32.62301406860352,13.881795597076415,19.2449942111969,-21.604676294326783,5.884668779373169,-2.120160534977913,2.0809633126482368,-2.0587686399618783,0.5225558042526245,-8.073919486999511,5.341555118560791
5.2,2.665821899067272,-21.28089462627064,4.518682393160733,0.0,0.0,1.2922721902529397,9.929833571116129,2.891024351119995,336.6101379394531,26.89177561295917,-122.75004138333334,49.1921419,-0.009468816919252282,-0.21005628133813536,-0.41769642134507495,0.8765719830989838,-0.6102285285790762,0.8307604491710663,0.29797964294751483,27.949589347839357,32.661839199066165,-24.694629383087157,1.3275628780776805,-1.2030019313097,5.20391938903115,-227.6770050048828,127.51683807373047,-157.82102584838867,-29.201663335164387,10.423532406489054,-8.08558718363444,-0.8655038972695669,-21.434905166427296,4.085096796353658,1.2622558203610508,-1.1487598595294086,4.996322371742942,5.049438397089641,-6.21665898958842,5.418878555297852
5.3,-10.743166352763321,-8.537106448953802,0.9260404992735749,0.0,0.0,1.294015735387802,10.09725022315979,3.047561526298523,337.6417694091797,26.834561645299807,-122.750042975,49.192146750000006,0.013372750099127485,-0.2629603296518326,-0.47231950362523395,0.8389698565006256,-0.8090523580710093,0.9311639666557312,0.3930654674768448,6.492534950375557,39.072939062118536,-20.517044591903684,0.509219800206748,-2.443845070898533,5.620512213896621,-249.1340591430664,133.92793655395508,-153.6434413909912,0.33411574363708435,4.3241346677144366,-1.7313912709554036,-12.722089742620787,-7.087590557833513,0.4132355997959771,0.5907090059058233,-2.401210624837514,5.734448869119991,3.9567433993021646,-6.398121198018392,6.164685885111491
5.4,-24.152154604593914,4.206681728363037,-2.666601394613584,0.0,0.0,1.2957592805226643,10.264666875203451,3.204098701477051,338.67340087890625,26.777347677640446,-122.75004456666667,49.1921516,-0.021836215506702866,-0.1772516752085225,-0.597435224236864,0.7381244708191265,-1.3611123421878526,1.006917110898278,1.1275663870302113,-14.964519447088241,45.4840389251709,-16.339459800720213,-0.30912327766418457,-3.6846882104873657,6.037105038762093,-270.59111328125,140.3390350341797,-149.46585693359376,-1.836942235628764,-2.758802831172944,1.1627922852834065,-24.578675587972004,7.259724050760269,-3.2586255967617035,-0.08083780854940414,-3.65366139014562,6.47257536649704,1.742729902267456,-7.175431430339813,5.170702576637268
5.5,4.290929173429807,-2.0741784820954003,4.433401862780253,0.0,0.0,1.2975028256575265,10.43208352724711,3.3606358766555786,339.7050323486328,26.720133709981088,-122.75004615833333,49.19215645,-0.057045181112533226,-0.09154302076521241,-0.7225509448484941,0.6372790851376273,-1.9131723263046958,1.0826702551408247,1.862067306583578,-7.635979866981506,46.77967872619629,-17.67169952392578,1.8858682612578075,-0.14388423164685568,-3.232647911955913,-263.2625732421875,141.63467712402343,-150.798095703125,-4.008000214894612,-9.841740330060324,4.056975841522217,12.118549585342407,-5.176273534695308,5.502395232518514,1.879174241796136,-0.15472709139188123,-3.4146348933378854,-0.4712835947672526,-7.952741662661235,4.176719268163045
5.6,-7.983253796895345,-16.346767743428547,14.386447548866272,0.0,0.0,1.299246370792389,10.599500179290771,3.5171730518341064,340.7366638183594,26.662919742321726,-122.75004775000001,49.1921613,-0.23344743996858597,-0.03420523523042595,-0.8784834245840708,0.4085363397995631,-2.468165715535482,0.7804321944713593,2.774853308995565,1.2663599848747256,48.75729942321777,-13.644479751586914,1.6034703850746155,3.6961928804715476,-6.521953701972961,-254.3602325439453,143.61229858398437,-146.7708770751953,7.819597244262695,3.1357613563537594,-11.506415271759034,-10.624611300230026,-18.538274097442628,17.52850296497345,1.409673382838567,3.6410876090327897,-5.941937208175659,-3.6657269954681397,-6.87351713180542,5.873005390167236
5.7,1.3562411828474565,-12.195020938461477,-1.4254153587601401,0.0,0.0,1.300989915927251,10.766916831334433,3.6737102270126343,341.76829528808594,26.605705774662365,-122.75004934166667,49.192166150000006,-0.19116440663735068,-0.055996313691139166,-0.8061475356419882,0.5426628390947977,-2.206819772720337,1.0390722453594208,2.409943719704946,40.20570936203003,27.811729431152344,-15.77154961824417,-1.1305171969262036,2.1010154634714127,-2.731567241928794,-215.42088470458984,122.66672630310059,-148.8979461669922,-6.100218852361043,-18.492180665334065,-9.154131412506104,1.437189208964507,-11.224232683579126,-2.165753742059072,-1.077510733496059,2.038887733424252,-3.0839670354669746,-1.9015497403840225,-7.856492280960083,5.421021938323975
5.8,-3.322728834368966,-19.27194322374734,-2.5792090504458454,0.0,0.0,1.3027334610621133,10.934333483378092,3.830247402191162,342.7999267578125,26.548491807003007,-122.75005093333333,49.192171,-0.01055688941851258,-0.15224368572235103,-0.5596194982528686,0.8071135997772216,-0.7835727870464325,1.1169137716293336,0.5756993919610978,36.15073447227478,30.7186842918396,-18.792574697732924,0.017163235807057475,-0.47559908280770014,1.5305830994338705,-219.4758613586426,125.5736822128296,-151.9189712524414,-18.146742423375446,-9.408332904179888,8.495781183242798,-2.9385856054723263,-20.05095657209555,-0.5479814112186432,0.10775641148740589,-0.433600888051318,1.1852879894502237,3.397413690884908,-7.776926358540853,4.609501282374064
5.9,-8.001698851585388,-26.348865509033203,-3.7330027421315513,0.0,0.0,1.3044770061969757,11.101750135421753,3.98678457736969,343.83155822753906,26.491277839343645,-122.750052525,49.19217585,0.02208240685674049,-0.2288976594805717,-0.4988690972328186,0.8240223661065101,-0.8122672657171885,0.9992362067103386,0.43356657021989425,32.095759582519534,33.62563915252686,-21.81359977722168,1.1648436685403187,-3.0522136290868125,5.7927334407965345,-223.5308380126953,128.4806381225586,-154.93999633789062,-9.543198484362978,-3.3684690612735153,2.8849235339598227,-7.31436041990916,-28.87768046061198,1.0697909196217854,1.293023556470871,-2.9060895095268884,5.454543014367421,3.48150606769504,-7.071568474625096,5.535044608694134
6.0,-14.749259074529013,-17.18545154730479,13.105389940241972,0.0,0.0,1.306220551331838,11.269166787465414,4.143321752548218,344.8631896972656,26.434063871684284,-122.75005411666666,49.1921807,0.05472170313199356,-0.30555163323879236,-0.43811869621276855,0.8409311324357986,-0.8409617443879446,0.8815586417913437,0.29143374847869075,-0.8783999919891358,48.654819107055665,-12.068239784240722,0.14200071742137274,-3.4501668314139047,7.902127345403035,-256.5049987792969,143.509814453125,-145.19463806152345,-0.9396545453505089,2.6713947816328574,-2.7259341153231533,-14.381821179389954,-19.151554656028747,12.900065851211547,0.27809638778368634,-3.1886656681696572,8.055810928344727,3.5655984445051714,-6.36621059070934,6.460587935014204
6.1,-4.565007289250691,8.720043947299322,-2.440579374631246,0.0,0.0,1.3079640964667003,11.436583439509073,4.299858927726746,345.8948211669922,26.376849904024926,-122.75005570833333,49.192185550000005,-0.012462683759319268,-0.08536371433486535,-0.7098019818464915,0.6787244180838267,-1.8132888575394948,1.2512404719988506,1.7084815104802449,-12.135339832305908,45.24735984802246,-19.499259662628173,-0.22611174285411834,-2.3742804765701293,-2.2880874633789063,-267.7619354248047,140.10235900878905,-152.6256576538086,-20.45587150255839,3.5488108793894444,2.4581501483917236,-7.406184722979863,11.545568694670996,-4.778765802582105,-0.02970331410566966,-1.8643098423878353,-1.9313014236589272,0.8069387922684351,-8.71741517384847,3.556900064150492
6.2,-5.601543686606669,-11.270738211545078,8.346981075677004,0.0,0.0,1.3097076416015625,11.604000091552734,4.456396102905273,346.92645263671875,26.319635936365565,-122.7500573,49.1921904,-0.11995516344904895,-0.0636966799696286,-0.902490496635437,0.4029701948165893,-2.739309231440226,0.7952101528644562,2.8253546158472695,5.61687987446785,47.33355922698975,-11.458239662647248,1.3312281022469203,3.1434998363256454,-4.70185524225235,-250.00971374511718,142.18855667114258,-144.58463592529296,15.002877871195475,-18.888739267985027,-1.0506512324015296,-7.217351275185744,-11.087093849976858,8.31052228808403,1.3635067424990914,3.005137703635476,-4.865611179308458,-4.990081230799357,-7.177680015563965,4.251043995221456
6.3,2.2056611667979835,-18.66867531700568,5.773740523692333,0.0,0.0,1.3097076416015625,11.89360008239746,4.423259544372558,348.2405944824219,26.319635936365565,-122.75005825999999,49.19219858,-0.24186098575592035,0.00452230684459208,-0.865828025341034,0.43543197512626647,-2.450915241241455,0.8601330280303955,2.825295162200928,25.45590907633305,35.8625093460083,-12.298209673166276,-0.13479760537544894,2.2645219899713993,-3.914399042725563,-230.1706855773926,130.71750717163087,-145.42460479736326,-0.9950681726137794,2.0135948260625205,-13.400271892547607,3.5374891571700564,-17.669425199429195,6.058452471780281,-0.22967027590581868,2.0837944009990403,-4.082269024668318,-3.2849634488423667,-7.439826250076294,5.400460163752238
6.4,10.012866020202637,-26.066612422466278,3.200499971707662,0.0,0.0,1.3097076416015625,12.183200073242187,4.390122985839843,349.554736328125,26.319635936365565,-122.75005922,49.192206760000005,-0.1551590962335467,-0.04756636801175771,-0.7321756049990654,0.5952377036213875,-1.8153916368881862,0.9668655623992284,1.9762711683909098,45.294938278198245,24.391459465026855,-13.138179683685303,-1.600823312997818,1.3855441436171534,-3.1269428431987762,-210.33165740966797,119.24645767211913,-146.2645736694336,-6.3561192163915345,-4.7183521100969035,-6.66421500119296,14.292329589525858,-24.25175654888153,3.8063826554765305,-1.8228472943107288,1.1624510983626049,-3.2989268700281777,-0.29714859389897574,-7.614167787811972,4.886426333225135
6.5,-4.279962060352166,-5.42642327149709,-7.999704678853353,0.0,0.0,1.3097076416015625,12.472800064086915,4.356986427307129,350.86887817382814,26.319635936365565,-122.75006017999999,49.19221494,-0.06845720671117304,-0.0996550428681075,-0.5985231846570969,0.7550434321165085,-1.1798680325349171,1.0735980967680614,1.1272471745808919,38.88261947631836,26.587459373474122,-24.141359329223633,1.4215343693892162,0.28499410549799603,2.567008465528488,-216.7439758300781,121.44245758056641,-157.26775817871095,-11.71717026016929,-11.450299046256326,0.07184189016168768,-3.801956033706665,-4.187798547744751,-8.545726871490478,1.4264721771081288,0.8890125310669342,2.412815888722738,2.6906662610444156,-7.788509325547651,4.372392502698031
6.6,-0.14546344677607248,-40.78825410207113,10.58365394671758,0.0,0.0,1.3097076416015625,12.762400054931641,4.323849868774414,352.1830200195312,26.319635936365565,-122.75006114,49.19222312,0.04845632550617055,-0.22281861305236814,-0.4958895742893219,0.8341782490412394,-0.6891061365604401,1.022852897644043,0.28622991840044654,21.753819751739503,43.246559143066406,-16.217459678649902,0.5707313597202301,-0.6290384829044343,7.26312665939331,-233.87277526855468,138.1015594482422,-149.34385681152344,-4.759268283843994,10.07238245010376,-3.8103350003560386,0.6632107297579447,-39.19792381922404,9.992826481660208,0.8816821823517481,-0.9631054053703944,7.314653158187866,4.01064399878184,-7.1236350536346436,5.189789692560832
6.7,-9.355392824519765,4.617440632798455,-0.5760720318013969,0.0,0.0,1.3097076416015625,13.052000045776367,4.290713310241699,353.4971618652344,26.319635936365565,-122.7500621,49.1922313,0.0015553670935332803,-0.17232805490493772,-0.553345549106598,0.8097396612167358,-0.7179381847381592,1.1311837911605835,0.4632782518863678,-9.56357982903719,48.336398887634275,-12.700199747085572,1.1602621761461098,-1.9368118830025196,1.261322245001793,-265.1901725769043,143.19139709472657,-145.82659606933595,-7.981399218241374,-15.872594038645426,13.54430890083313,-8.076623797416687,2.2665514250596366,0.24132618928949037,1.073651210828261,-1.916409289295023,0.76585838469592,3.221706827481588,-8.048560857772827,4.478622833887736
6.8,-7.057507858131871,-9.651953373442996,8.72348371915745,0.0,0.0,1.3024362087249757,13.338800048828125,4.272881889343262,354.4647521972656,26.369405238769104,-122.75006134,49.19223308,-0.08811977505683898,-0.006253825883807917,-0.8084877928098043,0.5710054387648901,-2.511791229248047,1.182362973690033,2.6306453943252563,-4.57621990237385,49.38498907089233,-12.508659720420837,0.5873723768939574,0.8105354364961386,-1.217028084967751,-260.2028133392334,144.2399871826172,-145.6350555419922,-11.218462387720743,-9.065468788146973,-5.572482744852702,-4.491991078853607,-12.51442744632562,10.211255812769133,0.43674553625962953,0.7259508741624427,-1.1744081064861156,-2.55549219250679,-8.652093648910522,3.331995407740275
6.9,-4.759622891743978,-23.92134737968445,18.0230394701163,0.0,0.0,1.2951647758483886,13.625600051879882,4.255050468444824,355.4323425292969,26.419174541172648,-122.75006058,49.19223486,-0.14516278201093274,-0.012386524921263712,-0.8396490787466367,0.5042846848567327,-2.5124626259009046,1.0210518538951874,2.711171170075734,0.4111400242894888,50.43357925415039,-12.317119693756103,0.014482577641805014,3.5578827559947968,-3.695378414937295,-255.2154541015625,145.2885772705078,-145.44351501464843,-1.9035606312029287,-5.389710263772445,-6.86720582933137,-0.9073583602905273,-27.295406317710878,20.18118543624878,-0.20016013830900192,3.368311037619909,-3.114674597668151,-3.1304550211537965,-7.987847772511569,4.244351932496736
7.0,-13.773884773254395,-17.71775460243225,-2.2403799692789717,0.0,0.0,1.2878933429718018,13.912400054931641,4.237219047546387,356.3999328613281,26.468943843576188,-122.75005982,49.192236640000004,-0.2022057889650265,-0.018519223958719508,-0.8708103646834692,0.4375639309485753,-2.513134022553762,0.8597407341003418,2.7916969458262124,32.358059597015384,38.60201988220215,-10.361459493637085,-2.1260248124599457,1.019320310652256,-6.907603168487549,-223.26853637695314,133.4570182800293,-143.48785705566405,7.411341125314886,-1.713951739397916,-8.161928913810037,-16.171592712402344,-12.73380454381307,-4.032205263773601,-1.5203163400292397,0.2170353246231874,-7.848040421803792,-3.7054178498008032,-7.323601896112615,5.156708457253196
7.1,10.051949143409729,-4.247559249401093,1.4001003901163738,0.0,0.0,1.2806219100952148,14.199200057983399,4.219387626647949,357.3675231933594,26.51871314597973,-122.75005906,49.19223842,-0.06964902090840037,-0.13228597429891426,-0.6220553467671076,0.755643626054128,-1.1957751611868541,1.1508251031239827,1.1040338228146236,44.144478988647464,23.41911964416504,-20.029959869384765,-0.19680042440692583,2.8531224727630615,-1.7078010042508442,-211.48211669921875,118.27411727905273,-153.15635681152344,-5.572928349177043,-27.6324520111084,12.159506519635519,14.29352617263794,-7.4104719161987305,4.197309931119283,-0.2630284056067467,3.394985427459081,0.22757274905840563,1.7012713647757967,-8.156504154205322,4.758041302363078
7.2,-3.8886631293730303,-26.242249163714323,5.459007263183594,0.0,0.0,1.273350477218628,14.486000061035156,4.201556205749512,358.3351135253906,26.56848244838327,-122.7500583,49.1922402,0.07022109851241107,-0.25986997485160823,-0.3891324520111084,0.8780312299728393,-0.6233572542667389,0.8070374727249146,0.1127883024513721,22.939659199118616,38.34154920578003,-20.03544955253601,0.6195827859143416,-2.2186116377512612,6.236755967140198,-232.6869354248047,133.19654693603516,-153.1618453979492,-24.674702326456707,17.57125512758891,-12.124590794245401,-4.025126491983731,-24.757837772369385,4.888935536146164,0.5516946315765381,-2.298880251971158,6.483668305657127,4.791173020998637,-6.286810636520386,5.668747901916504
7.3,-11.886061110279776,-7.478998417768516,-0.49836426973342896,0.0,0.0,1.273350477218628,15.112800216674804,4.202035045623779,286.88219318389895,26.56848244838327,-122.75005838,49.19224904,0.0707739243904749,-0.2553973545630773,-0.5288006315628687,0.8045189877351125,-0.8253316481908163,1.0961865087350209,0.3449087490638097,3.4568697378039346,42.31112399101257,-17.137034630775453,0.3258011508733034,-2.973793824513753,3.2892929911613464,-252.1697235107422,137.16612243652344,-150.26343154907227,4.65854811668396,-1.7675447463989258,3.6773117780685425,-13.487882440785569,-5.312973451614379,-1.3271590620279312,0.323138472934564,-3.121122224990166,3.707618911157955,2.650059620539347,-7.954002857208252,5.042425235112508
7.4,-19.883459091186523,11.284252328177294,-6.455735802650452,0.0,0.0,1.273350477218628,15.739600372314452,4.202513885498047,215.42927284240722,26.56848244838327,-122.75005846,49.19225788,0.004768736534363896,-0.15472621645312754,-0.6573175638914108,0.6893411614000797,-1.5353133554259935,1.0962391818563142,1.0398550666868687,-16.025919723510743,46.28069877624512,-14.238619709014893,0.032019515832265255,-3.728976011276245,0.3418300151824951,-271.6525115966797,141.1356979370117,-147.36501770019532,0.9827487468719482,-5.489323811097578,3.5063245567408474,-22.950638389587404,14.131890869140625,-7.543253660202026,0.09458231429258983,-3.943364198009173,0.931569516658783,0.3465669421535549,-8.165221972899005,4.257198817802198
7.5,7.308677439888318,-9.721739411354065,8.719844619433085,0.0,0.0,1.273350477218628,16.366400527954102,4.202992725372314,143.9763525009155,26.56848244838327,-122.75005854,49.19226672,-0.0612364513217471,-0.05405507834317779,-0.7858344962199529,0.5741633350650469,-2.245295062661171,1.0962918549776077,1.7348013843099277,-0.18544003367424014,50.12247924804687,-10.829939556121825,2.057302463054657,1.7171116828918458,-1.9443229287862778,-255.8120346069336,144.97747650146485,-143.95633697509766,-2.6930506229400635,-9.21110287579623,3.3353373354131524,8.310671846071878,-7.9164543350537615,9.126425114770731,1.768302212158839,0.9836712181568146,-1.9229019284248352,-1.9569257362322374,-8.376441088589756,3.4719724004918877
7.6,-17.781663370132446,-9.578109836578369,8.803074824810029,0.0,0.0,1.273350477218628,16.99320068359375,4.203471565246582,72.5234321594238,26.56848244838327,-122.75005862,49.19227556,-0.2734259516000747,0.00660366800148036,-0.8701120734214782,0.40872145891189576,-2.4025500774383546,0.797468388080597,2.833752918243408,14.655859798192978,47.5275390625,-5.610779869556427,1.9190586507320404,3.8384734789530435,-7.358711792776982,-240.97073364257812,142.38253784179688,-138.73717346191407,1.1792145570119221,5.905972242355347,-16.023452440897625,-8.943772315979002,-13.00239872932434,7.951250076293945,2.4888482809066774,5.0822765827178955,-8.426152992248536,-3.5128846168518066,-7.075471957524617,5.7794718742370605
7.7,1.9798115491867065,-12.71605772090455,-2.549751957257589,0.0,0.0,1.273350477218628,17.6200008392334,4.20395040512085,1.070511817932129,26.56848244838327,-122.7500587,49.1922844,-0.19953439881404236,-0.010376210964750466,-0.8205928305784861,0.5296525657176971,-2.3378133376439414,1.049991637468338,2.6172256072362265,40.965769577026364,26.363589382171632,-19.85366976261139,-0.9516389767328898,1.9816468060016632,-1.2000574792424838,-214.66082687377929,121.21858825683594,-152.98006591796874,7.9119473695755005,-4.709659099578857,-4.34501854578654,2.6519545479254294,-14.156427909027446,-1.9479751370169895,-0.9846002285679182,1.916258813192447,-1.5156457119931777,-1.6899804522593815,-8.315977573394775,4.755778948465983
7.8,4.100924128045639,-12.870943257274728,-1.0694421703616779,0.0,0.0,1.280276083946228,17.52440071105957,4.206474781036377,72.72108840942383,26.394785729824783,-122.75005942,49.192285659999996,-0.13966238622864083,-0.006750215232993167,-0.5979256530602773,0.7793097496032715,-0.7705476184686025,1.1891584595044453,0.9614477753639221,36.73206462860107,31.011484479904176,-20.150434696674346,-0.10162635163093603,0.6871597543358803,1.8878472385307152,-218.8945316314697,125.86648254394531,-153.27683105468748,-14.236498276392618,-31.08793369928996,8.024519364039103,3.9728877389747086,-12.035344878380949,-0.7429306285427599,-0.14246521765987075,0.5255222624788682,1.6571311308071015,4.1385172208150225,-8.018970410029093,3.3833545049031577
7.9,6.222036706904571,-13.025828793644905,0.4108676165342331,0.0,0.0,1.2872016906738282,17.428800582885742,4.208999156951904,144.37166500091553,26.22108901126629,-122.75006014,49.19228692,-0.0479746893979609,-0.12737267297537375,-0.5084668062627316,0.8222053870558739,-0.7236817354957263,1.021747700870037,0.5942988800816238,32.49835968017578,35.65937957763672,-20.447199630737305,0.7483862734710177,-0.6073272973299025,4.975751956303914,-223.12823638916015,130.51437683105468,-153.57359619140624,-10.77013477231517,-11.118817972414423,2.673278833880569,5.293820930023988,-9.914261847734451,0.46211387993146974,0.6996697932481766,-0.8652142882347107,4.829907973607381,4.349124807299989,-7.151604439273025,4.559944398475416
8.0,-10.09791111946106,-39.107096433639526,11.407981316248575,0.0,0.0,1.2941272974014282,17.333200454711914,4.211523532867432,216.02224159240723,26.0473922927078,-122.75006085999999,49.19228818,0.04371300743271902,-0.24799513071775434,-0.4190079594651858,0.8651010245084763,-0.67681585252285,0.8543369422356287,0.22714998479932544,2.0593600757420063,48.447418975830075,-13.426099681854248,2.7356072902679442,-1.7001906275749206,7.6875251770019535,-253.5672348022461,143.3024154663086,-146.55249786376953,-7.303771268237721,8.850297754461115,-2.6779616962779653,-5.296213984489441,-42.13112727801005,11.021939555803934,2.4553728103637695,-2.96386726697286,7.966675440470378,4.559732393784956,-6.284238468516957,5.736534292047674
8.1,-14.741581916809082,13.370016384124757,-0.5289334580302238,0.0,0.0,1.3010529041290284,17.237600326538086,4.214047908782959,287.6728181838989,25.87369557414931,-122.75006158,49.19228944,-0.052425253391265844,-0.06715503744781018,-0.639446473121643,0.7508392691612243,-1.1763244986534118,1.3039178133010865,1.1530040085315705,-21.999039459228516,43.22093887329102,-17.10561990737915,-0.21171571065982184,-5.492773026227951,1.992260644833247,-277.6256378173828,138.07593688964843,-150.23201904296874,-8.817390521367392,-1.0632676283518474,5.193743745485942,-14.176377524932226,11.63071342309316,0.3716851199666659,-0.4216802895069122,-4.537232065200806,1.1472659707069397,1.9606875677903493,-8.757880449295044,3.5486255089441934
8.2,0.19870386521021524,-8.129465391238531,7.395417112236221,0.0,0.0,1.3079785108566284,17.142000198364258,4.216572284698486,359.3233947753906,25.69999885559082,-122.7500623,49.1922907,-0.1185005828738212,0.04045056994073088,-0.8663083016872406,0.4711734751860301,-2.8296120961507163,0.9899223844210306,2.0168219010035195,2.346060019731522,49.01044883728027,-12.287839651107788,1.5636750260988872,4.179412684092919,-5.03134074062109,-253.28053283691406,143.8654472351074,-145.41423645019532,4.4843277136484785,-22.609887997309368,-0.937424381573995,1.5767612240531228,-9.663305564360185,8.926588036797263,1.6061556066075962,3.9059360225995383,-5.01561092833678,-4.224077761173248,-8.021039962768555,3.2761017878850303
8.3,0.2295115093390147,-19.38029291729132,4.8671009779597325,0.0,0.0,1.3079785108566284,17.17800013224284,4.222647666931152,359.32264709472656,25.69999885559082,-122.75006271666666,49.19229588333334,-0.21617333342631653,0.03413310290003813,-0.8818009396394094,0.41415659089883167,-2.5782668193181357,0.8434562881787618,2.9597116708755493,22.15763989984989,39.44656410217285,-11.935259699821472,-0.44264184782902416,1.0306798086812101,-5.623844360560179,-233.46895370483398,134.30156211853028,-145.0616569519043,0.11004881858825719,11.723368072509766,-9.954569721221924,1.2825483720410955,-19.259625575759195,5.866485060841748,-0.308353307346503,1.3879558530946574,-5.0424889499942465,-3.9167401790618896,-7.495776557922364,4.92750129699707
8.4,0.26031915346781415,-30.631120443344116,2.3387848436832432,0.0,0.0,1.3079785108566284,17.214000066121418,4.228723049163818,359.3218994140625,25.69999885559082,-122.75006313333333,49.192301066666666,-0.17084650897110498,-0.013312933677243018,-0.7998105644276647,0.5297975199240627,-2.157419415134372,0.9672185173540404,2.3959027013995433,41.96921977996826,29.88267936706543,-11.582679748535156,-2.4489587217569353,-2.118053066730499,-6.216347980499267,-213.6573745727539,124.73767700195313,-144.70907745361328,-1.2895346691211063,-2.394994386037192,-5.597626181443532,0.988335520029068,-28.855945587158203,2.806382084886233,-2.222862221300602,-1.1300243164102237,-5.069366971651713,-1.8674606680870056,-7.778781108061473,4.7216014742851256
8.5,-3.8066218376159666,4.227399730682373,-5.0269615173339846,0.0,0.0,1.3079785108566284,17.25,4.234798431396484,359.32115173339844,25.69999885559082,-122.75006355000001,49.19230625,-0.12551968451589343,-0.06075897025452417,-0.7178201892159202,0.6454384489492937,-1.7365720109506086,1.090980746529319,1.8320937319235369,41.3970386505127,26.14093933105469,-21.511039447784423,-0.18292868261535963,2.1987584829330444,1.5509614100058873,-214.22955474853515,120.99593811035156,-154.63743743896484,-2.6891181568304696,-16.51335684458415,-1.2406826416651406,-0.9845469097296394,2.7170501748720803,-4.292524576187134,-0.12006556689739227,2.4329541444778444,1.3552961587905883,0.18181884288787842,-8.061785658200582,4.515701651573181
8.6,0.6204390327135719,-20.54567289352417,-3.2166515588760376,0.0,0.0,1.3079785108566284,17.285999933878582,4.24087381362915,359.3204040527344,25.69999885559082,-122.75006396666667,49.19231143333334,0.05834315158426757,-0.3090689231952031,-0.35404473543167114,0.878976841767629,-0.7384210328261057,0.7206085920333862,0.1586915018657843,35.714278602600096,34.163659477233885,-18.603779888153078,0.19634226088722548,-1.4638367174193263,4.71173095703125,-219.91231536865234,129.0186569213867,-151.73017578125,-14.32962973912557,12.636934757232666,-11.593064467112223,-0.06630099813143413,-23.48934308687846,-1.1687941625714302,0.1362738534808159,-1.397303360203902,4.3097051084041595,4.591270764668782,-5.571834007898967,6.548987070719401
8.7,-7.686593631903331,-10.770045049488544,2.3614669603606067,0.0,0.0,1.3079785108566284,17.32199986775716,4.246949195861816,359.3196563720703,25.69999885559082,-122.75006438333334,49.192316616666666,0.03773936163634057,-0.21690138429403305,-0.5434236178795496,0.8092899918556213,-0.7794845600922903,1.1128788789113362,0.40707923471927643,-7.614629989862442,45.54259910583496,-17.334369802474974,0.5780185361703237,-2.3442208684670427,3.5093190471331277,-263.2412239074707,140.39759521484376,-150.4607666015625,11.644356886545816,-10.211501757303873,6.241777420043945,-10.533803636377508,-10.021739216013389,1.4031185670332478,0.5082780631879965,-2.6466118544340134,3.8793633629878364,2.992669145266215,-8.015233914057413,4.786834160486857
8.8,3.475251068671544,-14.49848642324408,6.695093033835292,0.0,0.0,1.3079785108566284,17.357999801635742,4.253024578094482,359.31890869140625,25.69999885559082,-122.7500648,49.1923218,-0.04483940328160918,-0.029625326239814353,-0.6989675859610239,0.6934208273887634,-0.8432929615179697,1.274585247039795,-0.18243083357810974,-4.103165006637573,47.72151927947998,-14.74217483997345,0.4604791472355525,-0.7168478686207282,1.2324766350289185,-259.7297603607178,142.57651672363284,-147.86857223510742,-22.048085021972657,3.782206726074219,2.2317643165588374,0.06899294528094124,-11.216256455264308,6.319956757805564,0.44438537520666915,-0.38845304896434163,1.1892591938376427,0.7496201276779175,-9.061777687072754,2.774631381034851
8.9,14.63709576924642,-18.226927796999615,11.028719107309977,45.0,0.19472551345825195,1.330090969800949,17.356249809265137,4.332391262054443,269.6502888649702,25.099998950958252,-122.75006415,49.192328575000005,-0.11670152001985994,0.0004952905883052992,-0.791610096891721,0.5558052916418422,-1.746141948031657,1.0651226964863865,1.3996398652141744,-0.5917000234127044,49.900439453125,-12.149979877471925,0.34293975830078127,0.910525131225586,-1.0443657770752908,-256.21829681396486,144.75543823242188,-145.27637786865233,-7.5409656008084625,-1.0689846714337667,-2.026217261950175,10.671789526939392,-12.410773694515228,11.23679494857788,0.3804926872253418,1.8697057565053303,-1.5008449753125508,-1.6986051460107168,-8.34874857266744,3.536738862593969
9.0,-21.29839496612549,-5.279763102531433,5.006502723693847,90.0,0.3894510269165039,1.3522034287452698,17.35449981689453,4.411757946014404,179.98166903853416,24.499999046325684,-122.75006350000001,49.19233535,-0.1885636367581107,0.030615907416424948,-0.8842526078224182,0.418189755894921,-2.6489909345453437,0.8556601459329779,2.9817105640064585,16.826239615678787,46.23311882019043,-7.504219818115234,2.62962215145429,5.31839640935262,-8.295651952425638,-238.80035705566405,141.08811798095704,-140.6306182861328,6.966153820355732,-5.920176068941752,-6.2841988404591875,-18.68395709991455,-6.80439015229543,3.935594896475474,3.4150726795196533,4.980903673171997,-9.223026657104493,-4.146830419699351,-7.635719458262126,4.298846344153087
9.1,8.025028944015503,-23.993928988774616,3.909074599544207,135.0,0.5841765403747559,1.3743158876895905,17.352749824523926,4.491124629974365,90.31304921209812,23.899999141693115,-122.75006285,49.192342124999996,-0.17222830901543296,0.0177043153283496,-0.7670387725035349,0.6090827584266663,-2.033252696196238,1.218167742093404,2.3080148100852966,43.826059341430664,26.139719581604005,-14.598519706726075,-3.1135292450586953,1.110603928565979,-2.8512898882230124,-211.8005340576172,120.99471664428711,-147.72491912841798,3.076801915963491,-27.661990960439045,0.12906638781229685,11.248460372289022,-23.672792196273804,3.0831519762674966,-3.2227977911631265,1.081155180931091,-3.1247285306453705,-0.04366987943649292,-8.846207777659098,3.795952399571737
9.2,0.32347975422938663,-19.813319260875385,-1.977219246327877,180.0,0.7789020538330078,1.3964283466339111,17.35099983215332,4.570491313934326,0.6444293856620789,23.299999237060547,-122.7500622,49.1923489,-0.04594680747444119,-0.12097579178710775,-0.4719773530960083,0.8575309614340464,-0.5174514452616373,0.9567305743694305,0.39686134705940884,31.85724925994873,34.04287910461426,-20.87846965789795,1.0881314917721532,0.17345794628966937,4.106985883787274,-223.76934585571288,128.8978759765625,-154.00486755371094,-20.530177307128906,-0.42710180282592775,-1.4147102355957035,-0.09337457201697609,-19.161234270442616,-2.026340075514533,0.8467228586475054,0.2365193938215573,4.236248689393203,5.166272926330566,-7.027664470672607,4.202720022201538
9.3,-7.520177790274223,-13.634139019747575,0.4054488904774187,180.0,0.7834059655666351,1.3857661008834838,17.426199913024902,4.651581525802612,0.7144902288913727,23.539999198913574,-122.75006181,49.19235614,0.04336027180155114,-0.250281256934007,-0.4082673043012619,0.8722383777300516,-0.6541776855786642,0.8322962323824564,0.20255247503519055,11.009584772586823,40.690049171447754,-17.634794759750367,0.7520780982731871,-2.5653424134308644,6.014941372908652,-244.6170108795166,135.5450454711914,-150.76119232177734,-10.55252981185913,10.066351572672525,-5.3649165232976275,-7.882732928702325,-13.36471663460587,0.6699813265692103,0.847698983301719,-2.9828893375893433,6.21084509169062,4.962128281593323,-6.020793596903483,5.752446571985881
9.4,-15.363835334777832,-7.454958778619765,2.788117027282715,180.0,0.7879098773002624,1.3751038551330568,17.501399993896484,4.732671737670898,0.7845510721206665,23.7799991607666,-122.75006142000001,49.192363379999996,-0.005298398428060361,-0.1524583146427617,-0.5425862405787815,0.7877444037885377,-1.0863316375197787,1.0252176640611705,0.8597491935572841,-9.838079714775086,47.33721923828125,-14.391119861602784,0.41602470477422093,-5.304142773151398,7.922896862030029,-265.4646759033203,142.1922149658203,-147.51751708984375,-11.190021534760792,0.8896644711494446,-1.9370338122049966,-15.672091285387674,-7.568198998769124,3.366302728652954,0.8486751079559326,-6.2022980690002445,8.185441493988037,2.9060745537281036,-7.338178952534994,4.618258873621623
9.5,-5.590331395467122,4.045365869998932,0.3876372178395589,180.0,0.7924137890338898,1.3644416093826295,17.576600074768066,4.813761949539185,0.8546119153499603,24.01999912261963,-122.75006103,49.19237062,-0.053957068657671865,-0.05463537235151639,-0.676905176856301,0.7032504298470237,-1.518485589460893,1.2181390957398848,1.5169459120793776,-14.655859899520873,45.438899230957034,-16.971419620513917,1.909412042548259,0.4395175476868947,-3.586720804373423,-270.28245239257814,140.2938980102539,-150.09781799316406,-11.827513257662455,-8.287022630373636,1.4908488988876343,-1.008774568637212,1.5714863588412606,1.6995022371411324,1.7524960041046143,0.15350537312527499,-3.264514704545339,0.8500208258628845,-8.655564308166504,3.4840711752573648
9.6,1.2209378480911255,-16.46261978149414,12.368500391642252,180.0,0.7969177007675171,1.3537793636322022,17.65180015563965,4.894852161407471,0.9246727585792541,24.259999084472657,-122.75006064,49.19237786,-0.132334716618061,0.008677605617170485,-0.9111279249191284,0.3859516630570094,-2.7999934752782187,0.7845997711022695,3.0164838631947837,1.4603399738669396,50.23471908569336,-10.723799705505371,0.191404456893603,3.448894292116165,-2.936963734527429,-254.1662567138672,145.08971557617187,-143.8501983642578,21.66348882516225,-5.41948390007019,1.0905099709828698,-5.304090532163779,-18.798712760210037,14.308082183202108,0.23732112844785055,3.282102510333061,-2.718452205260595,-5.3479989767074585,-7.105255047480266,3.99213699499766
9.7,-3.4301111896832785,-14.973935266335806,1.3321541150410967,180.0,0.8014216125011444,1.343117117881775,17.72700023651123,4.975942373275757,0.994733601808548,24.499999046325684,-122.75006025,49.1923851,-0.22156569610039387,0.04220970316479597,-0.8566634654998779,0.4610350579023361,-2.5127727588017783,0.9448635876178741,2.90858793258667,37.069699335098264,31.667539501190184,-13.197349691390992,-0.7292203903198242,1.8471454273570667,-4.611102375117215,-218.55689697265626,126.52253761291504,-146.3237449645996,5.294624376296997,4.790919494628906,-11.052993392944336,-1.9229592410000882,-14.820925793864511,0.5138585459102285,-0.6171393357217312,2.154089086999496,-4.450560517609119,-3.278382158279419,-7.985624599456787,4.614637851715088
9.8,-0.7068996051947276,-9.08441602687041,-2.553047021230062,180.0,0.8059255242347717,1.3324548721313478,17.802200317382812,5.057032585144043,1.0647944450378417,24.73999900817871,-122.75005986000001,49.19239234,-0.14181848367055258,-0.021995309197033436,-0.6760082344214121,0.7116356293360392,-1.3582926839590073,1.2421672145525615,1.5306198795636494,37.09836933612823,30.444489431381225,-18.18562457561493,-0.0357101634144783,0.8278323038001403,-1.0530611096535614,-218.5282264709473,125.2994878768921,-151.3120204925537,-0.4622509479522705,-34.437829653422035,5.505251884460449,-1.2430350694692494,-9.868689398873936,-2.8930721535827177,0.05303200073540215,0.600126766289274,-0.8618137516081332,1.10874147216479,-8.719525019327799,3.8312347332636514
9.9,2.0163119792938233,-3.194896787405014,-6.438248157501221,180.0,0.810429435968399,1.3217926263809205,17.877400398254395,5.138122797012329,1.1348552882671357,24.979998970031737,-122.75005947000001,49.19239958,-0.07856891429312808,-0.11415598903796774,-0.5459502605777798,0.7953039200016947,-0.9799597744237293,1.0319768524531163,0.918552174261122,37.1270393371582,29.221439361572266,-23.173899459838868,0.6578000634908676,-0.19148081975678602,2.504980155810093,-218.4995559692383,124.07643814086914,-156.3002960205078,-7.430679241816203,-13.14527149001757,0.7350172897179927,-0.5631108979384104,-4.916453003883362,-6.3000028530756635,0.7232033371925354,-0.953835554420948,2.726933014392853,3.1094206025203066,-7.504321455955505,4.510540535052617
10.0,0.6465605894724528,-43.157547314961754,9.336594740549723,180.0,0.8149333477020264,1.3111303806304933,17.952600479125977,5.219213008880615,1.2049161314964294,25.219998931884767,-122.75005908,49.19240682,-0.015319344915703574,-0.20631666887890204,-0.4158922867341475,0.8789722106673501,-0.6016268648884513,0.821786490353671,0.3064844689585946,16.570039808750153,44.71909942626953,-17.087319755554198,1.068836013476054,-1.3204361697038014,8.01185417175293,-239.05655517578126,139.5740966796875,-150.21371612548828,-14.399107535680136,8.147286673386892,-4.035217305024465,1.243669748306275,-42.6722027460734,10.55105153719584,0.8774570326010386,-1.2680289546648662,7.8518327077229815,5.110099732875824,-6.289117892583211,5.189846336841583
10.1,-22.116161982218426,9.15045299132665,-1.4779668351014454,180.0,0.8194372594356537,1.3004681348800662,18.02780055999756,5.300303220748901,1.2749769747257231,25.459998893737794,-122.75005869,49.19241406,-0.030125599820166816,-0.09142248394588626,-0.60225976506869,0.7833900252978007,-0.08565721909205119,1.2525005737940471,-0.004418040315310161,-18.077959489822387,44.58611946105957,-16.543199634552003,-0.6821074237426122,-4.202523767948151,5.008713245391846,-273.7045562744141,139.4411178588867,-149.6695983886719,-7.223919677734375,-15.449269485473632,8.151756405830383,-23.473469924926757,13.31569870710373,-2.5552952945232392,-0.47224972893794376,-4.189721097548802,5.469534675280253,2.9268189430236817,-8.52279167175293,3.645230770111084
10.2,-0.023221210999922318,-13.860751271247864,7.428191575137052,180.0,0.823941171169281,1.289805889129639,18.10300064086914,5.3813934326171875,1.345037817955017,25.69999885559082,-122.7500583,49.1924213,-0.046800666799147905,0.03934176910358167,-0.8535224894682566,0.5064564247926077,-1.0134546359380086,1.0638388295968373,0.09130382537841797,-2.1374399319291113,47.872189140319826,-14.305719685554504,2.3465416458520023,2.2576885142109613,-4.675382083112543,-257.76403656005857,142.72718887329103,-147.43211669921874,-1.7643264929453533,-11.055373191833496,1.3484647671381633,-0.570638755957286,-11.756984144449234,6.949654166897138,2.1757631616836246,2.1115112683989783,-4.512558777901259,-3.153990978995959,-8.843945105870565,1.9392661452293396
10.3,-2.470734455368736,-16.880131105581917,5.358014768723286,180.0,0.866763550043106,1.290795934200287,18.01610050201416,5.343889474868774,1.3638615250587462,25.419998931884766,-122.75005800000001,49.19242651,-0.1096930655961235,0.019608292757766318,-0.9017143050829569,0.40951112906138104,-2.8587712049484253,0.8441583712895712,3.054333448410034,17.679019635170697,41.51568441390991,-10.05157977938652,0.41889041300975904,0.29601856659759207,-5.99364311767347,-237.94757537841795,136.37068405151368,-143.177978515625,13.139907439549765,3.5694503784179688,-6.0402153333028155,-1.131531149148941,-18.13567616045475,5.147310408453146,0.44829293673462933,0.44665935421080283,-6.061575402703249,-5.411758581797282,-7.444534619649251,3.142100671927134
10.4,-4.918247699737549,-19.899510939915974,3.2878379623095193,180.0,0.9095859289169311,1.2917859792709352,17.92920036315918,5.306385517120361,1.3826852321624756,25.139999008178712,-122.7500577,49.19243172,-0.08941685644006635,-0.01658685420327607,-0.8029125341863343,0.5396755319653136,-2.300271786072037,0.9909175002213682,2.409645167941397,37.49547920227051,35.1591796875,-5.797439873218536,-1.508760819832484,-1.6656513810157774,-7.311904152234395,-218.13111419677733,130.01417922973633,-138.92384033203126,5.829170594612758,-5.60711560646693,-3.149612267812093,-1.6924235423405964,-24.514368176460266,3.3449666500091553,-1.2791772882143657,-1.2181925599773724,-7.6105920275052386,-2.5900814086198807,-7.884398301442465,3.3494551281134286
10.5,7.72821839650472,-3.875275989373525,-2.8980072339375815,180.0,0.9524083077907561,1.2927760243415833,17.8423002243042,5.268881559371948,1.4015089392662048,24.859999084472655,-122.7500574,49.19243693,-0.06914064728400919,-0.052782001164318464,-0.7041107632897117,0.6698399348692461,-1.7417723671956495,1.137676629153165,1.7649568874727597,46.019619369506835,24.457339668273924,-11.004399645328522,0.054926962902148525,3.7319794967770576,1.2698870201905568,-209.60697479248046,119.31233749389648,-144.13079681396485,-1.4815662503242493,-14.783681591351828,-0.2590092023213704,3.8646079699198395,-1.3070793350537617,-3.787538925806681,0.017638744165500004,3.6002106914917626,1.0051023562749226,0.23159576455752054,-8.324261983235678,3.556809584299723
10.6,1.7984057863553362,-17.818153778711956,-1.0196415781974792,180.0,0.9952306866645813,1.2937660694122315,17.755400085449217,5.231377601623535,1.4203326463699342,24.5799991607666,-122.7500571,49.19244214,0.06651678370932733,-0.27969907472530997,-0.32136311133702594,0.9006090263525645,-0.6282553970813751,0.665168841679891,0.07521710482736425,37.963959503173825,34.652879333496095,-11.954779720306396,-0.527074878414472,-1.623323569695155,5.232468028863271,-217.66263580322266,129.50787658691405,-145.0811767578125,-24.536629581451415,13.258731079101562,-13.362691497802734,3.34791784286499,-16.596498370170593,-0.8070991098880768,-0.5500586976607641,-1.6667966765041153,4.90695321559906,5.482274150848388,-5.274527359008789,6.1439167022705075
10.7,-11.76278977502476,-12.257342772050338,0.5151094685901296,180.0,1.0380530655384062,1.2947561144828796,17.66849994659424,5.193873643875122,1.4391563534736633,24.299999237060547,-122.7500568,49.192447349999995,0.07137569723029927,-0.2056293338537216,-0.5140478809674581,0.8274826606114706,-0.6045038402080536,1.082718809445699,0.19660353660583493,-9.351299798488617,45.11681938171387,-15.599529790878297,-0.20447325300086627,-3.3047254302284936,4.8171722170981495,-264.97789840698243,139.97181777954103,-148.7259262084961,12.579145828882853,-1.7591605981190999,5.147010564804077,-10.272886075079441,-13.658480813105902,0.8311569343010592,-0.2361410910432989,-3.3422658768567173,5.167045333168724,3.4517995913823447,-8.030283451080322,4.324471831321716
10.8,-1.772868607983444,-9.547466544490872,4.335921500668382,180.0,1.0808754444122313,1.295746159553528,17.58159980773926,5.156369686126709,1.4579800605773925,24.019999313354493,-122.7500565,49.19245256,-0.0528119727503508,0.010542744025587997,-0.6925636410713196,0.7036000847816467,-1.5634210109710693,1.3211336135864258,-0.8596489250659942,-7.1467598259449,47.412249374389646,-13.230594849586488,1.051471481269056,-1.0332762359669716,0.6670729009942571,-262.7733577728271,142.26724739074706,-146.3569923400879,-25.026409912109376,-2.224614906311035,8.627390336990356,2.8904301139215622,-11.731834933161736,5.18367642412583,1.121247780593959,-0.9570950779950982,0.7733634850292495,0.8162383556365966,-9.190153312683105,2.3286394596099855
10.9,8.217052559057871,-6.837590316931407,8.156733532746633,180.0,1.1236978232860564,1.2967362046241762,17.494699668884277,5.118865728378296,1.4768037676811219,23.73999938964844,-122.7500562,49.19245777,-0.0929014865697051,0.03530298462137575,-0.7915678585569064,0.5623616059621175,-2.2031613787015276,1.1013089617093403,0.09051692386468257,-4.942219853401184,49.70767936706543,-10.861659908294678,2.3074162155389786,1.2381729582945507,-3.4830264151096344,-260.5688171386719,144.56267700195312,-143.9880584716797,-8.662224763631823,-3.4640420715014137,1.2985990107059475,16.053746302922566,-9.80518905321757,9.536195913950602,2.4786366522312164,1.4280757208665211,-3.6203183631102243,-2.024824513991674,-8.468797222773233,2.799650744597117
11.0,-14.877972761789957,-14.033804496129354,7.523034214973451,180.0,1.1665202021598815,1.2977262496948243,17.407799530029298,5.081361770629883,1.495627474784851,23.45999946594238,-122.7500559,49.192462979999995,-0.13299100038905937,0.06006322521716351,-0.8905720760424932,0.4211231271425883,-2.8429017464319863,0.881484309832255,1.0406827727953594,14.859599781036376,46.81627922058105,-7.078439807891845,0.2410881370306015,5.4021104872226715,-8.943779706954956,-240.76699676513672,141.67127532958983,-140.2048370361328,7.701960384845734,-4.7034692366917925,-6.030192315578461,-24.18736877441406,-11.430513906478883,11.020742878317833,0.40228020151456195,5.491704096396764,-8.723511974016825,-4.8658873836199446,-7.747441132863362,3.270662029584249
