time,TotalAcceleration_z,TotalAcceleration_y,TotalAcceleration_x,Location_bearingAccuracy,Location_speedAccuracy,Location_verticalAccuracy,Location_horizontalAccuracy,Location_speed,Location_bearing,Location_altitude,Location_longitude,Location_latitude,Orientation_qz,Orientation_qy,Orientation_qx,Orientation_qw,Orientation_roll,Orientation_pitch,Orientation_yaw,Magnetometer_z,Magnetometer_y,Magnetometer_x,GyroscopeUncalibrated_z,GyroscopeUncalibrated_y,GyroscopeUncalibrated_x,MagnetometerUncalibrated_z,MagnetometerUncalibrated_y,MagnetometerUncalibrated_x,Accelerometer_z,Accelerometer_y,Accelerometer_x,AccelerometerUncalibrated_z,AccelerometerUncalibrated_y,AccelerometerUncalibrated_x,Gyroscope_z,Gyroscope_y,Gyroscope_x,Gravity_z,Gravity_y,Gravity_x
3.1,4.921802849480601,-8.056214654987508,-2.716522146806572,0.0,0.0,1.6948399066925048,8.906399726867676,0.00030400376126628,0.0,19.727837951262472,-122.7500578,49.19297908,-0.7619631337848576,0.47831118693857483,0.009133628153270396,0.10218369254531956,0.3675183944093684,1.0935760980302636,2.668479399247603,-35.216518783569335,36.60365943908691,6.691699779219926,-0.09166102677629556,0.7509396768908836,0.12793173128033453,-292.4071533203125,129.78329277038574,-129.0622714996338,1.082549158370856,1.8748909957481152,0.03227606370593572,5.268175175469933,-6.831286591622329,-1.1633015460137164,-0.5216534634431204,-3.2641838788986206,1.5875369509061177,4.1628246253187005,-8.690432422088854,-1.2602911077891334
3.2,7.241030375162761,-6.909524738788605,-1.0195916791756947,0.0,0.0,1.6972446680068969,9.030799865722656,0.00028078224277116004,0.0,19.368860410933976,-122.7500578,49.19297906,-0.6842166131192987,0.43388610265471717,0.02675978399135849,0.08293016394600268,0.46760929748415947,1.1030443798411975,2.653930577364835,-40.36979942321777,32.376359367370604,-4.349299919605255,0.10850493425580983,3.828470654475192,-0.9026424818051358,-291.3945541381836,130.2215774536133,-126.16934623718262,-0.49742265542348224,1.9874854882558186,0.4041539827982586,3.417050505677859,-6.767600403710579,-1.199202979604403,0.00022907306750614975,-1.133180482313037,0.5494478146235148,3.8916717767715454,-8.739340702692667,-1.6680704740186532
3.3,5.444643607983987,-6.230586161216101,0.4935944527387621,0.0,0.0,1.6996494293212892,9.155200004577637,0.00025756072427604,0.0,19.00988287060548,-122.7500578,49.192979040000004,0.6946249008178711,-0.6093647678693136,-0.3377702186505,0.1525593940168619,1.557389775911967,1.2669970790545146,2.302776296933492,-38.67887878417969,34.21977920532227,-1.055299949645996,-1.7720946570237477,5.408040960629781,-2.5527803897857666,-268.45001525878905,136.6912384033203,-108.07247924804688,-1.6887100537618,-8.914541085561117,-11.428792377312979,-1.5989040583372116,-18.320945898691814,-13.899607519308725,0.3282178997993469,3.158692497014999,-1.3143987633287906,0.06700461357831955,-9.39065965016683,-2.535528540611267
3.4,3.6482568408052125,-5.551647583643596,2.0067805846532187,0.0,0.0,1.7020541906356812,9.279600143432617,0.00023433920578092,0.0,18.650905330276984,-122.7500578,49.19297902,0.629262422521909,-0.6478054076433182,-0.3638827055692673,0.1960525639976064,2.135431836048762,1.280138040582339,1.8320074528455734,-32.857039833068846,36.51337928771973,14.9693998336792,-1.134558418309704,2.4184479040629934,-1.1728971207683736,-260.08020515441893,139.16539840698243,-110.51095371246338,2.1446805036429204,-0.4302793054869678,-7.691261873100744,1.0382357658818364,-9.873996330862584,-9.405573965022057,-0.056530495484670006,4.703738689422607,-0.6188573992500702,-1.129246149212122,-9.427971825455174,-1.7790254706686195
3.5,0.3942718939347701,-13.418242427435787,-9.26169192520055,0.0,0.0,1.7044589519500732,9.404000282287598,0.0002111176872858,0.0,18.29192778994849,-122.7500578,49.192979,0.563899944225947,-0.6862460474173228,-0.38999519248803455,0.2395457339783509,2.713473896185557,1.2932790021101634,1.361238608757655,-12.82341959476471,41.83623924255371,25.053919410705568,-0.4970221795956604,-0.5711451525037939,0.20698614824901929,-251.71039505004882,141.63955841064453,-112.94942817687988,5.978071061047641,8.05398247458718,-3.953731368888508,3.6753755901008844,-1.427046763033352,-4.91154041073539,-1.7639242708683014,5.5892642339070635,-2.4165828625361123,-2.3254969120025635,-9.46528400074352,-1.0225224007259717
3.6,1.767301203626575,-7.742072805875178,-7.286380573994283,0.0,0.0,1.7044589519500732,9.514714513506208,0.00020998700347255714,0.0,18.29192778994849,-122.75005777142857,49.19297897142857,0.520459946809393,-0.5175521044117032,-0.30529500927888986,0.1720620172211166,1.7884556626280148,1.1664213940049664,2.0749896164193298,5.569299876689911,46.266059494018556,21.22921962738037,0.7753372513592087,-2.559174823490056,1.725493034517223,-267.9726902008057,134.5809425354004,-112.42055835723878,1.918792130933567,-0.40539432655681296,-4.588667437885746,2.580609367849926,-9.267465679101985,-6.287377103824507,-1.0525717089573543,0.6236425066987673,-0.7197519640127817,0.6390158397456007,-8.846325899615433,-1.7634230757301506
3.7,3.14033051331838,-2.065903184314569,-5.311069222788016,0.0,0.0,1.7044589519500732,9.62542874472482,0.00020885631965931428,0.0,18.29192778994849,-122.75005774285714,49.192978942857145,0.4770199493928389,-0.34885816140608356,-0.22059482606974512,0.10457830046388229,0.8634374290704727,1.0395637858997693,2.788740624081005,2.263099955022335,47.30305938720703,19.124719619750977,2.047696682314078,-4.547204494476318,3.243999920785427,-284.2349853515625,127.52232666015625,-111.89168853759766,-2.1404867991805077,-8.864771127700806,-5.223603506882985,1.4858431455989678,-17.107884595170617,-7.663213796913624,0.1220203310251236,-1.6815287709236144,0.9007513523101807,3.6035285914937654,-8.227367798487345,-2.5043237507343292
3.8,3.886896208922068,-16.72879166478912,-7.445666418721279,0.0,0.0,1.7044589519500732,9.73614297594343,0.00020772563584607143,0.0,18.29192778994849,-122.75005771428572,49.19297891428572,-0.9137561519940695,0.40283504128456116,-0.0006728104781359504,0.04199555035059647,0.0481496254603068,0.8287116090456644,3.02856437365214,-16.743279695510864,40.94197883605957,23.765599250793457,-0.33513594046235085,1.6320537440478802,-0.5685373718539873,-301.8889953613281,118.91461868286133,-133.3972381591797,-9.786474148432413,9.43543283144633,6.265809973080953,-3.140280564626058,2.2025932470957437,6.110870281855266,2.5443556110064187,-2.0570887525876365,4.734689235687256,6.623392105102539,-7.217094262440999,-0.2196531519293785
3.9,4.633461904525757,-31.39168014526367,-9.580263614654541,0.0,0.0,1.7044589519500732,9.84685720716204,0.00020659495203282857,0.0,18.29192778994849,-122.75005768571428,49.19297888571428,-0.0579533576965332,-0.051720851411422075,-0.1255466876318678,0.08925461916563407,0.4145023245364428,0.9700657154122989,2.9803288479646044,-40.47349872589111,24.392679595947264,18.70381968021393,-1.0668934940953148,2.9042558346621017,-1.5703274450744642,-293.7396987915039,123.8922176361084,-123.35206260681153,-7.557447317874793,1.4422347581747808,1.0018798293489395,-2.466225136861657,-6.478431477070307,-0.20810305169134402,1.5348243564367294,-7.023779471715291,1.9374100252365072,5.068420748819005,-7.9049208669951465,-1.2746963883665474
4.0,-1.7109180106781423,-2.809971404572328,-0.688883642355601,0.0,0.0,1.7044589519500732,9.95757143838065,0.0002054642682195857,0.0,18.29192778994849,-122.75005765714286,49.192978857142855,0.797849436601003,-0.5062767441074053,-0.25042056478559965,0.13651368798067168,0.7808550236125787,1.1114198217789333,2.932093322277069,-46.262398910522464,24.059619331359862,-0.2708400249481201,-1.7986510477282784,4.176457925276323,-2.572117518294941,-285.5904022216797,128.86981658935548,-113.30688705444337,-5.328420487317172,-6.5509633150967685,-4.262050314383074,-1.7921697090972553,-15.159456201236356,-6.527076385237954,-0.288379301627477,1.2385038435459137,-0.5368487363060316,3.51344939253547,-8.592747471549295,-2.3297396248037163
4.1,-1.3120643503498286,-8.896713864058256,-3.898606014748414,0.0,0.0,1.7044589519500732,10.068285669599263,0.00020433358440634285,0.0,18.29192778994849,-122.75005762857143,49.19297882857143,0.6775710817539331,-0.5934472225154891,-0.31239901203662157,0.21286552313320106,1.0252669490309376,1.233351763224963,2.0373483544046227,-39.85130004882812,27.817219543457032,16.42241950035095,-1.1796426764040282,2.1449567172111887,-1.2622986440405701,-269.59559440612793,135.9406311035156,-114.97340698242188,0.040387716257210826,-0.5085868203278743,-5.1013329283080315,0.9524204288468219,-9.622974354943091,-6.330688147156527,-1.0984375178813934,5.078988154729207,-2.169844220081965,0.8892313345674085,-9.098642280607514,-1.2940687198107215
4.2,-0.9132106900215149,-14.983456323544184,-7.108328387141228,0.0,0.0,1.7044589519500732,10.178999900817873,0.0002032029005931,0.0,18.29192778994849,-122.7500576,49.1929788,0.5572927269068632,-0.6806177009235729,-0.37437745928764343,0.2892173582857305,1.2696788744492964,1.3552837046709927,1.1426033865321765,-20.076319694519043,40.212418746948245,23.21659927368164,-0.5606343050797781,0.11345550914605458,0.047520230213801064,-253.60078659057618,143.01144561767578,-116.63992691040039,5.4091959198315935,5.53378967444102,-5.940615542232989,3.697010566790899,-4.086492508649826,-6.134299909075101,-2.5531418323516846,3.229003095626831,-2.8559476852416994,-1.7349867234006524,-9.604537089665731,-0.2583978148177266
4.3,3.64690608382225,-12.48237862487634,-6.626010058820247,0.0,0.0,1.6208382606506349,10.38099994659424,0.00137670809635886,0.0,18.29192778994849,-122.75005800000001,49.192979199999996,0.7384180625279745,-0.5373142460982004,-0.31264801323413843,0.24447870999574658,0.812352846066157,1.2669757604599,-2.083137273788452,4.298060011863709,47.686139297485354,17.44111967086792,3.3581400394439695,-0.6910718262195588,4.819176864624024,-275.7687927246094,135.70791549682616,-111.79347763061523,3.6521926403045653,-18.44935188293457,-10.815099012851714,5.988278031349182,-27.69153823852539,-12.634821426868438,-1.5681420067946117,1.1365911215543747,-3.0252591967582703,2.313283896446228,-9.22644100189209,-1.8844357967376708
4.4,8.207022857666015,-9.981300926208496,-6.143691730499268,0.0,0.0,1.5372175693511962,10.582999992370608,0.00255021329212462,0.0,18.29192778994849,-122.7500584,49.1929796,0.8177880635767272,-0.4660169179692413,-0.23182077570395032,0.15814138720320026,0.5693919850569782,1.0491422441872684,-0.8912677331404253,-0.24644002914428711,48.62675895690918,15.531819725036621,1.9877987754841644,-1.495776063700517,2.5087840442856155,-286.95832977294924,127.60315170288085,-115.02342777252197,-2.978665546576182,-7.622429915269217,-3.7898872951666513,1.2775629212458925,-15.872240666269013,-5.661901897192001,0.30947959795594215,-0.6278422102332115,2.7077874541282654,4.233426956335704,-8.234065500895182,-1.9367279877265293
4.5,3.0400811433792114,-11.975977835555872,-8.51236680150032,0.0,0.0,1.4535968780517579,10.785000038146974,0.00372371848789038,0.0,18.29192778994849,-122.7500588,49.19298,0.89715806462548,-0.3947195898402821,-0.15099353817376218,0.07180406441065394,0.3264311240477995,0.8313087279146368,0.3006018075076016,-20.142199325561524,40.85291938781738,21.3329195022583,0.6174575115243593,-2.300480301181475,0.1983912239472071,-298.1478668212891,119.49838790893554,-118.25337791442871,-9.60952373345693,3.2044920523961387,3.235324422518412,-3.4331521888573966,-4.052943094012638,1.3110176324844358,3.3796374003092446,-1.1942415436108906,4.612948934237163,6.153570016225179,-7.241689999898274,-1.989020178715388
4.6,-0.7689389945431189,-7.24745660083312,-3.095392480492592,0.0,0.0,1.3699761867523192,10.987000083923341,0.0048972236836561395,0.0,18.29192778994849,-122.7500592,49.1929804,0.8384601489612551,-0.4409212391033317,-0.22370717663205025,0.13630281718955795,0.6183167204938151,0.9713557116461522,0.06689676506952805,-39.34377880096436,23.91077938079834,22.079559421539308,-0.6771122831851245,0.48100550286471844,-1.3918309807777405,-290.39354629516606,124.62940311431885,-114.40549793243409,-6.776447926958403,-2.50032044450442,-0.05850754678249359,-2.1649561589583755,-10.452372850695003,-2.1207387149333954,2.188363617658615,-6.909130191802978,0.9847758769989013,4.588690265004212,-7.93630705277125,-2.1269446536898613
4.7,-4.577959132465449,-2.518935366110368,2.321581840515137,0.0,0.0,1.2863554954528809,11.189000129699709,0.0060707288794219,0.0,18.29192778994849,-122.7500596,49.1929808,0.7797622332970301,-0.48712288836638135,-0.29642081509033835,0.20080156996846196,0.9102023169398308,1.1114026953776677,-0.16680827736854553,-45.69875907897949,25.37599925994873,7.666479825973511,-1.9716820778946083,3.262491306910912,-2.982053185502688,-282.639225769043,129.76041831970215,-110.55761795043945,-3.9433721204598746,-8.205132941404978,-3.3523395160833993,-0.8967601290593543,-16.85180260737737,-5.552495062351227,-1.0624219216406345,1.3746249377727509,-0.7674249162276586,3.0238105137832463,-8.630924105644226,-2.2648691286643348
4.8,-2.4689398468895387,-5.007375659364643,-2.2266482663496086,0.0,0.0,1.2881446599960327,11.403800010681154,0.00891961753368372,0.0,18.6935420793709,-122.75005998,49.19298124,0.49311282734076184,-0.705925852060318,-0.38274749120076496,0.3322179814179738,-1.8181692361831665,1.2573592861493428,0.7991346716880798,-37.74557952880859,28.29423999786377,21.36951961517334,-1.7185471773147583,0.6409808993339539,-1.705383062362671,-248.35173492431642,144.16617584228516,-121.86701736450195,12.48207368850708,0.7661670684814453,-11.291295576095582,9.694879627227783,-8.57539768218994,-10.247981071472168,-0.03492113699515661,3.4630459547042847,-1.3327297762346764,-2.8099955558776855,-9.32581958770752,0.9786007851362228
4.9,-0.35992056131362854,-7.4958159526189165,-6.774878373214354,0.0,0.0,1.2899338245391845,11.6185998916626,0.011768506187945539,0.0,19.09515636879331,-122.75006036,49.19298168,0.5863775978937293,-0.6382127986712889,-0.3568325480728438,0.3057088246851256,-0.9297336123206399,1.2710439743417683,-0.12542480501261621,-16.279679584503175,41.51659965515137,23.768039321899415,0.6238499571879703,-0.469014729062716,1.2227740387121835,-258.9889144897461,140.98929653167724,-118.14632244110106,6.203365268309911,-3.2554943044980367,-9.394316945473353,5.426403170327346,-12.502408480644226,-9.429301654299099,-3.8415278593699136,3.0931671261787415,-4.3836707671483355,-0.7997636212656896,-9.231168794631959,-0.09969843815391277
5.0,3.234846909840902,-17.205092787742615,-7.403193871180217,0.0,0.0,1.2917229890823363,11.833399772644043,0.01461739484220736,0.0,19.496770658215723,-122.75006074,49.192982119999996,0.6796423684466969,-0.5704997452822599,-0.3309176049449227,0.27919966795227746,-0.041297988458113194,1.2847286625341936,-1.0499842817133123,7.274859821796417,49.31117897033691,11.259379673004151,2.966247091690699,-1.5790103574593861,4.150931139787038,-269.62609405517577,137.81241722106932,-114.42562751770019,-0.07534315188725775,-7.277155677477519,-7.497338314851125,1.1579267134269078,-16.42941927909851,-8.610622237126032,-1.3723596533139546,0.9612727922697862,-1.2471831639607747,1.2104683133463066,-9.136518001556396,-1.1779976614440482
5.1,2.224982874411525,-17.097637776624072,-7.752265057328975,0.0,0.0,1.293512153625488,12.048199653625488,0.01746628349646918,0.0,19.898384947638135,-122.75006112,49.19298256,0.795341702347452,-0.47431379793719813,-0.21567189700153627,0.1786497915445855,0.06988431265133181,1.038784618856329,-2.049229664332939,-2.466840010881424,49.21845893859863,13.117439651489258,1.5418846208997297,-1.5165181489604893,1.8474739923170116,-285.4025253295898,127.4192377090454,-118.9292573928833,-5.210705810424053,-0.49049532232862525,-0.8623628227999713,-1.1776947855497852,-8.51329586722634,-1.8232198867833969,1.6889202356338502,-3.455634135007858,3.6964983463287355,4.010209570949276,-8.007055152546275,-1.025570741868719
5.2,1.2151188389821486,-16.99018276550553,-8.101336243477734,0.0,0.0,1.29530131816864,12.262999534606934,0.020315172150731,0.0,20.299999237060547,-122.7500615,49.192983,0.9110410362482071,-0.3781278505921364,-0.10042618905814983,0.07809991513689353,0.18106661376077682,0.7928405751784643,-3.0484750469525657,-25.532159423828126,36.69637908935547,24.284099578857422,0.11752215010876005,-1.4540259404615925,-0.45598315515301446,-301.17895660400393,117.02605819702148,-123.43288726806641,-10.34606846896085,6.2961650328202685,5.772612669251182,-3.513316284526478,-0.5971724553541705,4.964182463559237,4.20560359954834,-0.18687379360198975,4.599968036015828,6.809950828552246,-6.877592303536155,-0.8731438222933899
5.3,-3.5744464429038945,-7.883475883892087,-1.9628805531696836,0.0,0.0,1.2971964120864867,12.387199592590331,0.0228076182305812,0.0,20.299999237060547,-122.7500618,49.19298336,0.8117156525452932,-0.4650789797306061,-0.2776891862352689,0.1971578275163968,0.6002050836881002,1.0599271059036255,-3.0318551858266196,-45.44499893188477,20.332519340515137,11.708339989185333,-1.8001180738210678,4.390950282414754,-2.5298729489247003,-288.8410949707031,126.83119735717773,-110.89555892944335,-9.173106749852499,0.13639823595682785,1.7380251288414001,-4.724129835764567,-8.185048739115397,-0.6651049852371216,0.9019679985940456,-7.30617755651474,0.7511351944801087,4.426175475120544,-8.305701812108358,-2.4678436120351157
5.4,-8.364011724789938,1.2232309977213538,4.175575137138367,0.0,0.0,1.2990915060043333,12.51139965057373,0.0253000643104314,0.0,20.299999237060547,-122.7500621,49.19298372,0.6684162865082424,-0.56632869487459,-0.32373891646663344,0.28030079614483944,-0.7037302725242846,1.1855937025763772,-1.53162409139402,-45.659718704223636,24.009599685668945,7.678679728507996,-1.827377961948514,2.672611789156993,-2.07033684104681,-271.9739849090576,135.01556701660155,-115.89115314483642,-2.8629347185293836,-3.19491187731425,-3.8608941435813904,-1.3144074603915215,-12.092677692572277,-4.600575337807338,-0.453872874379158,4.62277364730835,-1.4574226724604766,1.5257256316641965,-8.882020632425945,-0.8043946214020252
5.5,-1.848355770111084,-6.409275069832802,1.6945172200600307,0.0,0.0,1.3009865999221801,12.635599708557129,0.0277925103902816,0.0,20.299999237060547,-122.7500624,49.192984079999995,0.5251169204711914,-0.6675784100185741,-0.36978864669799805,0.3634437647732821,-2.007665628736669,1.311260299249129,-0.031392996961420234,-33.214498901367186,31.97619915008545,22.23083953857422,-1.8546378500759602,0.9542732958992323,-1.6108007331689198,-255.10687484741212,143.1999366760254,-120.88674736022949,3.4472373127937317,-6.526221990585327,-9.459813416004181,2.095314914981524,-16.000306646029156,-8.536045690377554,-2.0001866459846496,4.438882827758789,-2.8558255672454833,-1.3747242117921512,-9.45833945274353,0.8590543692310652
5.6,0.34798803044991056,-11.741956666789271,-3.905920390152569,0.0,0.0,1.3028816938400267,12.759799766540528,0.030284956470131803,0.0,20.299999237060547,-122.7500627,49.19298444,0.6399821142355602,-0.5794479267841035,-0.32225132671495277,0.3163904927558068,-1.1215567269898723,1.2247218297738018,-1.0602101029291973,-5.981659936904907,46.68085861206055,17.178819561004637,0.7524355245246128,-1.2169314885907099,1.3671210512067333,-267.88668022155764,137.24145717620848,-117.7272523880005,0.3185558454556898,-9.802673415704206,-8.087032391266389,1.3244635410832635,-18.817016816500463,-8.230074867380388,-3.9681806166966758,2.39680615067482,-4.892521580060323,0.9831061092572229,-8.998597892847929,-0.20775599224549357
5.7,2.544331831010905,-17.07463826374574,-9.50635800036517,0.0,0.0,1.3047767877578735,12.883999824523926,0.032777402549982,0.0,20.299999237060547,-122.750063,49.1929848,0.7548473079999288,-0.491317443549633,-0.2747140067319075,0.2693372207383315,-0.2354478252430757,1.1381833602984746,-2.0890272088969746,7.021099841594696,50.00901870727539,7.300479888916016,3.359508899125186,-3.3881362730806526,4.345042835582387,-280.66648559570314,131.2829776763916,-114.56775741577148,-2.810125621882352,-13.079124840823086,-6.714251366528598,0.5536121671850031,-21.63372698697177,-7.924104044383222,0.0003054340680440267,-0.09817110498746236,1.3896675109863281,3.340936430306597,-8.538856332952326,-1.2745663537220522
5.8,4.294998845593495,-14.88856819091421,-7.541614947953459,0.0,0.0,1.3047767877578735,13.227799797058106,0.0317678660154342,0.0,20.299999237060547,-122.75006324,49.19298532,0.9261477788289388,-0.36794014771779376,-0.017438799530888564,0.06705430274208381,-0.024742313505460814,0.7554041842619578,-2.987045248349508,-14.103199809789658,46.4893196105957,12.869779586791992,-0.16284647583961487,-1.4036919871966045,-1.3036373158295949,-305.4721343994141,114.44087829589844,-132.18455963134767,-16.29676342010498,16.02717860539754,12.091176430384317,-9.00189850727717,9.458129932483038,12.436795552571615,2.5005514721075692,-1.752419650554657,5.104466398557027,7.272063175837199,-6.553303559621175,0.2809056142965953
5.9,6.045665860176086,-12.702498118082682,-5.576871895541747,0.0,0.0,1.3047767877578735,13.571599769592286,0.0307583294808864,0.0,20.299999237060547,-122.75006348,49.19298584,0.8587776034167318,-0.4291448177713336,-0.13133865444935064,0.14393804487631173,0.06201134718757011,0.9438772955627153,-2.5063792376807243,-35.97657985687256,26.36663951873779,24.24749937057495,-1.1085422486066818,1.3438717027505238,-2.2193306932846704,-296.54142837524415,121.49278316497804,-123.59636898040772,-12.694788634777069,5.325267434120178,6.616151531537374,-7.162166874855757,-2.286441718538603,6.201049817105135,3.854966938495636,-6.089639147122701,3.1002683440844216,5.509820183118185,-7.595963915189108,-0.4798152334988118
6.0,-7.579564892997344,-8.777820646762848,1.7394823630650837,0.0,0.0,1.3047767877578735,13.915399742126464,0.0297487929463386,0.0,20.299999237060547,-122.75006372,49.19298636,0.7914074280045249,-0.4903494878248735,-0.24523850936781272,0.22082178701053962,0.148765007880601,1.1323504068634727,-2.025713227011941,-49.84553985595703,19.585879516601562,0.941839975118637,-2.054238021373749,4.091435392697652,-3.135024070739746,-287.61072235107423,128.54468803405763,-115.00817832946777,-9.092813849449158,-5.376643737157186,1.14112663269043,-5.322435242434342,-14.031013369560242,-0.034695918361345925,-0.24669792056083678,-0.28845055103302003,-1.5390138991177083,3.74757719039917,-8.63862427075704,-1.2405360812942188
6.1,-5.550138525947025,-10.603967894207347,0.7387069156675627,0.0,0.0,1.3047767877578735,14.259199714660644,0.0287392564117908,0.0,20.299999237060547,-122.75006395999999,49.19298688,0.6434207927774299,-0.6166457813797575,-0.2692964817538406,0.2772570496255701,-1.1583057640854155,1.1709889579902995,-0.88239069497495,-40.966379928588864,28.15637950897217,15.317099618911744,-1.3044171211394398,1.7296574296373306,-1.7227551202205094,-269.1124740600586,136.60156764984131,-121.30917320251464,0.5905516472729779,-3.483294635108023,-3.568554184653542,1.0803411689897375,-12.356504356488585,-3.0593054053006745,-0.24134266873200735,4.102265576521556,-1.6666440069675446,0.4669880812818352,-8.857464396592343,0.4445352345479259
6.2,-3.520712158896707,-12.430115141651846,-0.2620685317299584,0.0,0.0,1.3047767877578735,14.602999687194824,0.027729719877243,0.0,20.299999237060547,-122.7500642,49.1929874,0.49543415755033493,-0.7429420749346415,-0.2933544541398684,0.3336923122406006,-2.465376536051432,1.2096275091171265,0.2609318370620409,-23.00187931060791,39.22299861907959,20.9193395614624,-0.5545962209051306,-0.6321205334229902,-0.31048616970127285,-250.61422576904297,144.658447265625,-127.61016807556152,10.273917143995112,-1.58994553305886,-8.278235001997514,7.483117580413818,-10.68199534341693,-6.083914892240004,-3.7141879399617515,4.474333484967549,-4.5904741287231445,-2.813601027835499,-9.076304522427646,2.1296065503900703
6.3,3.8332657705653794,-19.140088736107856,-3.0209159164717705,0.0,0.0,1.3169472694396973,14.876199722290039,0.02658331282436844,0.0,20.299999237060547,-122.7500642,49.19298758,0.7150286436080933,-0.5530130366484324,-0.2838910793264707,0.29892564316590625,-0.15580619747440022,1.295909325281779,-2.1234958171844482,6.367179864645005,49.583238983154295,6.575799989700317,3.8667006691296897,0.3304017682870229,5.305746396382649,-273.61549682617186,138.3443405151367,-118.93291854858398,3.675454859932264,-24.560710509618122,-10.45581458012263,5.469095240036647,-33.98416304588318,-10.728419880072275,-2.3431263913710914,-1.7040085916717846,-3.4745251536369324,1.770838975906372,-9.407706419626871,-0.3373192399740219
6.4,11.187243700027466,-25.850062330563862,-5.779763301213582,0.0,0.0,1.329117751121521,15.149399757385254,0.02543690577149388,0.0,20.299999237060547,-122.7500642,49.19298776,0.8090827492150394,-0.4692278594681711,-0.17593167399084475,0.21259090146332071,-0.05785392230433045,1.0518363614877067,-2.504107095978477,3.657559961080551,50.02365913391113,4.456659841537475,2.2428553899129233,-1.0449104507764182,2.66000632631282,-286.8378562927246,127.45980415344238,-122.81312770843506,-4.612392840286095,-10.018392115831375,-2.845662909249464,-0.4639334132273989,-18.295422106981277,-3.047484102348486,1.351310282945633,-0.03265585501988729,3.309896985689799,4.1256578365961705,-8.261284112930298,-0.2665348096440236
6.5,2.351247325539589,-18.11262063185374,-8.78903696934382,0.0,0.0,1.3412882328033446,15.422599792480469,0.02429049871861932,0.0,20.299999237060547,-122.7500642,49.19298794,0.9031368548219855,-0.3854426822879098,-0.06797226865521885,0.1262561597607352,0.040098352865739324,0.807763397693634,-2.8847183747725054,-17.98889970779419,43.48933906555176,14.19347972869873,0.6190101106961569,-2.420222669839859,0.014266256242990494,-300.06021575927736,116.57526779174805,-126.69333686828614,-12.900240540504456,4.523926277955373,4.7644887616237,-6.396962066491445,-2.606681168079376,4.633451675375302,4.080457592010498,1.1557265400886536,5.507683181762696,6.48047669728597,-7.114861806233724,-0.19575037931402525
6.6,-2.386881321414627,-8.946267754742594,-1.679616509061871,0.0,0.0,1.3534587144851684,15.695799827575684,0.02314409166574476,0.0,20.299999237060547,-122.7500642,49.19298812,0.8085371382308729,-0.46240725774656644,-0.17567201132293453,0.20127852723905532,-0.03334812639337597,0.9999652107556661,-2.0182765677825296,-42.80369873046875,21.281679534912108,12.990559688210487,-1.1473460512546203,0.24422690136866132,-1.7863256072794849,-289.44957008361814,124.22741222381592,-121.39274253845215,-11.713424557989294,-3.176231482715317,2.7557505583672812,-7.234737693360357,-11.228388184850866,2.3224088262879485,2.370920712749163,-8.281830867131552,2.9077440400918326,4.455885169124513,-8.036411140904281,-0.49805510140052345
6.7,-7.125009968368844,0.22008512236855313,5.429803951220079,0.0,0.0,1.3656291961669922,15.968999862670898,0.0219976846128702,0.0,20.299999237060547,-122.7500642,49.1929883,0.7139374216397604,-0.5393718332052231,-0.2833717539906502,0.2763008947173754,-0.10679460565249126,1.1921670238176982,-1.1518347607925534,-46.06353912353516,22.15885944366455,-0.12443999648094177,-2.913702213205397,2.9086764725771816,-3.58691747080196,-278.838924407959,131.8795566558838,-116.09214820861817,-10.526608575474132,-10.876389243386008,0.7470123551108621,-8.07251332022927,-19.850095201622356,0.011365977200594816,-1.0124072954058647,2.9970830815533795,-2.6582056283950806,2.4312936409630557,-8.95796047557484,-0.8003598234870217
6.8,-4.71290427172613,-5.058504353870045,2.0271150040807147,0.0,0.0,1.3656291961669922,16.249599838256835,0.018166506290435758,0.0,20.299999237060547,-122.7500636,49.192988060000005,0.41732845902442933,-0.77662193775177,-0.28165251612663267,0.3769143998622894,-2.3765276432037354,1.0361089706420898,0.2430228471755981,-36.476778984069824,29.567919540405274,17.295939636230468,-0.9379835873842239,1.1325187385082245,-0.2242639660835266,-245.32369537353514,143.53421783447266,-134.22561645507812,14.714756091435751,-2.701049566268921,-10.489788055419922,11.38066323598226,-11.247961620489756,-7.01814877986908,-0.2692897766828537,4.532187481721242,-2.2643247892459235,-3.35689385732015,-8.531166712443033,3.4069260358810425
6.9,-2.3007985750834146,-10.337093830108643,-1.37557394305865,0.0,0.0,1.3656291961669922,16.530199813842774,0.01433532796800132,0.0,20.299999237060547,-122.750063,49.192987820000006,0.5247744344174862,-0.68644064416488,-0.27449710778892034,0.37689521312713625,-1.6755225433657568,1.1236957162618637,-0.4791288618231193,-9.947879862785339,44.48119926452637,16.772559690475465,1.0337089415300975,0.23056809604167938,2.07902774756605,-257.88085021972654,140.83710212707518,-129.30810260772705,8.464692356008472,-7.055931860750372,-8.701273733919317,7.431001323642153,-15.920187815572277,-6.292171881957488,-5.793140602111817,1.7951191862113773,-4.755402755737305,-1.0564922320684702,-8.848510279799953,2.344388501549309
7.0,0.40634461966427887,-21.116986431858756,-2.691653533415361,0.0,0.0,1.3656291961669922,16.81079978942871,0.010504149645566879,0.0,20.299999237060547,-122.7500624,49.19298758,0.6322204098105431,-0.5962593505779902,-0.26734169945120806,0.37687602639198303,-0.974517443527778,1.2112824618816376,-1.2012805708218366,10.30289978981018,48.67921905517578,-1.099219959974289,3.005401470444419,-0.6713825464248657,4.382319461215626,-270.438005065918,138.13998641967774,-124.39058876037598,2.2146286205811934,-11.410814155231822,-6.912759412418712,3.4813394113020464,-20.592414010654796,-5.566194984045896,-1.1903472766280174,0.7513643304506937,-0.8063421994447708,1.2439093931832097,-9.165853847156871,1.2818509672175755
7.1,1.4523253675663108,-20.39725644672007,-4.1288290786923785,0.0,0.0,1.3656291961669922,17.09139976501465,0.006672971323132439,0.0,20.299999237060547,-122.7500618,49.19298734,0.7593172776202362,-0.5037653545538584,-0.15863029247460264,0.2801244376848141,-0.533288279393067,1.0329589272538822,-1.9487190429354087,-2.2996999740600588,49.29287872314453,1.5530599758028985,1.8113913065259992,-0.972111036380132,2.087668968195265,-285.4366851806641,128.29885749816896,-127.69770259857178,-2.811985490900098,-2.573020174647823,-1.694231176918203,1.0144729993560095,-10.8166210212265,-0.6118103676673137,1.6246724724769592,-1.8987473845481873,3.5382078687349954,3.8036570918718073,-8.227855319326574,1.0177073265905634
7.2,2.498306115468343,-19.67752646158139,-5.566004623969396,0.0,0.0,1.3656291961669922,17.371999740600586,0.002841793000698,0.0,20.299999237060547,-122.7500612,49.1929871,0.8864141454299291,-0.4112713585297267,-0.04991888549799719,0.18337284897764516,-0.09205911525835592,0.8546353926261266,-2.6961575150489807,-27.323119354248046,37.27709903717041,15.918559551239014,0.6173811426075796,-1.2728395263353982,-0.2069815248250962,-300.4353652954102,118.45772857666016,-131.00481643676758,-7.838599602381389,6.264773805936177,3.524297058582306,-1.4523934125900269,-1.0408280317982037,4.342574248711268,4.484590808550517,-0.24090993404388428,5.171890497207642,6.363404790560405,-7.289856791496277,0.7535636859635512
7.3,-5.044468959172566,-5.799130393813055,2.3008983333905535,0.0,0.0,1.3664727926254272,17.516399765014647,0.00263280249200754,0.0,20.299999237060547,-122.7500607,49.192986780000005,0.7608522534370422,-0.514524269104004,-0.2688005834817886,0.2749849796295166,0.43517338633537295,1.2164443492889405,-2.772058343887329,-46.71013870239258,20.491119384765625,1.4566799998283388,-1.524261485785246,5.274770538012187,-4.542801300684611,-284.2233917236328,131.08045806884766,-115.6047576904297,-16.699473371108372,3.413678248723348,5.355403582255046,-13.565310309330622,-5.704389604429404,4.405086716016133,0.3893502429127693,-4.904280754427115,1.3752867579460144,3.1113615334033966,-9.102322737375895,-1.0150304436683655
7.4,-12.587244033813477,8.079265673955282,10.167801290750504,0.0,0.0,1.3673163890838624,17.66079978942871,0.0024238119833170798,0.0,20.299999237060547,-122.75006020000001,49.19298646,0.6187015975515048,-0.6344460934400559,-0.27316084168851373,0.306022992481788,-0.823637334505717,1.186513223250707,-1.1915238737439116,-42.907399368286136,26.714339637756346,2.7864799082279204,-1.7649423751810736,2.14352848945242,-2.8216791568380417,-266.78318748474123,136.9697021484375,-122.72559299468995,-5.723615218744133,-3.81298486030463,-0.7680856115890267,-5.701751925276987,-12.767399224255122,0.0549850373557117,0.36777142286300657,3.6596325874328612,-2.8670961260795593,-0.0009381635622545126,-8.938668850696448,0.7583571523427963
7.5,-0.5668813816525721,-7.681776469404047,0.9136231866749852,0.0,0.0,1.3681599855422975,17.805199813842773,0.0022148214746266198,0.0,20.299999237060547,-122.7500597,49.19298614,0.4765509416659673,-0.7543679177761078,-0.2775210998952389,0.3370610053340593,-2.082448055346807,1.1565820972124736,0.3890105963995059,-28.596799659729005,36.22545948028564,17.52163963317871,-2.005623264576901,-0.9877135591073471,-1.100557012991472,-249.3429832458496,142.85894622802735,-129.8464282989502,5.252242933620106,-11.039647969332608,-6.8915748054331,2.161806458776647,-19.83040884408084,-4.29511664130471,-1.2600113848845165,5.261535048484802,-4.262541353702545,-3.1132378605279056,-8.775014964017002,2.531744748353958
7.6,0.24322964838056838,-12.70031406752991,-1.3795053001606106,0.0,0.0,1.3690035820007327,17.949599838256837,0.00200583096593616,0.0,20.299999237060547,-122.7500592,49.19298582,0.6099151993791262,-0.6536609462716363,-0.22694611727175384,0.30429842921369,-1.3613671465511399,1.160848499247522,-0.7257822836382373,2.963379991054535,47.77763900756836,7.71649985909462,-0.0225383557209915,-2.149772506771666,2.1011502824046397,-265.13710327148436,136.79554653167725,-126.65612773895265,0.6789036646033777,-11.500858879450595,-4.7224013099842,0.5723786103454502,-20.250328785542287,-2.9855198540696595,-4.6398778557777405,-1.8506671339273453,-4.756934901078542,-0.12932654854023085,-8.733724101023242,1.6721679754555225
7.7,1.053340678413709,-17.718851665655773,-3.672633786996206,0.0,0.0,1.3698471784591677,18.0939998626709,0.0017968404572457,0.0,20.299999237060547,-122.7500587,49.1929855,0.7432794570922852,-0.5529539747671648,-0.17637113464826884,0.2715358530933206,-0.6402862377554729,1.1651149012825706,-1.8405751636759802,9.603839755058289,48.230259323120116,-1.1565600156784057,1.9605465531349182,-3.311831454435984,5.302857577800751,-280.9312232971191,130.73214683532714,-123.46582717895508,-3.8944356044133506,-11.962069789568583,-2.5532278145353,-1.0170492380857465,-20.670248727003735,-1.6759230668346088,0.967712347706159,0.05591963976621628,2.866917848587036,2.8545847634474435,-8.69243323802948,0.812591202557087
7.8,3.847260018189748,-21.98560334245364,-3.321013500293096,0.0,0.0,1.3635920166969302,18.21959991455078,0.05628925457131117,13.764305114746094,20.299999237060547,-122.75005809999999,49.19298501,0.9089579184850057,-0.379874308904012,0.05833458256286877,0.1520569957792758,-0.3068985193967819,0.7416358391443888,-2.690771301587423,-12.651399779319764,45.52185897827148,7.088199853897095,-0.26687175035476685,2.1315379440784454,-1.7563903232415516,-303.1638977050781,111.52019729614258,-136.08977661132812,-12.740905284881592,15.068164745966593,4.8130320111910505,-5.924329876899719,8.378368894259134,7.094918628533681,1.7977153182029724,-0.005711555480957031,5.787184524536133,6.793773412704468,-6.674050569534302,2.217172940572103
7.9,6.641179357965787,-26.252355019251507,-2.9693932135899863,0.0,0.0,1.3573368549346925,18.345199966430663,0.11078166868537663,27.528610229492188,20.299999237060547,-122.7500575,49.192984519999996,0.8196072056889534,-0.464234322309494,-0.06072761393928281,0.22890619250635302,-0.43484641378745437,0.9426866943637531,-2.273896767757833,-37.95785999298096,26.23243942260742,12.232939875125885,-1.477353306656534,2.4204737225716766,-3.0782540878563216,-294.8407524108886,120.1422420501709,-129.40905742645265,-11.72967850078236,2.8056475718816127,3.454435419855696,-6.739588948813352,-4.963253434860347,5.139991548025247,2.1783200105031333,-6.143446286519368,5.233638842900594,4.967287542467767,-7.753155740824613,1.6208425737691647
8.0,-10.136159983548252,-3.5330024632540615,4.177868333729831,0.0,0.0,1.351081693172455,18.47080001831055,0.1652740827994421,41.29291534423828,20.299999237060547,-122.7500569,49.19298403,0.7302564928929011,-0.548594335714976,-0.17978981044143438,0.3057553892334302,-0.5627943081781268,1.1437375495831172,-1.8570222339282434,-47.5372989654541,16.665199756622314,-2.963379955291748,-2.6878348629583013,2.7094095010649073,-4.400117852471092,-286.5176071166992,128.76428680419923,-122.72833824157715,-10.718451716683127,-9.45686960220337,2.0958388285203413,-7.554848020726984,-18.304875763979826,3.1850644675168125,-0.282576081653436,1.704594078163306,-1.5346462229887645,3.1408016722310674,-8.832260912114924,1.0245122069662267
8.1,-7.734581631184979,-11.358305259184405,3.275225821769599,0.0,0.0,1.3448265314102175,18.59640007019043,0.21976649691350758,55.057220458984375,20.299999237060547,-122.7500563,49.19298354,0.5854953191045559,-0.6723103207169157,-0.18360667493702332,0.3336114850685452,-1.4026537114669653,1.0687916335282903,-0.9604740819865556,-41.30553932189942,25.801779556274415,9.320799827575684,-1.420390132518316,1.044576070412542,-1.8631158164053252,-270.6399158477783,135.99065322875975,-131.02982730865477,0.24833930622447653,-4.908643146355947,-2.3623306037801686,0.2731262716380032,-13.454583558056392,0.24602112309499224,-0.7077637383093437,3.670358287791411,-2.787530799706777,0.001985328441316714,-8.530195030299101,2.543638316519332
8.2,-5.333003278821707,-19.183608055114746,2.3725833098093667,0.0,0.0,1.3385713696479797,18.722000122070312,0.27425891102757305,68.82152557373047,20.299999237060547,-122.75005569999999,49.19298305,0.44073414531621063,-0.7960263057188555,-0.18742353943261228,0.36146758090366016,-2.2425131147558037,0.9938457174734636,-0.06392593004486778,-20.47647967338562,42.01679916381836,11.47531989812851,-0.15294540207833054,-0.6202573602398235,0.6738862196604409,-254.76222457885743,143.2170196533203,-139.33131637573243,11.21513032913208,-0.3604166905085246,-6.820500036080678,8.10110056400299,-8.604291352132956,-2.693022221326828,-4.436485290527344,0.06640615065892537,-6.67113200823466,-3.1368310153484344,-8.228129148483276,4.062764426072438
8.3,5.834449303026,-15.935326476891834,-0.0842972596486411,0.0,0.0,1.3323162078857422,18.847600173950195,0.3287513251416385,82.58583068847656,20.299999237060547,-122.7500551,49.19298256,0.6906368335088094,-0.6068376998106638,-0.13511247932910916,0.3558216691017151,-0.9015801101922989,1.184549887975057,-1.5166164338588715,6.104879975318909,48.53403930664062,-5.476579844206571,2.659478187561035,0.2781473199526469,6.053649187088013,-284.3112335205078,134.94907608032227,-133.12761688232422,0.9436097542444871,-32.98686695098877,-1.3078867594401042,3.642573833465576,-41.96163590749105,1.0606185992558796,-1.5846760332584382,0.8338309526443481,-0.9977567225694657,2.6761626886824765,-8.95902156829834,2.30379190047582
8.4,17.001901884873707,-12.687044898668924,-2.541177829106649,0.0,0.0,1.3260610461235047,18.973200225830077,0.383243739255704,96.35013580322266,20.299999237060547,-122.7500545,49.19298207,0.7713353956739109,-0.5297806325058142,-0.03425225658187023,0.29519042062262696,-0.7134702323625486,1.0139240796367326,-1.9394893993933995,-4.37613992728293,48.189999389648435,-6.933259916305542,1.4958041953769596,-0.6409665123757089,2.941449214111675,-291.89902420043944,126.26755657196045,-139.30569725036622,-4.823719286557401,-11.36253809928894,-0.4270964571923921,-0.662734909491105,-19.419718830874473,2.528506548595473,1.2448924823353689,-0.4139375487963359,3.2838842272758484,4.138182819623387,-8.04143448309465,2.8908895732778492
8.5,2.501424117521806,-21.965404662218962,-1.069102336059917,0.0,0.0,1.3198058843612672,19.098800277709962,0.43773615336976945,110.11444091796875,20.299999237060547,-122.7500539,49.19298158,0.8520339578390121,-0.45272356520096463,0.06660796616536872,0.2345591721435388,-0.5253603545327982,0.8432982712984085,-2.3623623649279275,-28.68463945388794,40.094079399108885,-0.0012200295925140381,0.3321302031928843,-1.5600803447040645,-0.17075075886466287,-299.48681488037107,117.58603706359864,-145.4837776184082,-10.591048327359287,10.261790752410889,0.45369384505532007,-4.968043652447787,3.1221982457421045,3.9963944979350674,2.545780917008718,0.25154922405878694,6.050900141398112,5.600202950564298,-7.123847397890958,3.4779872460798784
8.6,-0.9994883370218859,-10.400822623435296,1.764752059384729,0.0,0.0,1.3135507225990295,19.224400329589844,0.4922285674838349,123.87874603271484,20.299999237060547,-122.75005329999999,49.192981089999996,0.7678501409563152,-0.543200941135486,-0.02668998530487332,0.2593798619892561,-0.8428255742359343,1.014034741981463,-1.8750317606962088,-45.96471977233887,19.626139831542968,-9.92713970541954,-0.44026955131046247,-0.4712859343624476,-2.4990248925080807,-289.0271453857422,126.99986190795899,-140.15207214355468,-9.777941250439847,-0.5880286693572998,1.1170839956312468,-6.373804215228919,-8.609394179374883,4.095431587489491,0.036702816685040794,-4.415817538897196,3.087516496578852,3.381335515641805,-8.005620138211684,2.913634139480013
8.7,-4.5004007915655775,1.1637594153483708,4.598606454829375,0.0,0.0,1.307295560836792,19.350000381469727,0.5467209815979004,137.64305114746094,20.299999237060547,-122.7500527,49.1929806,0.6836663240736182,-0.6336783170700073,-0.11998793677511536,0.2842005518349734,-1.1602907939390703,1.1847712126645176,-1.38770115646449,-41.75571975708008,25.835939407348633,-14.787619590759277,-1.2126693058138092,0.6175084759791692,-4.827299026151498,-278.5674758911133,136.41368675231934,-134.82036666870118,-8.964834173520407,-11.437848091125488,1.7804741462071736,-7.779564778010051,-20.34098660449187,4.194468677043915,0.8049371242523193,1.4855936884880065,-3.7242926955223083,1.162468080719312,-8.88739287853241,2.3492810328801474
8.8,-5.542544870575269,-4.491741911073526,3.7845282254119716,0.0,0.0,1.3082139253616332,19.92640037536621,0.5870149970054627,137.90081787109375,20.395421321782425,-122.75005055999999,49.1929789,0.4132465422153473,-0.8504925767580668,-0.13444357862075165,0.2919341052571932,-2.4681013027826944,0.8984449505805969,-0.02296957730626065,-36.63659934997558,35.08719940185547,-4.727499920129776,0.08320492506027229,3.167667200167974,0.9168578386306763,-244.584375,143.088916015625,-141.92747802734374,15.623855034510294,1.4713911215464277,-6.671697815259297,11.12303606669108,-6.21665275345246,-2.5889345010121656,0.6274604313075542,2.7430139978726706,-2.081472396850586,-4.523620088895162,-7.672298749287923,4.018049796422322
8.9,-6.584688949584961,-10.147243237495422,2.970449995994568,0.0,0.0,1.3091322898864746,20.502800369262694,0.627309012413025,138.15858459472656,20.490843406504304,-122.75004842,49.1929772,0.5239809503157933,-0.7655506705244381,-0.11922859643042705,0.3007088415324688,-1.9727620581785836,1.0233856588602066,-0.5389655486214907,-9.245159840583801,48.03017921447754,1.3395599365234374,0.4931012903424827,0.9455002388267806,2.9882231788201765,-257.72377433776853,141.7405111312866,-139.3087474822998,8.146617318644669,-6.345440362439011,-3.792310640667424,6.031870823917966,-14.66351178141706,-0.17141768245985967,-2.9443450023730597,-0.7779878079891205,-7.293959895769755,-2.1375478554629916,-8.302325971198805,3.5561794548323657
9.0,-0.24122650424639383,-18.252949411670368,2.3493530551592507,0.0,0.0,1.3100506544113157,21.07920036315918,0.6676030278205871,138.41635131835938,20.586265491226186,-122.75004627999999,49.192975499999996,0.6347153584162394,-0.6806087642908096,-0.10401361424010243,0.3094835778077443,-1.4774228135744731,1.1483263671398163,-1.0549615199367206,11.042219924926759,48.23391952514648,-8.801079845428466,0.9029976556246931,-1.2766667225144126,5.059588519009677,-270.8631736755371,140.39210624694823,-136.69001693725585,0.6693796027790418,-14.16227184642445,-0.9129234660755504,0.940705581144853,-23.11037080938166,2.2460991360924463,-0.10203995803991954,2.664594213167826,0.43038002649943036,0.24852437796917828,-8.932353193109686,3.0943091132424096
9.1,0.07492516313989958,-19.903598345816135,2.0121395364403725,0.0,0.0,1.3109690189361571,21.655600357055665,0.7078970432281494,138.6741180419922,20.681687575948065,-122.75004414,49.1929738,0.7402130726611975,-0.5736178884452039,0.02247760620031676,0.2526357442592129,-1.0934958521163824,0.9867454645308582,-1.7089179055483052,-2.254559963941574,49.7210994720459,-4.942219924926758,0.49925449264772015,-1.4491615205100088,2.760472223670645,-284.5247341156006,129.55728721618652,-142.6719825744629,-3.353591188336863,-4.163060053731456,-1.7507989659453882,-0.7457244825182543,-12.23890951998306,2.0305774115364663,0.874504509071509,-1.5453617970148723,4.009592195351918,2.585064843409892,-8.06010376142733,3.7166629243980758
9.2,0.39107683052619296,-21.554247279961903,1.674926017721494,0.0,0.0,1.3118873834609983,22.23200035095215,0.7481910586357117,138.931884765625,20.777109660669943,-122.750042,49.1929721,0.8457107869061556,-0.46662701259959827,0.14896882664073596,0.19578791071068152,-0.7095688906582919,0.8251645619219,-2.36287429115989,-28.21859951019287,41.3531192779541,-2.1850199699401855,0.09551132967074712,-1.621656318505605,0.46135592833161354,-298.18629455566406,118.7224681854248,-148.65394821166993,-7.376561979452769,5.836151738961537,-2.588674465815226,-2.4321545461813616,-1.3674482305844622,1.815055686980486,0.9184053659439086,-0.6412558197975159,6.176122570037842,4.921605308850606,-7.187854329744975,4.3390167355537415
9.3,-6.929569636036953,-3.426013598839443,0.5990780467788379,0.0,0.0,1.3118402957916258,22.41800035749163,0.6718660593032837,144.36861092703683,20.843406875428066,-122.7500419,49.19296981428571,0.7947408159573873,-0.5469348827997843,0.026014330486456547,0.23628417402505872,-0.6955764094988505,1.0498432318369548,-2.137886087099711,-44.361639404296874,20.847359657287598,-15.40737979412079,1.0972972631454467,3.6284785769879813,-5.054115736484528,-294.5226318359375,126.66283721923828,-139.88641815185548,-19.161836624145508,5.623311519622802,-1.0548356533050534,-15.275540781021117,-2.7029324531555177,2.183929204940796,-0.46028695503870637,-4.253123824795087,3.2094859977563224,3.863493871688843,-8.310498905181884,3.1740514993667603
9.4,-14.250216102600097,14.70222008228302,-0.47676992416381836,0.0,0.0,1.3117932081222532,22.604000364031112,0.5955410599708557,149.80533708844865,20.909704090186192,-122.75004179999999,49.19296752857143,0.6339420314991113,-0.6765894655025366,-0.05399695964473665,0.27480899440971285,-1.4767820627400368,1.0340206279899136,-1.174308158323225,-40.75775985717773,26.88757915496826,-15.647719764709473,0.021497388432423215,2.549339242403706,-4.006395309666793,-274.45485343933103,135.1961284637451,-138.58711853027344,-7.15247006714344,-1.9903707305590315,-2.13520629008611,-6.760302425424257,-10.29613646666209,1.4145719731847446,0.8384380042552948,1.1412489811579387,-2.1690552035967507,0.3693658185501896,-8.290020283063253,3.485064862171809
9.5,0.5168497562408447,-8.603593210379282,3.302643577257792,0.0,0.0,1.3117461204528806,22.790000370570592,0.5192160606384277,155.24206324986048,20.976001304944315,-122.7500417,49.19296524285714,0.47314324704083527,-0.8062440482052889,-0.13400824977592984,0.31333381479436695,-2.257987715981223,1.0181980241428723,-0.21073022954673926,-38.89603900909424,31.807839393615723,-6.7600198745727536,-1.0543024862806003,1.47019990781943,-2.9586748828490577,-254.3870750427246,143.72941970825195,-137.2878189086914,4.856896489858627,-9.604052980740866,-3.215576926867167,1.7549359301726024,-17.88934048016866,0.6452147414286932,0.7232898672421774,3.1072932531436286,-5.485977207620938,-3.1247622345884642,-8.26954166094462,3.7960782249768577
9.6,0.7806854563003237,-14.404021708351191,2.0349348331942703,0.0,0.0,1.3116990327835083,22.976000377110072,0.44289106130599976,160.67878941127233,21.042298519702438,-122.7500416,49.19296295714286,0.5584869954847929,-0.7341606841620171,-0.1000392096969087,0.3235377063128081,-1.8382875438440929,1.0442391191468094,-0.6703756555816102,-4.899519795179367,48.92077827453613,-1.6799399316310883,-0.15930219180881977,-0.4029865227639673,1.3827444141109786,-264.22820510864256,140.52234382629393,-137.12281379699706,0.6416071504354477,-11.700901488463085,-2.0604293942451477,-0.3170240720113118,-20.07827474673589,1.8071045838296413,-2.181155413389206,-0.4200614348053932,-7.061846446990967,-0.9814328538874784,-8.361627499262491,3.802820533514023
9.7,1.0445211563598027,-20.204450206323102,0.7672260891307485,0.0,0.0,1.3116519451141357,23.162000383649552,0.3665660619735718,166.11551557268416,21.10859573446056,-122.75004150000001,49.19296067142857,0.6438307439287504,-0.6620773201187452,-0.06607016961788756,0.33374159783124924,-1.4185873717069626,1.0702802141507466,-1.130021081616481,7.378559899330139,48.8280590057373,-6.642899847030639,0.7356981026629607,-2.276172953347365,5.724163711071014,-274.06933517456054,137.31526794433594,-136.95780868530272,-3.573682188987732,-13.797749996185303,-0.9052818616231283,-2.388984074195226,-22.26720901330312,2.9689944262305894,-0.19802216192086544,3.1303535451491675,1.111291120449702,1.161896526813507,-8.453713337580362,3.809562842051188
9.8,2.462989272380417,-14.627750514131602,-0.8230176423535203,0.0,0.0,1.3116048574447632,23.348000390189036,0.2902410626411438,171.552241734096,21.174892949218687,-122.7500414,49.19295838571429,0.85606121023496,-0.41712646186351776,0.2154820362726847,0.21340348571538922,-0.7760109603404999,0.6720810731252035,-2.369290073712667,-5.241119909286499,48.58039894104004,-3.490419936180115,-0.7805636167526245,-1.585775625705719,0.4711603164672852,-297.876416015625,111.8691177368164,-153.07705383300782,-14.519664478302001,20.5620325088501,-6.394878768920899,-9.049416160583496,14.592389464378357,-0.7645069122314453,0.5107597162326177,-1.3601932724316914,4.402302225430806,5.4474469184875485,-5.953897190093994,5.565658378601074
9.9,3.8814573884010315,-9.051050821940104,-2.413261373837789,0.0,0.0,1.3115577697753906,23.534000396728516,0.2139160633087158,176.9889678955078,21.24119016397681,-122.7500413,49.1929561,0.8156377027432125,-0.49023742364211514,0.1260820106659649,0.23027901114387944,-0.8228793374516747,0.8594646959593801,-2.1664125693566874,-31.644358825683593,36.340139389038086,-4.172399950027466,0.03193425374726455,0.6197571356470386,-2.10791524797678,-293.3480796813965,119.80582733154297,-148.02229080200198,-9.227339035272598,9.650012119611105,-2.31301205555598,-4.939115040500958,2.5090040912230798,2.344766764094432,1.0721194048722584,-2.6384543081124625,6.862281958262126,4.265422563254833,-7.1252624750137326,4.593065365155538
10.0,-7.48355283588171,-11.251251459121704,3.3897822250922522,0.0,0.0,1.3047967672348022,23.666000366210938,0.2062336146831512,177.53482360839843,21.5729520548875,-122.75004144,49.19295352,0.7752141952514648,-0.5633483854207125,0.03668198505924507,0.24715453657236963,-0.8697477145628496,1.0468483187935569,-1.9635350650007075,-42.24981918334961,17.014119625091553,-19.950659370422365,0.8444321242471536,2.8252898969997964,-4.686990812420845,-288.81974334716796,127.74253692626954,-142.9675277709961,-3.935013592243195,-1.262008269627889,1.7688546578089397,-0.8288139204184208,-9.574381281932196,5.45404044042031,-0.580780134225885,-1.8017215948396677,0.04110610485076904,3.0833982080221176,-8.296627759933472,3.6204723517100015
10.1,-4.295442987910726,-10.565091474489734,4.419418812926971,0.0,0.0,1.2980357646942138,23.79800033569336,0.19855116605758663,178.08067932128907,21.904713945798196,-122.75004158,49.19295094,0.60822868719697,-0.6870779756343726,-0.057067970646488816,0.2954042555030548,-1.566515910806078,1.0070593664140413,-1.045196496636367,-37.81511917114258,27.775739669799805,-14.471639633178711,0.09771472176141816,1.7189036167762948,-2.957553810694001,-268.9907791137695,135.21259727478028,-142.17910194396973,1.2210454751144755,-5.59457420941555,-2.717471493012977,0.9317733704140696,-13.68642442109007,1.3243367562465602,1.959747326374054,1.2844664573669433,-1.6795434951782227,-0.312073780054396,-8.07610471682115,3.977094816439079
10.2,-1.1073331399397417,-9.878931489857761,5.449055400761691,0.0,0.0,1.2912747621536256,23.93000030517578,0.19086871743202205,178.62653503417968,22.236475836708887,-122.75004172,49.19294836,0.44124317914247513,-0.8108075658480326,-0.15081792635222271,0.34365397443373996,-2.2632841070493064,0.9672704140345255,-0.12685792827202624,-28.57117929458618,37.99933967590332,-5.210619872808456,-0.6490026807243173,0.6125173365527933,-1.228116808967157,-249.16181488037108,142.68265762329102,-141.39067611694335,6.3771045424721455,-9.927140149203213,-7.2037976438348945,2.69236066124656,-17.798467560247943,-2.8053669279271904,0.08837185551722844,4.284456173578898,-6.923317591349284,-3.707545768130909,-7.855581673708829,4.333717281168157
10.3,2.347630641677163,-19.587478700912364,2.6689942117893333,0.0,0.0,1.2845137596130372,24.062000274658203,0.18318626880645747,179.17239074707032,22.568237727619582,-122.75004186,49.19294578,0.5881758232911428,-0.7209289968013763,-0.1130577114721139,0.3386649340391159,-1.7226127187410991,1.168638010819753,-0.7541919325788816,5.097159922122955,47.87523918151855,-6.329359847307205,0.9020952632029852,-1.6189201573530834,4.859000404675801,-265.6537719726563,142.72535705566406,-138.7676788330078,5.880027333895366,-10.837658405303955,-2.3265781799952188,4.885745008786519,-19.77059741814931,1.4686945776144664,-2.442137440045675,-0.27830007672309875,-4.2637376338243484,-1.0170837342739105,-8.91719357172648,3.730559229850769
10.4,5.802594423294067,-29.29602591196696,-0.1110669771830241,0.0,0.0,1.2777527570724487,24.194000244140625,0.1755038201808929,179.71824645996094,22.899999618530273,-122.750042,49.1929432,0.7085324503255613,-0.5941615036942742,-0.0008337175417126863,0.2912781231782653,-1.2155682534882517,0.9986353561733707,-1.4955196991337067,7.832399845123291,47.78007850646973,-10.199199628829955,0.4963789265602827,-1.7146987368663154,3.828674333790938,-280.677767944336,131.4925121307373,-142.80679244995116,-4.062523772319158,-5.07606824239095,-2.008737524350484,-2.1815064772963533,-13.133381053805351,2.0788145571326218,1.3278174375882372,1.3582588639110327,2.2106703519821167,1.8582159032424292,-8.04156716664632,4.022838602463404
10.5,3.9839501678943634,-14.16082396109899,-0.6634599429865676,0.0,0.0,1.2777527570724487,24.257000350952147,0.37858357429504386,179.72736206054688,22.899999618530273,-122.75004242,49.19293972,0.8288890773599799,-0.46739401058717206,0.11139027638868852,0.24389131231741468,-0.7085237882354043,0.8286327015269886,-2.236847465688532,-10.027179914712907,47.87035865783692,-5.641279816627502,0.09066258991758026,-1.8104773163795471,2.7983482629060745,-295.70176391601564,120.25966720581054,-146.84590606689454,-14.005074878533682,0.6855219205220541,-1.6908968687057495,-9.248757963379225,-6.4961646894613905,2.688934536650777,0.797667819261551,-1.4688559927046299,4.990310955047607,4.733515540758769,-7.165940761566162,4.315117975076039
10.6,-3.475896576588804,-9.417601454438586,0.7606751427449513,0.0,0.0,1.2777527570724487,24.32000045776367,0.5816633284091949,179.73647766113282,22.899999618530273,-122.75004283999999,49.19293624,0.7815028952829766,-0.5273774682798169,0.05562479541968611,0.265377632596276,-0.8829505707729947,0.9275672182892307,-1.9483126478664805,-35.595939254760744,33.9037992477417,-6.788080000877381,-0.08557434746939123,0.2470406205816702,-1.1677926893938673,-291.1041938781739,125.6801263809204,-144.59836235046387,-10.811509288621671,-2.167593536954937,0.8289689855142073,-7.058287560714014,-9.915546785249855,4.878340013579212,0.4649448183675607,-4.245640595753987,6.929044485092163,3.730420137896682,-7.732207710092718,3.9846575847177794
10.7,-10.935743321071971,-4.674378947778181,2.1848102284764703,0.0,0.0,1.2777527570724487,24.383000564575195,0.7847430825233459,179.74559326171874,22.899999618530273,-122.75004326,49.19293276,0.7341167132059733,-0.5873609259724617,-0.00014068554931630922,0.2868639528751373,-1.057377353310585,1.026501735051473,-1.6597778300444286,-44.554398727416995,16.905539512634277,-20.650939750671387,-0.26181128485636274,2.3045585575428875,-5.133933641693809,-286.50662384033205,131.10058555603027,-142.3508186340332,-7.617943698709661,-5.020708994431929,3.348834839734164,-4.867817158048803,-13.33492888103832,7.0677454905076464,-0.3129666248957316,0.5144758025805155,-0.963283563653628,2.7273247350345957,-8.298474658619273,3.654197194359519
10.8,-1.9708110834612995,-8.181858353994109,2.623313127621783,0.0,0.0,1.2777527570724487,24.446000671386717,0.9878228366374968,179.75470886230468,22.899999618530273,-122.75004367999999,49.19292928,0.39808185398578644,-0.8540270030498505,-0.12113503118356067,0.30685461560885113,-2.418005665143331,0.857005774974823,-0.06462741394837695,-41.23721885681152,28.14417953491211,-13.040579891204834,-0.9753736158212026,-1.0355693598588307,-3.063845574855804,-244.62097625732423,142.76927795410157,-144.03685607910157,16.36596194903056,-15.903581539789835,-3.2984965244928994,11.770792961120605,-23.342383245627087,1.0441679457823436,-0.17297667264938354,2.0974566837151847,-2.0325268357992172,-4.617970267931621,-7.423055489857991,4.277951121330261
10.9,6.994121154149373,-11.689337760210037,3.061816026767095,0.0,0.0,1.2777527570724487,24.50900077819824,1.190902590751648,179.76382446289062,22.899999618530273,-122.7500441,49.1929258,0.4662723439660939,-0.7969124845483087,-0.12651522926083114,0.33483215714945935,-2.11681058641636,0.9653539278290488,-0.32446637727094413,-20.522839879989625,44.34699897766113,-5.4082599401474,0.017212416045367607,-0.40882796115086717,0.6166938940683999,-253.1316951751709,142.78910331726075,-142.44231681823732,9.55428605278333,-13.241545657316843,-4.130597949028015,6.609275246659915,-21.19494985540708,0.1298355720937252,-0.5204826394716898,2.067778798441092,-7.959854086240132,-2.967812145749728,-7.937658131122589,4.195720175902048
11.0,1.370987633864085,-17.97996821006139,4.104638000329335,0.0,0.0,1.2777527570724487,24.551400756835935,1.3759891510009765,179.66273193359376,22.899999618530273,-122.75004448,49.19292116,0.5344628339464014,-0.7397979660467668,-0.13189542733810164,0.36280969869006763,-1.8156155076893894,1.0737020806832747,-0.5843053405935114,11.00561981201172,47.91427917480469,-10.910459899902344,1.009798447911938,0.21791343755709627,4.297233362992604,-261.6424140930176,142.8089286804199,-140.84777755737304,2.7426101565361023,-10.579509774843851,-4.96269937356313,1.4477575321992238,-19.047516465187073,-0.7844968015948931,-0.7682546734809875,-0.8810509204864502,-3.1855096220970154,-1.3176540235678356,-8.452260772387186,4.113489230473836
11.1,0.9681460026538733,-18.199006715055667,1.7710263855529553,0.0,0.0,1.2777527570724487,24.593800735473632,1.561075711250305,179.56163940429687,22.899999618530273,-122.75004486,49.19291652,0.6854983615604313,-0.6007696061649106,-0.0034974077610637755,0.2996480997200265,-1.2556468783454462,0.9428480161410389,-1.4320018264380368,4.571339851617813,49.26603965759277,-9.796599817276,0.7842659467944142,-0.7699603738481969,2.876164130640752,-279.7505680084229,130.5961181640625,-144.68315238952636,-5.756286488337949,-1.389291956569208,-4.139219491770773,-3.842741670482087,-9.09783572229472,0.23279494261651335,1.4167237693521504,1.2229522267977397,2.2878430485725403,1.8907431693691195,-7.692798125021385,4.3073010408517085
11.2,0.5653043714436616,-18.418045220049944,-0.5625852292234249,0.0,0.0,1.2777527570724487,24.636200714111325,1.7461622714996339,179.460546875,22.899999618530273,-122.75004523999999,49.19291188,0.8365338891744614,-0.46174124628305435,0.1249006118159741,0.23648650074998534,-0.695678249001503,0.8119939515988032,-2.2796983122825623,-16.602979922294615,46.64181900024414,-5.646159934997558,0.5587334456768903,-1.75783418525349,1.4550948982889003,-297.8587219238281,118.38330764770508,-148.51852722167968,-14.255183133212002,7.800925861705434,-3.3157396099784155,-9.133240873163397,0.8518450205976312,1.2500866868279197,0.4997641444206238,-0.7293730949362119,6.0215277671813965,5.099140362306074,-6.933335477655584,4.501112851229581
