time,TotalAcceleration_z,TotalAcceleration_y,TotalAcceleration_x,Location_bearingAccuracy,Location_speedAccuracy,Location_verticalAccuracy,Location_horizontalAccuracy,Location_speed,Location_bearing,Location_altitude,Location_longitude,Location_latitude,Orientation_qz,Orientation_qy,Orientation_qx,Orientation_qw,Orientation_roll,Orientation_pitch,Orientation_yaw,Magnetometer_z,Magnetometer_y,Magnetometer_x,GyroscopeUncalibrated_z,GyroscopeUncalibrated_y,GyroscopeUncalibrated_x,MagnetometerUncalibrated_z,MagnetometerUncalibrated_y,MagnetometerUncalibrated_x,Accelerometer_z,Accelerometer_y,Accelerometer_x,AccelerometerUncalibrated_z,AccelerometerUncalibrated_y,AccelerometerUncalibrated_x,Gyroscope_z,Gyroscope_y,Gyroscope_x,Gravity_z,Gravity_y,Gravity_x
3.1,-0.7426927186774486,-9.259269678231442,3.0332856376965838,0.0,0.0,0.9005935204029084,12.273299636840822,0.02021561034023761,0.0,40.30000305175781,-122.753201006,49.190386454,-0.22035408765077588,0.016401825317492052,-0.6978649894396464,0.68120143810908,-1.4822898507118225,1.2800606489181519,1.8223317662874858,20.241934537887573,39.46852407455444,-19.56452965736389,0.0001480880812530158,0.045079655902968196,-0.12930559872113395,-235.10406112670898,134.49432334899905,-152.2883270263672,-0.5494334499041239,0.1502251625061035,0.4451586405436198,-0.7367106691905947,-9.27661763899254,3.096097230008154,0.003584783805170917,0.04160073485620541,-0.15002121409104968,0.24598008953034875,-9.398128668467203,2.797539393107096
3.2,-0.29002098197286774,-9.294158068570225,3.125243902206421,0.0,0.0,0.900600757598877,12.295599632263185,0.02086772680282592,0.0,40.30000305175781,-122.753201032,49.190386488,-0.2071154415607452,0.00614415582579865,-0.7175902227560679,0.6648852825164795,-1.6738984982172649,1.2755516171455383,1.9800034761428833,20.890059661865234,39.3260892868042,-19.29856958389282,-0.02265291969524694,-0.40959787648171186,-0.35224017562965554,-234.4559356689453,134.35188751220704,-152.02236709594726,0.01393162210782368,0.03821436564127601,0.1671568155288696,-0.2840389243581078,-9.311506097966975,3.18805549361489,-0.024837225802581363,-0.43070164864713495,-0.37972216528247704,-0.29664719725648564,-9.385220527648926,2.836258888244629
3.3,-0.368091350816416,-9.339553796883786,2.9945767521858215,0.0,0.0,0.9006079947948457,12.317899627685549,0.02151984326541423,0.0,40.30000305175781,-122.753201058,49.190386522,-0.20969579368829724,0.011355125966171381,-0.7257185677687327,0.6551398436228434,-1.7539195815722148,1.2719518939654033,2.071390390396118,22.23998966217041,38.86645421981811,-19.238484716415407,-0.0062486425837657116,-0.07188483964030945,-0.20794871263206005,-233.106005859375,133.89225311279296,-151.96228218078613,0.012263824542363485,-0.0218063990275065,0.016647855440775555,-0.36210929263721814,-9.356901717908455,3.057388334563284,-0.007429880075946898,-0.09186695934499078,-0.24523346981203015,-0.528179888923963,-9.374850749969482,2.840506593386332
3.4,-0.44616171965996426,-9.384949525197348,2.863909602165222,0.0,0.0,0.9006152319908143,12.340199623107912,0.022171959728002538,0.0,40.30000305175781,-122.753201084,49.190386556,-0.21589037179946896,0.017238300666213,-0.7178333878517151,0.6616543054580688,-1.6788176774978638,1.277687168121338,2.0136465787887574,23.589919662475587,38.40681915283203,-19.17839984893799,0.010155634527715516,0.265828197201093,-0.06365724963446456,-231.75607604980468,133.4326187133789,-151.902197265625,-0.2690108388662338,0.13898563385009766,0.5213028430938721,-0.44017966091632843,-9.402297337849935,2.926721175511678,0.009977465650687566,0.24696772995715335,-0.11074477434158325,-0.3082412511110305,-9.391275596618652,2.817407178878784
3.5,-0.7624629562099775,-9.228518644968668,3.2916765014330545,0.0,0.0,0.9006224691867829,12.362499618530276,0.02282407619059085,0.0,40.30000305175781,-122.75320111,49.19038659,-0.23482177654902137,0.034359675211211,-0.70689124862353,0.6662353873252869,-1.5773152510325115,1.2804876764615376,1.9644764264424641,21.305469703674316,38.97411937713623,-19.923209381103515,0.027294570199129245,0.48052881861274893,0.1687237565532665,-234.04052505493163,133.99991912841796,-152.6470085144043,-0.837533156077067,0.21450551350911454,0.5143532752990723,-0.756480909883976,-9.245866696039835,3.3544880747795105,0.026712627984428142,0.45729626591006917,0.16386460249971904,-0.02075596083886923,-9.399198373158773,2.8083048661549888
3.6,-0.7519830364846822,-9.271834192853985,3.171969653079004,0.0,0.0,0.9006297063827515,12.384799613952639,0.02347619265317916,0.0,40.30000305175781,-122.753201136,49.190386624,-0.24280885358651474,0.038785746631522934,-0.7016105651855469,0.6687481701374054,-1.5278884172439575,1.277474860350291,1.9332237641016643,20.592989730834958,39.18243436813354,-20.163549375534057,0.01096202324807756,0.03914339243519033,0.10053708169002534,-234.75300521850585,134.20823364257814,-152.88734817504883,-1.2353480756282806,0.018824259440104168,0.04101661841074627,-0.7460009709677913,-9.289182233087944,3.2347812354564667,0.011141927657952303,0.006466727082928003,0.10406228370574709,0.11883355428775146,-9.390655835469564,2.8349812825520835
3.7,-0.741503116759387,-9.315149740739303,3.0522628047249536,0.0,0.0,0.9006369435787202,12.407099609375003,0.02412830911576747,0.0,40.30000305175781,-122.753201162,49.190386658,-0.22236107289791104,0.018441727384924833,-0.7068328857421875,0.6712295711040497,-1.5707087119420369,1.2769029935201008,1.9166964093844097,19.880509757995604,39.39074935913086,-20.4038893699646,-0.0053705237029741245,-0.4022420337423682,0.0323504068267842,-235.4654853820801,134.4165481567383,-153.12768783569337,-0.37933775037527084,0.1349390347798665,0.38216229279836017,-0.7355210320516066,-9.332497770136053,3.115074396133423,-0.004428772668523537,-0.4443628117442131,0.04425996491177515,-0.0027796688179175014,-9.389023780822754,2.8415925105412803
3.8,-0.547321929173036,-9.292023796023745,3.0992128758719475,0.0,0.0,0.9006441807746888,12.429399604797364,0.02478042557835578,0.0,40.30000305175781,-122.753201188,49.190386692000004,-0.21104072034358973,0.01158014275133604,-0.7184421062469483,0.6626856684684753,-1.6835429430007935,1.2767579078674316,2.003169131278992,21.084344577789306,39.126314353942874,-19.894844484329223,0.008552113256882848,-0.2879147867206484,-0.111012032488361,-234.26164970397951,134.15211181640626,-152.61864280700684,-0.035417398810386636,0.11123046874999995,0.31168508529663086,-0.5413398586890914,-9.309371637575554,3.162024478117625,0.008221228226003297,-0.3252776407947143,-0.11364754687317391,-0.32313071191310877,-9.388525772094727,2.825190305709839
3.9,-0.3531407415866852,-9.268897851308187,3.1461629470189414,0.0,0.0,0.9006514179706574,12.451699600219728,0.02543254204094409,0.0,40.30000305175781,-122.753201214,49.190386726,-0.21112739046414689,0.013685640568534482,-0.7221709291140238,0.6585572759310404,-1.7210857073465984,1.2763646245002747,2.043897191683451,22.288179397583008,38.86187934875488,-19.385799598693847,0.02247475021673982,-0.17358753969892857,-0.2543744718035062,-233.0578140258789,133.8876754760742,-152.1095977783203,0.00995354851086934,0.10965855916341143,0.2590330441792806,-0.34715868532657623,-9.286245505015055,3.208974560101827,0.020871229120530133,-0.20619246984521544,-0.27155505865812296,-0.4294588069121043,-9.387372493743896,2.815668821334839
4.0,-0.5648149143565785,-9.315258459611373,2.9187541658228096,0.0,0.0,0.900658655166626,12.473999595642091,0.0260846585035324,0.0,40.30000305175781,-122.75320124,49.19038676,-0.219374897579352,0.016955093791087433,-0.7150591115156809,0.6635234256585439,-1.650383214155833,1.2742377718289692,1.9899421135584514,21.980739498138426,38.734998893737796,-19.397999572753907,-0.029793563870374417,0.17816440219228913,0.12967003119940104,-233.3652557373047,133.76079711914062,-152.12179641723634,-0.4610402335723241,0.03193362553914387,-0.07845548788706457,-0.5588328486139124,-9.332606662403453,2.9815657355568628,-0.024778221501037433,0.16484453032414118,0.11732430794897175,-0.23094768077135083,-9.381332397460938,2.858042597770691
4.1,-0.6553388407284564,-9.292825796387412,3.0073339270822927,0.0,0.0,0.9006658923625946,12.496299591064455,0.02673677496612071,0.0,40.30000305175781,-122.753201266,49.190386794,-0.2245507016777992,0.01987690261254705,-0.709757020076116,0.6674003601074219,-1.5992096662521362,1.2741209268569946,1.9505250453948975,21.497314500808713,38.94941396713257,-19.716419458389282,-0.007470951293891453,0.08878949418166565,0.039916804053284446,-233.84868011474612,133.97521286010743,-152.4402172088623,-0.640692949295044,0.06801080703735349,0.12638092041015622,-0.6493567722764881,-9.310173843846176,3.070145508556655,-0.0031567156336016165,0.08321361427167147,0.027792633747484405,-0.08489417036374407,-9.38101895650228,2.8679620027542114
4.2,-0.7458627671003342,-9.270393133163452,3.0959136883417764,0.0,0.0,0.9006731295585634,12.518599586486818,0.027388891428709018,0.0,40.30000305175781,-122.753201292,49.190386828,-0.22385058303674057,0.021954435234268484,-0.7133627931276957,0.6637107332547506,-1.6352870464324951,1.2756634553273518,1.9885624647140503,21.013889503479003,39.16382904052735,-20.034839344024657,0.014851661282591508,-0.0005854138289578398,-0.04983642309283214,-234.3321044921875,134.18962860107422,-152.75863800048828,-0.5665763517220815,0.17136859893798825,0.38203632831573486,-0.739880695939064,-9.2877410252889,3.1587252815564475,0.0184647902338342,0.0015826982192017663,-0.061739040454002934,-0.18752528230349222,-9.385373910268148,2.848398447036743
4.3,-0.6118148441116015,-9.284849762916565,3.0918259620666504,0.0,0.0,0.900680366754532,12.540899581909182,0.02804100789129733,0.0,40.30000305175781,-122.753201318,49.190386862000004,-0.21649858951568604,0.013837145082652519,-0.7178398609161377,0.6615391850471497,-1.6763020992279052,1.2722270011901855,2.0072185039520263,21.515004539489745,38.98967380523682,-19.784739351272584,-0.011994593679749695,-0.10613783913625714,-0.022983804577961547,-233.83099060058595,134.01547241210938,-152.50853805541993,-0.164185881614685,0.0662298202514648,0.2201036930084228,-0.6058327853679657,-9.302197774251303,3.154637525478999,-0.010340745306827794,-0.11652023223877855,-0.03464924871646376,-0.3076623737812042,-9.375469207763672,2.87082953453064
4.4,-0.47776692112286884,-9.299306392669678,3.0877382357915244,0.0,0.0,0.9006876039505006,12.563199577331545,0.02869312435388564,0.0,40.30000305175781,-122.753201344,49.190386896,-0.21489952504634854,0.011116714837650416,-0.7174300750096639,0.6625600953896841,-1.671464165051778,1.2712156176567078,1.9961435198783875,22.01611957550049,38.81551856994629,-19.534639358520508,-0.0388408486420909,-0.21169026444355643,0.0038688139369090512,-233.3298767089844,133.84131622314453,-152.25843811035156,-0.20963810880978898,0.04689009984334305,0.11967575550079342,-0.47178487479686737,-9.316654523213705,3.1505497694015503,-0.039146280847489785,-0.23462316269675887,-0.007559456978924584,-0.2947126477956772,-9.372560342152914,2.881646196047465
4.5,-0.6588419621640985,-9.271263122558594,3.0225156870755283,0.0,0.0,0.9006948411464692,12.585499572753909,0.02934524081647395,0.0,40.30000305175781,-122.75320137,49.19038693,-0.21904007842143372,0.014882201794534899,-0.7148508727550507,0.6639180878798167,-1.647227148214976,1.2721145749092102,1.9833469986915588,21.52262945175171,39.04914894104004,-19.620039558410646,-0.0010273645377971998,0.08092576157386328,0.0423718347976153,-233.8233657836914,134.07494735717773,-152.34383697509764,-0.5809427499771118,0.1592615445454915,0.15662316481272373,-0.6528599045493386,-9.28861123865301,3.0853272568095815,-0.0027870727935806004,0.061086525151040384,0.03914628139076128,-0.22420574476321534,-9.375160853068033,2.879594167073568
4.6,-0.6118986815439932,-9.254477222760517,3.1486464603380724,0.0,0.0,0.9007020783424379,12.607799568176272,0.02999735727906226,0.0,40.30000305175781,-122.75320139600001,49.190386964000005,-0.21368965754906333,0.0072912535009284326,-0.7170970141887665,0.6633472045262655,-1.6668042143185933,1.26800537109375,1.9842692812283833,21.72636947631836,38.978389263153076,-19.485534477233887,0.003997811988511141,0.05679080076868448,-0.01958933698937692,-233.6196262359619,134.0041873931885,-152.20933227539064,-0.363305206100146,0.031744956970214816,0.1627160310745239,-0.6059166183977416,-9.27182518713402,3.2114580418124343,0.004569341349203805,0.03680462857168591,-0.022944468267572425,-0.28441550334294635,-9.363197803497314,2.91278346379598
4.7,-0.5649554009238879,-9.237691322962442,3.2747772336006165,0.0,0.0,0.9007093155384065,12.630099563598634,0.03064947374165057,0.0,40.30000305175781,-122.753201422,49.190386998,-0.2123999416828155,0.008115500304847919,-0.7200531482696533,0.6605405688285828,-1.6959004402160645,1.2687276124954223,2.012674427032471,21.93010950088501,38.907629585266115,-19.35102939605713,0.009022988514819483,0.032655839963505684,-0.08155050877636914,-233.41588668823243,133.9334274291992,-152.0748275756836,-0.0511319935321808,0.23705635070800776,0.6217397689819336,-0.5589733322461446,-9.25503913561503,3.337588826815287,0.01192575549198821,0.012522731992331438,-0.08503521792590614,-0.36807417273521426,-9.365278625488282,2.896910524368286
4.8,-0.7976823337376118,-9.254640460014343,3.173680414756139,0.0,0.0,0.9007165527343751,12.652399559020997,0.03130159020423888,0.0,40.30000305175781,-122.753201448,49.190387032000004,-0.22621561090151465,0.021602450869977433,-0.7194847166538239,0.656270424524943,-1.692239224910736,1.2667625745137532,2.04868213335673,21.90052447319031,38.75238447189331,-19.774064540863037,-0.02433661690641503,0.09902380535689494,-0.0337503040403438,-233.445471572876,133.7781837463379,-152.49786300659179,-0.6709290593862534,0.09878905614217122,0.22007123629252115,-0.7917002538839977,-9.27198835213979,3.2364920179049173,-0.019413482962232637,0.0832812933985031,-0.036612577270716415,-0.3596432507038116,-9.359454154968262,2.9166446526845298
4.9,-1.0304092665513356,-9.271589597066244,3.0725835959116616,0.0,0.0,0.9007237899303437,12.674699554443361,0.03195370666682719,0.0,40.30000305175781,-122.75320147400001,49.190387066,-0.2214639807740847,0.011635800668348835,-0.7176118890444437,0.660172830025355,-1.6704065998395283,1.2618969877560933,2.0056012074152627,21.870939445495605,38.59713935852051,-20.197099685668945,-0.05769622232764954,0.1653917707502842,0.01404990069568154,-233.47505645751954,133.62294006347656,-152.9208984375,-0.30840602517127985,-0.007092475891113267,-0.025848944981892896,-1.0244271755218506,-9.28893756866455,3.1353952089945474,-0.05075272141645348,0.15403985480467478,0.011810063384473315,-0.30063070853551227,-9.345097859700521,2.968945582707723
5.0,-0.6280615600672635,-9.270556276494807,3.1702724370089443,0.0,0.0,0.9007310271263124,12.696999549865724,0.0326058231294155,0.0,40.30000305175781,-122.7532015,49.1903871,-0.22088972727457679,0.0140707991085946,-0.7180932958920797,0.6597956717014313,-1.676702857017517,1.2657103339831035,2.0144969622294107,21.874599361419676,38.82649936676025,-19.623089599609376,0.02012037415988741,-0.028392508625984206,0.01593340188264846,-233.47139587402344,133.8522979736328,-152.34688720703124,-0.3852905680735906,0.16661024093627927,0.45263242721557617,-0.6220795051618055,-9.287904219193893,3.23308405009183,0.02550362415301302,-0.014355330891703488,0.0008781185994545618,-0.31547103822231287,-9.356388092041016,2.9315412044525146
5.1,-0.680332045889262,-9.287498665578438,3.079304420586788,0.0,0.0,0.9017898201942445,12.760249567031861,0.032287873048335296,0.0,40.30000305175781,-122.75320143500001,49.1903870925,-0.22309721757968262,0.0176047488736609,-0.7196941177050272,0.6572286188602448,-1.6928573449452717,1.2658723592758179,2.038982311884562,21.87734451293945,38.818874454498285,-19.665484571456908,-0.007190392876509574,-0.08447121006126204,0.04186335842435557,-233.46865005493163,133.84467277526855,-152.38928146362304,-0.46115009983380634,0.11739667256673175,0.20857838789621985,-0.6743499977570591,-9.304846582990704,3.1421160237355665,-0.006844467236519311,-0.08666650531532384,0.03791703053690125,-0.3627421706914902,-9.356825351715088,2.924747665723165
5.2,-0.7326025317112604,-9.30444105466207,2.9883364041646323,0.0,0.0,0.9028486132621766,12.823499584198,0.0319699229672551,0.0,40.30000305175781,-122.75320137,49.190387085000005,-0.21752593517303462,0.00819863919168706,-0.7188614249229431,0.6601881742477417,-1.6818460702896119,1.2621251583099364,2.0063309907913207,21.880089664459227,38.811249542236325,-19.707879543304443,-0.03450115991290655,-0.14054991149653986,0.06779331496606268,-233.46590423583984,133.8370475769043,-152.43167572021486,-0.2675639450550079,-0.01958961486816406,-0.18123278617858884,-0.7266204903523127,-9.321788946787516,3.051147997379303,-0.039192558626051636,-0.1589776797389442,0.07495594247434795,-0.33445385098457336,-9.345761680603028,2.963252592086792
5.3,-0.6700900420546532,-9.300926645596823,3.040031313896179,0.0,0.0,0.9039074063301088,12.886749601364137,0.0316519728861749,0.0,40.30000305175781,-122.753201305,49.1903870775,-0.21370218942562735,0.005974039435386616,-0.7190797626972198,0.6612246831258138,-1.68463530143102,1.2646443645159404,2.0002891620000205,21.851724576950073,38.91891441345214,-19.6139395236969,0.019813669484574338,-0.0793463044489423,0.015708144598950938,-233.49426879882813,133.94471244812013,-152.33773498535157,-0.2775613814592361,0.03783369064331053,0.10483769575754802,-0.6641079957286516,-9.318274577458698,3.102842917044957,0.015617556845289489,-0.09029351913363134,0.019266550922166614,-0.33994993070761365,-9.353234767913818,2.9388571977615356
5.4,-0.6075775523980459,-9.297412236531576,3.091726223627726,0.0,0.0,0.9049661993980409,12.949999618530274,0.031334022805094695,0.0,40.30000305175781,-122.75320124000001,49.19038707,-0.2142804513374964,0.0114961797371506,-0.7204569776852926,0.6594597697257996,-1.7008155783017476,1.2701907952626545,2.0251735051472983,21.823359489440918,39.02657928466797,-19.519999504089355,0.07412849888205522,-0.01814269740134476,-0.0363770257681608,-233.52263336181642,134.05237731933593,-152.2437942504883,-0.22434515257676438,0.22217988967895505,0.5737337271372477,-0.6015955011049906,-9.314760208129883,3.154537836710612,0.07042767231663062,-0.0216093585283185,-0.03642284063001471,-0.38080325225989026,-9.369485060373941,2.8816264073053994
5.5,-0.6881540417671204,-9.188819711858576,3.2919801581989634,0.0,0.0,0.906024992465973,13.013249635696413,0.0310160727240145,0.0,40.30000305175781,-122.753201175,49.1903870625,-0.21972685803969694,0.014340355837096733,-0.7182736198107401,0.6599956254164377,-1.6791085600852966,1.2676955461502075,2.0155524412790933,21.84592914581299,38.84479942321777,-19.442529582977294,-0.005319618503563102,0.1020654013069967,0.018096883160372574,-233.50006637573242,133.8705955505371,-152.16632766723632,-0.4432840645313263,0.11050875981648757,0.2059896389643351,-0.6821719787337563,-9.206167481162332,3.354791749607433,-0.005608853968707012,0.10554085434837773,0.017187527338550834,-0.3205882310867309,-9.362200578053793,2.912281592686971
5.6,-0.6628458599249523,-9.24284175309268,3.154440448139653,0.0,0.0,0.9070837855339051,13.07649965286255,0.030698122642934297,0.0,40.30000305175781,-122.75320111,49.190387055,-0.22055915594100947,0.01165429521352048,-0.7174235582351685,0.6606969714164734,-1.6690047264099122,1.2634499549865723,2.0028687477111817,21.718134260177614,38.842359352111814,-19.696594619750975,-0.002083652044265442,0.031373946327772545,-0.027006490593493877,-233.62786140441892,133.86815681457517,-152.42039260864257,-0.4116732716560364,0.02227649688720702,-0.08116717338562009,-0.6568638052452694,-9.26018950433442,3.2172520106489007,-0.0024480888713504104,0.03265641643101294,-0.02534743660538824,-0.29526978731155396,-9.349701309204102,2.954951763153076
5.7,-0.637537678082784,-9.296863794326782,3.0169007380803428,0.0,0.0,0.9081425786018372,13.139749670028689,0.0303801725618541,0.0,40.30000305175781,-122.753201045,49.1903870475,-0.21838241070508954,0.011323849049707234,-0.7212104996045431,0.6572916905085245,-1.7051121195157368,1.2630996306737263,2.0353471835454306,21.590339374542236,38.83991928100586,-19.950659656524657,0.0011523144150322178,-0.03931750865145161,-0.07210986434736033,-233.75565643310546,133.86571807861327,-152.67445755004883,-0.18098732332388556,0.07021029790242511,0.16973714033762613,-0.6315556317567825,-9.31421152750651,3.0797122716903687,0.000712676226006191,-0.04022802148635184,-0.06788240054932732,-0.4020274629195531,-9.3486221631368,2.945543050765991
5.8,-0.6109324852625528,-9.252043271064759,3.1640443603197737,0.0,0.0,0.9092013716697693,13.202999687194826,0.0300622224807739,0.0,40.30000305175781,-122.75320098,49.190387040000005,-0.21984366079171494,0.014126096076021518,-0.7225586175918579,0.6552656690279642,-1.718736211458842,1.2634870807329814,2.05514927705129,21.735519552230834,38.75085926055908,-19.747529649734496,0.0003598091883980003,0.04936901784755967,-0.030544418527190857,-233.6104751586914,133.7766586303711,-152.47132606506347,-0.14811153709888455,0.13644742965698237,0.3620690107345581,-0.6049504354596138,-9.269390900929768,3.2268559098243714,-0.001514436667397005,0.05215898412279784,-0.023289237598267697,-0.4415832112232844,-9.349754492441813,2.9364614884058633
5.9,-0.5843272924423217,-9.207222747802735,3.311187982559204,0.0,0.0,0.9102601647377015,13.266249704360963,0.029744272399693697,0.0,40.30000305175781,-122.75320091500001,49.1903870325,-0.22588845590750373,0.017152714853485383,-0.7187102735042572,0.6573679447174072,-1.6818217436472576,1.261875828107198,2.031453490257263,21.880699729919435,38.6617992401123,-19.544399642944335,-0.0004326960382362172,0.13805554434657094,0.011021027292978616,-233.46529388427734,133.6875991821289,-152.26819458007813,-0.461294228831927,0.030183474222818998,0.0691815614700317,-0.5783452391624451,-9.224570274353027,3.373999547958374,-0.0037415495608002004,0.14454598973194752,0.02130392535279192,-0.33458208044370014,-9.344986120859781,2.9655402501424155
6.0,-0.7965606848398844,-9.295368274052938,3.0382865269978843,0.0,0.0,0.9113189578056337,13.329499721527101,0.029426322318613498,0.0,40.30000305175781,-122.75320085,49.190387025,-0.22654494394858674,0.017305751641591347,-0.7181898653507233,0.6577078104019165,-1.6767767469088237,1.2615353465080261,2.0275944471359253,21.47626962661743,38.810638999938966,-20.09339952468872,-0.008221228272304875,0.033228523806125544,0.029588785177717614,-233.8697265625,133.8364387512207,-152.81719665527345,-0.48143841326236725,0.05798292160034177,0.05882040659586587,-0.7905786335468292,-9.312716166178385,3.10109814008077,-0.007316499567505991,0.029168816029348135,0.028377467829903417,-0.3200211475292841,-9.343972047170004,2.9704178174336753
6.1,-0.6973333209753036,-9.287466963132223,3.0659036934375763,0.0,0.0,0.9123777508735658,13.392749738693238,0.0291083722375333,0.0,40.30000305175781,-122.753200785,49.1903870175,-0.221491926908493,0.01371547598391766,-0.721157431602478,0.6562618017196655,-1.7044017553329467,1.2617265224456786,2.0426581382751463,21.68275465965271,38.831074237823486,-19.89697947502136,-0.00019552320472115102,-0.04187608545753666,0.02072256217820033,-233.66324043273926,133.85687294006345,-152.62077674865725,-0.23382831811904903,0.06830635070800778,0.13228664398193354,-0.6913512696822484,-9.304814974466959,3.128715306520462,0.0008977868317632254,-0.04309781525411051,0.018006641517400335,-0.40168899297714233,-9.344524955749511,2.958766222000122
6.2,-0.5981059571107229,-9.279565652211508,3.0935208598772683,0.0,0.0,0.9134365439414979,13.455999755859377,0.0287904221564531,0.0,40.30000305175781,-122.75320072,49.19038701,-0.21694713582595185,0.00961567663277185,-0.7221606473128,0.6567529638608297,-1.7135331432024639,1.262115220228831,2.039233684539795,21.889239692687987,38.851509475708006,-19.700559425354005,0.007830181862862572,-0.11698069472119887,0.011856339178683045,-233.4567543029785,133.87730712890624,-152.42435684204102,-0.12435152133305864,0.06658395131429032,0.14484584331512448,-0.5921239058176676,-9.296913782755533,3.156332472960154,0.009112073231032441,-0.11536444653756915,0.00763581520489725,-0.4281547764937083,-9.345693747202555,2.9513914585113525
6.3,-0.6435596237579981,-9.281320301691691,3.0992237468560537,0.0,0.0,0.91449533700943,13.519249773025514,0.028472472075372898,0.0,40.30000305175781,-122.753200655,49.1903870025,-0.21696464220682776,0.009896199374149183,-0.7208303014437357,0.6582034230232239,-1.7014446655909221,1.263649006684621,2.0275381406148276,21.783709621429445,38.87804412841797,-19.68774938583374,0.008725654763331803,-0.04362595959383092,0.027982950019191533,-233.5622844696045,133.9038429260254,-152.41154747009278,-0.2909543514251709,0.06817579269409174,0.16553668181101477,-0.6375775655110677,-9.298668511708577,3.1620353599389395,0.009710212182956871,-0.047093892237171545,0.02561816114272608,-0.3905649781227112,-9.350276629130045,2.942066510518392
6.4,-0.6890132904052735,-9.283074951171875,3.1049266338348387,0.0,0.0,0.9155541300773621,13.582499790191651,0.0281545219942927,0.0,40.30000305175781,-122.75320059,49.190386995000004,-0.2169602339466413,0.010222643613815268,-0.7194459637006124,0.659712940454483,-1.6888065139452617,1.2652789950370789,2.015325586001078,21.6781795501709,38.90457878112793,-19.674939346313476,0.009621127663801033,0.02972877553353702,0.04410956085970002,-233.66781463623047,133.93037872314454,-152.39873809814452,-0.34252333144346875,0.140017032623291,0.19156126181284583,-0.6830312252044678,-9.30042324066162,3.1677382469177244,0.0103083511348813,0.021176662063226066,0.043600507080554914,-0.35155830283959705,-9.355118910471598,2.931595285733541
6.5,-0.7011468956867853,-9.24571704864502,3.0863424142201743,0.0,0.0,0.9166129231452943,13.64574980735779,0.0278365719132125,0.0,40.30000305175781,-122.753200525,49.1903869875,-0.2145268082618713,0.00722111715003842,-0.7205599784851074,0.6593250870704651,-1.6986576557159423,1.2638925313949585,2.0173330783843992,21.57325963973999,39.039999389648436,-19.58892936706543,-0.011046480465059483,-0.09869291575159878,0.007304930671428642,-233.77273406982422,134.0657974243164,-152.31272583007814,-0.34683199524879454,0.06462020874023434,0.10758275985717772,-0.6951648245255152,-9.263065179189047,3.14915402730306,-0.009343461408703164,-0.09872415246949955,0.0036513082437026902,-0.3821250259876251,-9.351008033752441,2.9407581806182863
6.6,-0.5985568845362375,-9.253351038152521,3.1683872360171694,0.0,0.0,0.9176717162132264,13.708999824523927,0.0275186218321323,0.0,40.30000305175781,-122.75320046,49.19038698,-0.20698642234007514,-0.0017625027934021,-0.7239353656768799,0.6580745478471121,-1.7289845943450928,1.2599833011627197,2.023823062578837,21.826409578323364,39.0213942527771,-19.394949436187744,-0.003975252204602878,-0.04631989953552626,0.00918496076977162,-233.51958465576172,134.04719314575195,-152.11874694824218,-0.015307903289794917,0.04657777150472001,0.1398910284042358,-0.5925748215028734,-9.270699074774079,3.231198838262847,-0.003946328367061203,-0.04679771615756732,0.006273516744179449,-0.47677964468797046,-9.339346726735434,2.9639234940210977
6.7,-0.49596687338568946,-9.260985027660023,3.2504320578141646,0.0,0.0,0.9187305092811585,13.772249841690064,0.027200671751052098,0.0,40.30000305175781,-122.75320039500001,49.1903869725,-0.20653432110945383,-0.001956589580610533,-0.7236480712890625,0.6585308114687601,-1.7265716592470806,1.2606528600056965,2.0204598108927407,22.079559516906738,39.00278911590576,-19.20096950531006,0.0030959760558537273,0.006053116680546261,0.0110649908681146,-233.2664352416992,134.0285888671875,-151.92476806640624,-0.0480464448531469,0.11769262949625647,0.4280389149983724,-0.48998481848023157,-9.27833297035911,3.3132436492226343,0.0014508046745807584,0.0051287201543649035,0.008895725244656209,-0.4685675303141276,-9.341368675231934,2.9588266213734946
6.8,-0.631433269291213,-9.248042092178807,3.2530831911347127,0.0,0.0,0.9197893023490906,13.835499858856203,0.0268827216699719,0.0,40.30000305175781,-122.75320033,49.190386965,-0.22017114857832587,0.0093022537960981,-0.7181038757165273,0.6600943704446157,-1.6742907166481018,1.260237216949463,2.004269242286682,21.583629608154297,39.05860433578491,-19.451984596252444,-0.00916760649697881,0.2148059044089733,0.037781089921764106,-233.7623649597168,134.08440322875975,-152.1757827758789,-0.4801599284013112,0.08954874674479164,0.24571526050567624,-0.625451206257849,-9.265389969854645,3.315894793380391,-0.011059206390806722,0.20753510482609275,0.035322010012653934,-0.3135229448477427,-9.340144157409668,2.982725461324056
6.9,-0.7668996651967367,-9.235099156697592,3.2557343244552612,0.0,0.0,0.9208480954170227,13.89874987602234,0.0265647715888917,0.0,40.30000305175781,-122.753200265,49.1903869575,-0.22980859875679013,0.015030659579982316,-0.7138933142026266,0.6612995763619741,-1.6347694993019104,1.2567887504895527,1.987156907717387,21.087699699401856,39.114419555664064,-19.702999687194826,-0.02143118904981135,0.4235586921374003,0.06449718897541361,-234.25829467773437,134.14021759033204,-152.42679748535156,-0.7123965124289194,0.0125616391499837,-0.07590866088867186,-0.7609175940354665,-9.25244696935018,3.318545937538147,-0.0235692174561942,0.40994148949782055,0.061748294780651664,-0.19763735930124915,-9.32975705464681,3.0252864360809326
7.0,-0.7835995654265085,-9.298159837722778,3.02647199233373,0.0,0.0,0.921906888484955,13.961999893188477,0.026246821507811498,0.0,40.30000305175781,-122.75320020000001,49.19038695,-0.22950925529003138,0.01356805060058828,-0.7155441880226135,0.65964674949646,-1.6491341590881348,1.2539970397949218,1.999037790298462,20.697299575805665,39.11136894226074,-20.1568395614624,-0.021634810662362714,0.029512426117435087,-0.04254422057420015,-234.64869537353516,134.13716659545898,-152.8806381225586,-0.37802307605743407,0.04850196838378906,0.05482692718505856,-0.7776175091663996,-9.315507809321085,3.089283585548401,-0.021866199433464874,0.013286318883977155,-0.04056700552411547,-0.24313729107379908,-9.321250915527344,3.047950792312622
7.1,-0.5773523020360506,-9.276445377956737,3.103103512164318,0.0,0.0,0.922965681552887,14.025249910354615,0.0259288714267313,0.0,40.30000305175781,-122.753200135,49.1903869425,-0.22707103192806236,0.013837185222655484,-0.7224806447823843,0.6528723339239756,-1.7128486434618633,1.2521689732869465,2.059651573499044,21.403679513931273,38.875299263000485,-19.937544584274292,-0.003320422793463375,-0.11891915063924073,-0.05954142971048978,-233.94231491088868,133.9010971069336,-152.6613426208496,-0.3045496841271718,0.018812179565429698,-0.10408643881479897,-0.5713702484852436,-9.293793508500762,3.1659151044758884,-0.0021900906717884465,-0.1015945275906812,-0.06190506019894118,-0.43918301661809284,-9.315568923950195,3.0426965157190957
7.2,-0.3711050386455926,-9.254730918190695,3.1797350319949063,0.0,0.0,0.9240244746208192,14.088499927520752,0.0256109213456511,0.0,40.30000305175781,-122.75320007,49.190386935,-0.21020944664875665,-7.132679456850022e-06,-0.7297098239262899,0.6506273945172628,-1.7794989148775737,1.2518115043640137,2.0817441940307617,22.110059452056884,38.63922958374023,-19.718249607086182,0.014993965075435963,-0.26735072739591653,-0.0765386388467794,-233.23593444824218,133.6650276184082,-152.44204711914062,0.6455444395542145,0.13195466995239258,0.4536200761795044,-0.36512298780408775,-9.272079207680441,3.242546623403376,0.01748601808988798,-0.21647537406533957,-0.08324311487376689,-0.6412209967772166,-9.314454237620035,3.010812759399414
7.3,-0.642709831017759,-9.249657841471883,3.242410652049176,0.0,0.0,0.9250832676887513,14.151749944686891,0.0252929712645709,0.0,40.30000305175781,-122.753200005,49.1903869275,-0.22719048211971915,0.016839500516653002,-0.7236421704292297,0.6514125863711039,-1.7259243528048198,1.254911720752716,2.077205459276835,21.878259420394897,38.6438045501709,-19.84543461799622,0.00864235503479105,0.2046167209363458,-0.00422630863348869,-233.46773452758788,133.66960182189942,-152.56923217773436,-0.4856540064016978,0.060630480448404946,0.2632049322128296,-0.636727783853164,-9.26700599472244,3.3052222542948537,0.007839437418927748,0.2290617343969643,-0.005402339622378335,-0.47442975143591565,-9.323987483978271,3.011297663052877
7.4,-0.9143146233899253,-9.24458476475307,3.3050862721034457,0.0,0.0,0.9261420607566834,14.214999961853028,0.0249750211834907,0.0,40.30000305175781,-122.75319994,49.19038692,-0.23639559149742123,0.02045061662793152,-0.71542409658432,0.6571544408798218,-1.6494297981262207,1.2530977725982666,2.0194040060043337,21.64645938873291,38.648379516601565,-19.97261962890625,0.0022907449941461343,0.6765841692686081,0.06808602157980202,-233.69953460693358,133.67417602539064,-152.69641723632813,-0.7097221493721009,0.10963611602783203,-0.18590841293334956,-0.9083325799022403,-9.26193278176444,3.3678978851863315,-0.0018071432520324858,0.6745988428592682,0.0724384356290102,-0.2442798405885696,-9.3184965133667,3.056103754043579
7.5,-0.6555790209465406,-9.318303975191983,2.9678070545196533,0.0,0.0,0.9272008538246155,14.278249979019165,0.0246570711024105,0.0,40.30000305175781,-122.753199875,49.1903869125,-0.22176910191774366,0.00398922245949505,-0.717014878988266,0.6607712904612223,-1.6611682375272114,1.2513223091761272,1.9859949151674907,20.516129589080812,39.064399337768556,-20.21600971221924,-0.015521530337123701,-0.3435145155526697,0.11823019105941056,-234.8298652648926,134.09019775390624,-152.93980712890624,-0.12509064624706903,-0.09613974889119466,-0.019699652989705402,-0.6495969606224786,-9.335651831193404,3.0306186459281226,-0.014660765988413572,-0.34795716997574677,0.11571731748567383,-0.2815531864762306,-9.313079675038654,3.069077491760254
7.6,-0.6493001259990375,-9.27039539452755,3.071292092402776,0.0,0.0,0.9282596468925477,14.341499996185304,0.0243391210213303,0.0,40.30000305175781,-122.75319981,49.190386905,-0.2193011840184529,0.008004391847255933,-0.7237826883792877,0.6541377802689871,-1.7256855169932048,1.2547986308733623,2.052666743596395,21.1029495716095,38.893294143676755,-20.116579675674437,0.002273968904222738,-0.05805360161078471,0.022692254996703312,-234.24304580688477,133.9190929412842,-152.84037666320802,0.1149058813850085,0.21606063842773435,0.39688678582509357,-0.6433180707337505,-9.287743308327414,3.134103684714346,0.0031625002791935905,-0.062489317123298416,0.02018227237259093,-0.47399236758550006,-9.323684851328531,3.013209064801534
7.7,-0.6430212310515344,-9.222486813863119,3.1747771302858987,0.0,0.0,0.9293184399604798,14.40475001335144,0.024021170940250098,0.0,40.30000305175781,-122.753199745,49.1903868975,-0.23164999236663184,0.020352603867649983,-0.7226228217283884,0.6509442031383514,-1.7163790464401245,1.2538941105206807,2.079275051752726,21.689769554138184,38.72218894958496,-20.017149639129638,0.020069468145569175,0.22740731233110031,-0.07284568106600393,-233.65622634887694,133.74798812866212,-152.74094619750977,-0.4795810729265213,-0.01613616943359375,-0.08611996968587238,-0.6370391808450222,-9.239834785461426,3.23758872350057,0.02098576654680075,0.22297853572914997,-0.07535277274049197,-0.4471028745174408,-9.320899804433187,3.0258267720540366
7.8,-0.538659269688651,-9.245542685190838,3.1499017377694445,0.0,0.0,0.9303772330284119,14.46800003051758,0.0237032208591699,0.0,40.30000305175781,-122.75319968,49.19038689,-0.22489794095357254,0.010530456745376117,-0.7191528479258219,0.6573622723420461,-1.6820498903592427,1.253961443901062,2.0208361546198526,21.457664489746094,38.88597393035889,-20.023554658889772,0.00013362647344670325,0.057898570007334144,0.01445714370735611,-233.8883312225342,133.91177330017092,-152.7473514556885,-0.09125238656997677,0.05273373921712235,0.08640742301940914,-0.5326772164553404,-9.262890577316284,3.2127133409182234,0.0010499247582629566,0.05346979495758811,0.011930961831239983,-0.342908908923467,-9.321175416310629,3.0387431383132935
7.9,-0.4342973083257675,-9.268598556518556,3.1250263452529907,0.0,0.0,0.931436026096344,14.531250047683717,0.0233852707780897,0.0,40.30000305175781,-122.753199615,49.1903868825,-0.22784666717052454,0.01525353491306298,-0.7197449564933777,0.6556020259857178,-1.68890278339386,1.2554414510726928,2.0387995719909666,21.225559425354003,39.04975891113281,-20.029959678649902,-0.019802215198675765,-0.11161017231643201,0.10175996848071615,-234.1204360961914,134.0755584716797,-152.75375671386718,-0.36648784279823304,0.06620655059814452,0.164712905883789,-0.42831525206565857,-9.285946369171143,3.1878379583358765,-0.018885917030274833,-0.11603894581397373,0.09921469640297194,-0.36199061274528505,-9.325675201416015,3.0226510047912596
8.0,-0.7012058008800853,-9.242603822187943,3.1795718019658867,0.0,0.0,0.9324948191642761,14.594500064849854,0.0230673206970095,0.0,40.30000305175781,-122.75319955,49.190386875,-0.2273533369104067,0.01635811151936645,-0.7223538855711619,0.6528720359007517,-1.7135088841120403,1.2553317149480183,2.064297596613566,21.292659568786622,38.90884952545166,-20.07021951675415,0.012342254842885508,0.013744468377395114,-0.0687084566293792,-234.0533348083496,133.93464584350585,-152.79401702880858,-0.2417808026075363,0.09705464045206702,0.15940928459167478,-0.6952237378467213,-9.2599515914917,3.2423834150487725,0.013230785261839599,0.009287929501045828,-0.07119356749833304,-0.4364483803510666,-9.325316747029623,3.0138968229293823
8.1,-0.637068635925199,-9.264898282108884,3.139387793613203,0.0,0.0,0.9335536122322082,14.657750082015992,0.0227493706159293,0.0,40.30000305175781,-122.753199485,49.1903868675,-0.2227387775977452,0.010121782155086549,-0.7234148383140564,0.6534176965554556,-1.7212963104248047,1.2528975407282512,2.056380788485209,21.42075958251953,38.87895936965943,-20.012574481964112,0.007704653766598883,-0.0029843311428769705,-0.03242618499577722,-233.92523498535155,133.90475616455078,-152.73637199401855,-0.02928832173347473,0.0014020601908366168,0.027673681577046697,-0.6310865787619895,-9.282246232032776,3.2021994066960886,0.008607067778939362,-0.007439713096105022,-0.034896834148005845,-0.46319803098837536,-9.317900021870932,3.032870650291443
8.2,-0.5729314709703127,-9.287192742029825,3.0992037852605185,0.0,0.0,0.9346124053001404,14.72100009918213,0.0224314205348491,0.0,40.30000305175781,-122.75319942,49.19038686,-0.22336236884196595,0.011523060034960467,-0.7235018014907837,0.653085837761561,-1.7227112452189128,1.253765344619751,2.0607135693232217,21.54885959625244,38.84906921386719,-19.954929447174074,0.003067052690312258,-0.019713130663149055,0.0038560866378247586,-233.79713516235353,133.8748664855957,-152.67872695922853,-0.18690933783849076,0.06298891703287755,0.11390984058380123,-0.5669494196772575,-9.304540872573853,3.1620153983434043,0.003983350296039125,-0.024167355693255874,0.0013998992023213491,-0.4661952157815297,-9.320563316345215,3.02420183022817
8.3,-0.5789284837742646,-9.27269135316213,3.0780173818270367,0.0,0.0,0.9356711983680726,14.784250116348266,0.0221134704537689,0.0,40.30000305175781,-122.753199355,49.1903868525,-0.22173792421817776,0.01040633991360658,-0.7242756843566894,0.6527998208999634,-1.7299272775650025,1.253973412513733,2.063942289352417,21.62876958847046,38.906714248657224,-19.927174425125123,0.0013044519121952623,-0.04526129623021308,0.018205057286346932,-233.71722602844238,133.9325122833252,-152.650972366333,-0.09713118672370905,0.0631719589233398,0.03810658454895016,-0.5729464255273342,-9.29003918170929,3.140828971068064,0.002220749622210854,-0.04970279611491907,0.015755232535108597,-0.4876582682132721,-9.32120475769043,3.0188485622406005
8.4,-0.5849254965782166,-9.258189964294434,3.0568309783935548,0.0,0.0,0.9367299914360047,14.847500133514405,0.021795520372688698,0.0,40.30000305175781,-122.75319929,49.190386845,-0.22021060436964032,0.008945906845231784,-0.723548024892807,0.6541443467140198,-1.7233750422795613,1.2550019423166912,2.053024093310038,21.708679580688475,38.964359283447266,-19.899419403076173,-0.00045814886592173326,-0.0708094617972771,0.032554027934869105,-233.63731689453124,133.9901580810547,-152.6232177734375,-0.09678496420383448,0.028204917907714833,0.13555486996968583,-0.5789434313774109,-9.275537490844727,3.1196425437927244,0.0004581489483825835,-0.07523823653658226,0.030110565867895848,-0.466389333208402,-9.324363708496094,3.0124272108078003
8.5,-0.619940459728241,-9.238688151041666,3.2061829368273416,0.0,0.0,0.9377887845039368,14.910750150680542,0.0214775702916085,0.0,40.30000305175781,-122.753199225,49.1903868375,-0.2227602402369181,0.012093338494499483,-0.7224988838036855,0.6543884774049123,-1.7145541906356812,1.2563903331756592,2.0524394114812217,21.35365982055664,38.94971961975098,-19.724349594116212,0.011134407292543445,0.07097143510525875,0.011495373275300298,-233.99233627319336,133.97551803588868,-152.44814758300782,-0.23855266471703843,0.14769029617309568,0.26104009151458735,-0.6139584134022394,-9.256036361058554,3.2689945101737976,0.01200905567119742,0.06654266115616667,0.009038029003105217,-0.4378819117943446,-9.328594843546549,3.003592054049174
8.6,-0.6318547291060288,-9.240657289822895,3.202793111403783,0.0,0.0,0.9388475775718689,14.974000167846679,0.0211596202105283,0.0,40.30000305175781,-122.75319916000001,49.19038683,-0.2260305633147557,0.013752107508480485,-0.7223519484202067,0.6533969938755035,-1.712303141752879,1.2538206179936726,2.057421167691549,21.282899665832517,38.944534587860105,-19.941204643249513,-0.010977063423276623,0.08191784014078703,-0.0048533706331826704,-234.06309547424317,133.97033233642577,-152.6650016784668,-0.28450464705626166,0.09807777404785152,0.16974953810373938,-0.6258726765712102,-9.258005420366924,3.265604694684346,-0.01009431655631597,0.07748270362164034,-0.007316499731545741,-0.4345022290945053,-9.320756912231445,3.0282824436823526
8.7,-0.6437689984838167,-9.242626428604126,3.1994032859802246,0.0,0.0,0.9399063706398011,15.037250185012818,0.0208416701294481,0.0,40.30000305175781,-122.753199095,49.1903868225,-0.22896501421928403,0.013983934031178516,-0.7227172553539276,0.6519579192002615,-1.7138470808664958,1.2493399381637573,2.063698728879293,21.212139511108397,38.93934955596924,-20.158059692382814,-0.03308853413909669,0.09286424517631531,-0.02120211454166564,-234.13385467529298,133.96514663696288,-152.8818557739258,-0.12326985100905097,0.044701099395751974,0.1320937077204386,-0.637786939740181,-9.259974479675293,3.2622148791948953,-0.03219768878382936,0.088422746087114,-0.023671028466196703,-0.444989209373792,-9.30696153640747,3.0689292748769126
8.8,-0.788006351639827,-9.227736115455627,3.163590669631958,0.0,0.0,0.9409651637077332,15.100500202178955,0.0205237200483679,0.0,40.30000305175781,-122.75319903,49.190386815,-0.23878341317176816,0.02176273651421064,-0.7218783140182495,0.649149477481842,-1.706344437599182,1.2456730842590331,2.081940269470215,21.15235948562622,38.86096429824829,-20.421579456329347,-0.03292309151341513,0.1259845948079601,-0.04736750874387019,-234.1936347961426,133.8867618560791,-153.14537582397463,-0.505535489320755,0.0828266143798828,0.02188534736633298,-0.7820242896676064,-9.245084095001221,3.226402272780736,-0.032044972331883956,0.12154945832056302,-0.04986187564888189,-0.42657217383384705,-9.295515632629394,3.10601692199707
8.9,-0.9322437047958374,-9.212845802307129,3.1277780532836914,0.0,0.0,0.9420239567756653,15.163750219345093,0.0202057699672877,0.0,40.30000305175781,-122.753198965,49.1903868075,-0.23737673461437223,0.019433209672570166,-0.7255488336086273,0.6456341644128164,-1.7370561162630718,1.2409963409105937,2.1073471705118814,21.092579460144044,38.782579040527345,-20.68509922027588,-0.03275764888773358,0.15910494443960485,-0.07353290294607474,-234.2534149169922,133.80837707519532,-153.40889587402344,-0.10319984952608742,-0.03915818532307939,-0.0017108122507731,-0.9262616395950317,-9.230193710327148,3.190589666366577,-0.031892255879938554,0.15467617055401206,-0.07605272283156708,-0.5289675096670786,-9.280729452768961,3.134039799372355
9.0,-0.5521438270807266,-9.287691275278727,3.1515966852506003,0.0,0.0,0.9430827498435974,15.22700023651123,0.0198878198862075,0.0,40.30000305175781,-122.7531989,49.1903868,-0.23636718094348905,0.019780889153480485,-0.7297012408574423,0.6413016021251678,-1.7736027042071025,1.238433023293813,2.1430091063181558,21.738569450378417,38.33178939819336,-20.838819599151613,-0.0075108659353149455,-0.013105834749611937,-0.10095936635678461,-233.60742568969727,133.35758590698242,-153.56261672973633,0.17582884927590683,0.017361640930175736,0.03480672836303708,-0.5461617683370908,-9.305039246877035,3.214408278465271,-0.0066501009965908185,-0.0175623744726181,-0.1034305935556238,-0.6476771036783854,-9.27254311243693,3.136306047439575
9.1,-0.6636819913983345,-9.247554901874427,3.2190149092313014,0.0,0.14329090118408203,0.938433051109314,14.793400192260743,0.1915045872330665,16.114422607421876,40.30000305175781,-122.7531929,49.19037492,-0.24228366961081818,0.0257870284840464,-0.7272443473339081,0.641672283411026,-1.7538046836853027,1.2400519450505574,2.14056396484375,21.513174533843994,38.37509927749633,-20.972409629821776,-0.004958073867424944,0.06185126393260856,-0.02563146658554394,-233.83282051086425,133.40089721679686,-153.69620628356932,-0.14546784758567807,0.06950457890828449,0.17540053526560465,-0.6576999305098346,-9.264902728976626,3.28182651238008,-0.004075905749976463,0.05740860706040013,-0.02810790018922875,-0.5827115078767141,-9.277726809183756,3.1334988673528037
9.2,-0.7752201557159424,-9.207418528470127,3.286433133212003,0.0,0.28658180236816405,0.9337833523750305,14.359800148010255,0.3631213545799255,32.22884521484375,40.30000305175781,-122.7531869,49.19036304,-0.24782425165176386,0.02938967496156686,-0.7237868785858155,0.6433112025260925,-1.7237259864807128,1.2400794982910157,2.1238517284393312,21.28777961730957,38.418409156799314,-21.105999660491943,-0.002405281799534942,0.13680836261482907,0.04969643318569674,-234.05821533203124,133.44420852661133,-153.82979583740234,-0.34327605962753294,0.071728515625,0.11023154258728025,-0.7692380926825784,-9.224766211076217,3.3492447462948887,-0.0015017105033621081,0.13237958859341836,0.047214793177166314,-0.48809376955032346,-9.277837181091309,3.1495153427124025
9.3,-0.7354666690031688,-9.18945412202315,3.2610637509461604,0.0,0.42987270355224605,0.9291336536407471,13.926200103759765,0.5347381219267845,48.34326782226563,40.30000305175781,-122.7531809,49.19035116,-0.24983553091684974,0.030587002635002098,-0.7246672610441843,0.6414841115474701,-1.7309454282124836,1.2376191814740498,2.135850509007772,21.229829597473145,38.39858427047729,-21.26215958595276,-0.01143463378151254,0.08727991721243596,-0.016369915932834052,-234.1161666870117,133.42438163757325,-153.98595581054687,-0.1810979644457499,0.09862724939982093,0.06741801897684728,-0.7294846068729054,-9.206802028598208,3.323875364029046,-0.010539970628451514,0.08285114379444466,-0.01887828123484117,-0.5144791801770529,-9.269960403442383,3.1684005657831826
9.4,-0.6957131822903951,-9.171489715576172,3.2356943686803183,0.0,0.5731636047363281,0.9244839549064636,13.492600059509277,0.7063548892736434,64.4576904296875,40.30000305175781,-122.7531749,49.19033928,-0.24985271940628687,0.029676682626207613,-0.7272974749406179,0.6385352313518524,-1.752134104569753,1.2334720889727275,2.1558757225672402,21.17187957763672,38.37875938415527,-21.418319511413575,-0.02046398576349014,0.03775147181004284,-0.08243626505136485,-234.1741180419922,133.40455474853516,-154.1421157836914,-0.11862445871035256,-0.04288578033447263,-0.08585969607035314,-0.6897311210632324,-9.1888378461202,3.298505981763204,-0.01957823075354092,0.03332269899547096,-0.08497135564684864,-0.5883186062177023,-9.256563027699789,3.1946593125661216
9.5,-0.6189933146039645,-9.253792842229208,3.206880827744802,0.0,0.7164545059204102,0.9198342561721802,13.059000015258789,0.8779716566205025,80.57211303710938,40.30000305175781,-122.75316889999999,49.1903274,-0.2471587608257929,0.026676401806374334,-0.7277023593584696,0.6392559806505839,-1.7545825044314067,1.233233352502187,2.1499973932902017,21.446989822387696,38.18172950744629,-21.600709629058837,-0.009290242296022676,-0.030975959729403257,-0.0004454227164387913,-233.8990051269531,133.20752639770507,-154.3245071411133,0.06570786734422047,0.04798428217569981,0.10986900329589842,-0.6130112508932749,-9.271140893300375,3.2696924209594727,-0.008399397134780884,-0.03540473229562242,-0.0029143365488077497,-0.5964793662230173,-9.255807876586914,3.195341428120931
9.6,-0.6971611108518008,-9.236805131941132,3.2277319313901844,0.0,0.8597454071044921,0.9151845574378967,12.625399971008301,1.0495884239673614,96.68653564453126,40.30000305175781,-122.75316289999999,49.19031552,-0.2508070468902588,0.0299737037469943,-0.7259002228577932,0.6397383908430735,-1.740021010239919,1.2339683969815571,2.145577311515808,21.310959672927858,38.21619443893432,-21.60284447669983,-0.007139487587361746,-0.023117432797638063,0.01926770790790516,-234.03503532409667,133.24199256896972,-154.3266426086426,-0.26125460863113403,0.055968443552652965,0.0796618064244588,-0.6911790583169821,-9.254153258872755,3.290543534538963,-0.006242279142801021,-0.027546205325052125,0.016792430930460463,-0.548679530620575,-9.258208910624186,3.1969345013300576
9.7,-0.7753289070996371,-9.219817421653055,3.248583035035567,0.0,1.0030363082885743,0.9105348587036133,12.191799926757813,1.2212051913142203,112.80095825195313,40.30000305175781,-122.7531569,49.19030364,-0.24935051500797267,0.02728336006402966,-0.7251582741737366,0.6412672758102417,-1.732244873046875,1.233486580848694,2.1317467212677004,21.174929523468016,38.25065937042236,-21.60497932434082,-0.004988732878700816,-0.015258905865872868,0.03898083853224911,-234.17106552124022,133.27645874023438,-154.3287780761719,-0.2089854478836059,0.01609725952148436,0.00974607467651368,-0.7693468657406893,-9.237165624445135,3.3113946481184526,-0.004085161150821159,-0.019687678354481833,0.03649919840972867,-0.5245179414749146,-9.256662750244141,3.2054943084716796
9.8,-0.7499278350309893,-9.19535459171642,3.272397973320701,0.0,1.1463272094726562,0.9058851599693298,11.758199882507324,1.3928219586610795,128.915380859375,40.30000305175781,-122.7531509,49.19029176,-0.2466857383648554,0.025888121376434915,-0.7260199884573618,0.6413817008336385,-1.740096112092336,1.2348056832949321,2.1336122353871665,21.271614694595335,38.26834936141968,-21.52079935073853,0.008485936401120832,-0.019785671316397645,0.006784422074755055,-234.07438011169432,133.29414825439454,-154.24459686279297,-0.17684017618497214,0.09021043777465815,0.1071301698684692,-0.7439457787708803,-9.212702519965895,3.335209586403587,0.00938059967690301,-0.024229716074963367,0.004306599998380997,-0.5475505391756693,-9.260945161183676,3.1892069578170776
9.9,-0.7245267629623413,-9.170891761779785,3.296212911605835,0.0,1.2896181106567381,0.9012354612350464,11.324599838256836,1.5644387260079384,145.0298034667969,40.30000305175781,-122.7531449,49.190279880000006,-0.24416641145944593,0.024087759666144803,-0.7274653216203054,0.6407763957977295,-1.752429723739624,1.2347033421198528,2.139633377393087,21.368299865722655,38.28603935241699,-21.436619377136232,0.02196060568094248,-0.02431243676692242,-0.025411994382739,-233.97769470214843,133.31183776855468,-154.16041564941406,-0.11735350886980689,0.044917265574137354,0.16573139031728104,-0.7185446918010712,-9.188239415486654,3.3590245246887207,0.02284636050462718,-0.028771753795444898,-0.027885998412966677,-0.5869973202546438,-9.260617256164549,3.1831480662027993
10.0,-0.6718348115682602,-9.228668292363484,3.2769705851872764,0.0,1.4329090118408203,0.8965857625007629,10.890999794006348,1.7360554933547974,161.14422607421875,40.30000305175781,-122.7531389,49.190268,-0.24146969616413114,0.020768001054724,-0.7285881737867991,0.640640139579773,-1.7607718308766682,1.2332071661949158,2.1392333110173545,21.579969596862792,38.16830921173096,-21.162729740142822,-0.008144869905663618,-0.0737747043992082,0.0018453219866690414,-233.76602478027343,133.19410705566406,-153.88652572631835,-0.022955407698949132,0.014452934265136714,0.013579010963439948,-0.6658527553081512,-9.246016263961792,3.339782198270162,-0.0073049301912154,-0.07820347789674993,-0.0006490443241394502,-0.6160913209120432,-9.255776087443033,3.1917311350504556
10.1,-0.6966626109047369,-9.211463100982435,3.291708189429659,0.0,1.3633238077163696,0.8977786600589752,9.725500106811523,1.9080460667610168,162.6714859008789,40.30000305175781,-122.7531377,49.1902544,-0.24007632136344909,0.02009616307914254,-0.7282107830047607,0.6416137337684631,-1.758122158050537,1.2348821640014649,2.133513259887695,21.47382950782776,38.20246925354004,-21.034629583358765,0.0019344066143579287,-0.014934382595432297,0.014291701168986001,-233.87216453552247,133.22826766967773,-153.7584259033203,-0.03941345214843744,0.03716297149658202,0.11912384033203124,-0.6906805539673024,-9.228811014782298,3.3545197916753366,0.002799799129813151,-0.019363156131779136,0.011803698126944526,-0.604718017578125,-9.261217880249024,3.178070640563965
10.2,-0.7214904102412137,-9.194257909601385,3.3064457936720415,0.0,1.293738603591919,0.8989715576171875,8.5600004196167,2.0800366401672363,164.19874572753906,40.30000305175781,-122.7531365,49.1902408,-0.24221861114104584,0.022575455717742384,-0.7267478207747141,0.6423837641874949,-1.746473769346873,1.2364940245946248,2.1285622914632163,21.367689418792725,38.23662929534912,-20.906529426574707,0.012013683134379475,0.04390593920834362,0.02673808035130296,-233.9783042907715,133.2624282836914,-153.63032608032228,-0.22070972124735508,0.09729528427124019,0.14420870939890537,-0.7155083526264537,-9.211605765602805,3.3692573850805108,0.012904528450841701,0.03947716563319165,0.0242564405780285,-0.5649970769882202,-9.266434828440348,3.1701742013295493
10.3,-0.7250026053551472,-9.211886890006788,3.2663841825543027,0.0,1.292045497894287,0.9000100135803223,8.489600372314452,2.082035946846008,164.39539947509766,40.30000305175781,-122.75313625999999,49.190238789999995,-0.24048768232266104,0.020424502591292016,-0.7271010378996531,0.6427026887734731,-1.7487948338190715,1.2359144290288289,2.125233848889669,21.517444467544557,38.332704067230225,-20.926354598999023,0.0032121330984713273,-0.053198727197013775,0.0239217372455944,-233.82855033874512,133.35850219726564,-153.650150680542,-0.1551038821538289,0.03521664937337237,0.05233399073282873,-0.7190205459341859,-9.229234724333793,3.32919578479998,0.00406988973457679,-0.057627501043801495,0.02145918698515737,-0.5732748806476593,-9.264575640360514,3.1741127967834473
10.4,-0.7285148004690806,-9.229515870412191,3.226322571436564,0.0,1.2903523921966553,0.9010484695434571,8.419200325012207,2.0840352535247804,164.59205322265626,40.30000305175781,-122.75313602,49.19023678,-0.23826396216948828,0.01791542644302045,-0.7284000615278879,0.6421387592951456,-1.7591395775477092,1.2345652182896931,2.1287123759587607,21.667199516296385,38.42877883911133,-20.94617977142334,-0.005589416937436821,-0.15030339360237116,0.021105394139885842,-233.67879638671874,133.45457611083984,-153.66997528076172,-0.08310707410176592,0.011319955190022797,-0.010358174641927101,-0.722532739241918,-9.24686368306478,3.2891341845194497,-0.004764748981688121,-0.15473216772079465,0.01866193339228624,-0.6083823442459106,-9.260220209757486,3.1802744468053183
10.5,-0.6913263400395712,-9.241131067276001,3.167399247487386,0.0,1.2886592864990234,0.9020869255065918,8.34880027770996,2.086034560203552,164.78870697021483,40.30000305175781,-122.75313578,49.190234769999996,-0.23564946899811423,0.015461893596996817,-0.7292635043462118,0.6421838899453481,-1.7663052082061768,1.2343522906303406,2.1284924348195395,21.788589572906496,38.286039161682126,-20.851629543304444,-0.004708752906784267,-0.06325000474923094,0.0005726863164454751,-233.55740814208986,133.31183776855468,-153.57542724609374,-0.059425979852676385,0.026493867238362598,-0.012636184692382835,-0.6853442837794622,-9.25847872098287,3.230210860570272,-0.00380518127349205,-0.0677042309786581,-0.0019089540001005004,-0.631465216477712,-9.259541670481363,3.1777668396631875
10.6,-0.7003991269704067,-9.230664632537149,3.2174536820613975,0.0,1.2869661808013917,0.9031253814697265,8.278400230407716,2.0880338668823244,164.98536071777343,40.30000305175781,-122.75313554,49.19023276,-0.23172578215599055,0.01222586054354902,-0.7289564371109009,0.6440305590629578,-1.7641133785247802,1.2363947868347167,2.1158021450042725,21.7660195350647,38.376624488830565,-20.65581955909729,0.0034696684093487766,-0.027793211445124588,0.018070851569063934,-233.57997703552246,133.40242195129395,-153.37961769104004,-0.03237006664276118,0.02439422607421872,0.060818386077880836,-0.6944170700329724,-9.248012430740125,3.280265262632659,0.004372661416048413,-0.0322416529355299,0.015580534223938035,-0.620854115486145,-9.266156005859376,3.16052360534668
10.7,-0.7094719139012423,-9.220198197798295,3.267508116635409,0.0,1.2852730751037598,0.9041638374328613,8.208000183105469,2.090033173561096,165.18201446533203,40.30000305175781,-122.7531353,49.19023075,-0.23222823689381278,0.013020123820751834,-0.7277753750483195,0.6451685825983683,-1.7544155518213909,1.2379735708236694,2.1079458793004355,21.7434494972229,38.467209815979004,-20.460009574890137,0.011648089725481819,0.007663581858981764,0.0355690168216824,-233.60254592895507,133.4930061340332,-153.18380813598634,-0.1686307291189829,0.06930287679036455,0.1542259852091471,-0.7034898562864824,-9.23754614049738,3.3303196646950464,0.012550504105588873,0.003220925107598302,0.03307002244797657,-0.5874648988246918,-9.271244049072266,3.151981512705485
10.8,-0.7293124013777935,-9.2264022249164,3.2384407159053916,0.0,1.2835799694061278,0.9052022933959961,8.137600135803222,2.092032480239868,165.37866821289063,40.30000305175781,-122.75313505999999,49.190228739999995,-0.23046410580476118,0.010794176099200999,-0.728080670038859,0.6454937160015106,-1.7565372784932454,1.2373638550440471,2.1042754650115967,21.748634576797485,38.46019468307495,-20.373694515228273,-0.001226358143013008,-0.06700312484507305,0.026743865251773927,-233.59736137390138,133.485990524292,-153.0974910736084,-0.1538397669792175,0.03684488932291667,0.0532514651616414,-0.7233303469238859,-9.243750261537956,3.3012522964766533,-0.00034245483711304626,-0.07143883996953565,0.02425991145917741,-0.5951770941416422,-9.269294579823812,3.156246066093445
10.9,-0.7491528888543447,-9.232606252034506,3.2093733151753745,0.0,1.2818868637084961,0.9062407493591309,8.067200088500977,2.0940317869186402,165.57532196044923,40.30000305175781,-122.75313482,49.19022673,-0.22594659527142838,0.006507178147633834,-0.7293690741062164,0.6456982592741648,-1.7676088611284893,1.2371224363644917,2.102540373802185,21.75381965637207,38.4531795501709,-20.287379455566406,-0.014100806011507835,-0.14166983154912785,0.017918713681865452,-233.59217681884766,133.47897491455078,-153.01117401123048,0.058011839787165294,0.04624891281127927,0.0374966462453206,-0.7431708375612894,-9.249954382578531,3.2721849282582602,-0.013235413779814966,-0.1460986050466696,0.01544980047037825,-0.6304583152135214,-9.268529256184896,3.1516619523366294
11.0,-0.6389924179423939,-9.230585271661932,3.241023908961903,0.0,1.2801937580108642,0.9072792053222656,7.99680004119873,2.096031093597412,165.7719757080078,40.30000305175781,-122.75313458,49.190224719999996,-0.22836066782474512,0.010027969814836921,-0.7289013266563416,0.645329761505127,-1.7646015167236329,1.2386561155319213,2.1081239700317385,21.63364973068237,38.51112937927246,-20.289209651947022,0.01586977003535134,0.05574145476566627,-0.0016289736571100753,-233.71234588623048,133.53692779541015,-153.01300659179688,-0.10034737586975093,0.033245468139648404,0.16395359039306637,-0.6330103494904258,-9.247933301058682,3.303835478695956,0.01678606807642302,0.051312680899476,-0.004097887722309666,-0.6182008743286133,-9.273451995849609,3.139581871032715
