seconds_elapsed_rounded,accelerometer_time,accelerometer_seconds_elapsed,accelerometer_z,accelerometer_y,accelerometer_x,accelerometeruncalibrated_time,accelerometeruncalibrated_seconds_elapsed,accelerometeruncalibrated_z,accelerometeruncalibrated_y,accelerometeruncalibrated_x,gravity_time,gravity_seconds_elapsed,gravity_z,gravity_y,gravity_x,gyroscope_time,gyroscope_seconds_elapsed,gyroscope_z,gyroscope_y,gyroscope_x,gyroscopeuncalibrated_time,gyroscopeuncalibrated_seconds_elapsed,gyroscopeuncalibrated_z,gyroscopeuncalibrated_y,gyroscopeuncalibrated_x,location_time,location_seconds_elapsed,location_altitude,location_speedAccuracy,location_bearingAccuracy,location_latitude,location_altitudeAboveMeanSeaLevel,location_bearing,location_horizontalAccuracy,location_verticalAccuracy,location_longitude,location_speed,magnetometer_time,magnetometer_seconds_elapsed,magnetometer_z,magnetometer_y,magnetometer_x,magnetometeruncalibrated_time,magnetometeruncalibrated_seconds_elapsed,magnetometeruncalibrated_z,magnetometeruncalibrated_y,magnetometeruncalibrated_x,orientation_time,orientation_seconds_elapsed,orientation_yaw,orientation_qx,orientation_qz,orientation_roll,orientation_qw,orientation_qy,orientation_pitch
0.0,1.690766836122159e+18,15.002159033203124,-16.28540575270772,-12.169935245271324,2.4679971907095237,1.6907668361158963e+18,14.995896240234371,-1.418115234375,-0.25625,0.2706298828125,1.690766836122159e+18,15.002159033203124,2.295337089039385,9.512701072843669,0.1494339188874652,1.690766836122159e+18,15.002159033203124,1.7074630379676818,-4.0571277141571045,-3.662991762161255,1.6907668361158963e+18,14.995896240234371,2.223604914546013,-4.723651552200318,-3.997083139419556,,,,,,,,,,,,,1.690766836122159e+18,15.002159033203124,2.3140609741210936,50.39659805297852,16.685421752929688,1.6907668361203594e+18,15.000359313964845,42.106502532958984,72.56776809692383,148.65834426879883,1.690766836122159e+18,15.002159033203124,-3.027267096088626,0.7836411080298313,-0.0493645826136652,0.5987278723625418,-0.6158420690604258,0.0514067427480267,-1.3304721782524982
0.05,1.6907668361722668e+18,15.052266796875,-7.540232306809425,-10.404923117854594,-0.4490630041788518,1.690766836166004e+18,15.046003955078126,-0.4625518798828125,-0.12191162109375,0.017767333984375,1.6907668361722668e+18,15.052266796875,3.068042936953306,9.290631153175235,0.6374566011819243,1.6907668361722668e+18,15.052266796875,-1.377661442756653,-4.28844141960144,0.6761201381683349,1.690766836166004e+18,15.046003955078126,-1.288639771938324,-4.499557590484619,-0.0416534677147865,,,,,,,,,,,,,1.6907668361722668e+18,15.052266796875,4.7281639099121096,49.73144302368164,18.5102294921875,1.6907668361671557e+18,15.047155615234374,43.1176513671875,72.43939208984375,148.96540222167968,1.6907668361722668e+18,15.052266796875,-2.991058829818441,0.8007224062001115,-0.1268054493639257,2.9358859870124654,-0.571811259751489,0.1203465859603438,-1.2454443417064618
0.1,1.690766836222375e+18,15.102374658203123,-6.330513987220526,-5.014114109927415,2.90458437156409,1.6907668362161116e+18,15.096111669921871,-0.431146240234375,0.415972900390625,0.256634521484375,1.690766836222375e+18,15.102374658203123,2.026637140203863,9.571626256925464,-0.1411969468150072,1.690766836222375e+18,15.102374658203123,-3.5373202085494997,2.6377505540847777,2.0868892431259156,1.6907668362161116e+18,15.096111669921871,-3.1739022970199584,1.591428504884243,2.2744163990020754,,,,,,,,,,,,,1.690766836222375e+18,15.102374658203123,-1.580548095703125,51.2241096496582,14.084600830078124,1.690766836219152e+18,15.099152197265624,36.56588134765625,73.99161682128906,144.0973876953125,1.690766836222375e+18,15.102374658203123,-2.6087183451040517,0.757199526066013,-0.1305071925167252,-0.5302040109468976,-0.6152569139215108,0.1726069643817177,-1.3528307932752714
0.15,1.6907668362724818e+18,15.152481982421875,-7.615781994860173,12.16942250266969,16.71861339604616,1.6907668362662195e+18,15.146219628906248,-0.7210968017578125,2.2377899169921873,1.5523468017578126,1.6907668362724818e+18,15.152481982421875,0.7434658783412351,9.637505497928858,-1.589353508824259,1.6907668362724818e+18,15.152481982421875,1.3380203068256378,8.83810052871704,1.1205568730831146,1.6907668362662195e+18,15.146219628906248,0.2484286785125732,8.971707725524903,1.3797082781791687,,,,,,,,,,,,,1.6907668362724818e+18,15.152481982421875,-3.534404754638672,52.36743240356445,8.797000122070312,1.6907668362711516e+18,15.1511515625,35.00779724121094,74.98523864746093,139.4654968261719,1.6907668362724818e+18,15.152481982421875,-1.8715079093923992,0.7248185525399518,0.0209111010168053,-1.9823898026304847,-0.6781461761357696,0.0986451913050314,-1.387519245989962
0.2,1.69076683632259e+18,15.202589990234376,-1.337362717340365,13.943149968366026,6.358730846210121,1.690766836316327e+18,15.196327001953126,-0.0420989990234375,2.3538787841796873,0.6783782958984375,1.69076683632259e+18,15.202589990234376,0.8001636613906176,9.727543496250508,0.3054994925151206,1.69076683632259e+18,15.202589990234376,5.710280990600586,-2.7091760694980622,-2.2549235343933107,1.690766836316327e+18,15.196327001953126,5.4104303359985355,-0.8826452612876892,-2.261938381195068,,,,,,,,,,,,,1.69076683632259e+18,15.202589990234376,-0.2886314392089844,49.27119674682617,19.529006958007812,1.6907668363231473e+18,15.20314736328125,38.55984191894531,71.50150146484376,151.2504425048828,1.69076683632259e+18,15.202589990234376,0.5122153631721977,0.7337056361510055,0.0204496818078613,0.6047860712802455,-0.6757647141657628,-0.0448918402630748,-1.4537213171645855
0.25,1.6907668363726976e+18,15.252697607421874,-4.223489509676396,27.016463794147967,-2.3168199051466587,1.6907668363664348e+18,15.246434570312498,-0.4690277099609375,3.715704345703125,0.1267425537109375,1.6907668363726976e+18,15.252697607421874,-0.5205610824044979,9.075855949785709,3.354676163494885,1.6907668363726976e+18,15.252697607421874,5.427343559265137,-8.967802715301513,6.902636432647705,1.6907668363664348e+18,15.246434570312498,5.6734898567199705,-9.510828590393066,4.934280425310135,,,,,,,,,,,,,1.6907668363726976e+18,15.252697607421874,-8.473795700073243,42.241825866699216,30.711758422851563,1.6907668363699443e+18,15.2499443359375,26.816932678222656,63.33551788330078,162.5721893310547,1.6907668363726976e+18,15.252697607421874,1.7622143816513376,0.6852560720267891,-0.2178386187586104,1.4990361471512097,-0.6878903677660327,-0.0368196631674165,-1.1930324442075635
0.3,1.690766836422805e+18,15.30280498046875,33.78483909573167,9.721858085638283,-20.81418093313873,1.6907668364165427e+18,15.296542626953125,2.9730987548828125,1.728009033203125,-1.469189453125,1.690766836422805e+18,15.30280498046875,-3.4529374495694043,6.859574452639222,5.958398467513322,1.690766836422805e+18,15.30280498046875,2.76202712059021,9.23558902144432,5.108075475692749,1.6907668364165427e+18,15.296542626953125,3.277576446533203,8.303655529022217,7.636086004972458,,,,,,,,,,,,,1.690766836422805e+18,15.30280498046875,-23.55651741027832,24.897142028808595,40.229556274414065,1.69076683641674e+18,15.29674013671875,15.12818603515625,46.057666015625,171.9532684326172,1.690766836422805e+18,15.30280498046875,1.148284582263701,0.5225277734847137,-0.2801678381687841,1.034349867209165,-0.771949688475524,-0.2044771523752685,-0.7775530182842223
0.35,1.690766836472913e+18,15.352912890624998,7.348397015693783,-1.11498965000689,-13.642612076660397,1.69076683646665e+18,15.34665,0.56893310546875,0.5804718017578125,-0.7131256103515625,1.690766836472913e+18,15.352912890624998,-2.345024343046098,6.5741284485077855,6.880877703621984,1.690766836472913e+18,15.352912890624998,-0.6789716124534607,-0.5829841375350953,-3.247682809829712,1.69076683646665e+18,15.34665,-0.3809099033474922,-0.827474319934845,-3.142900276184082,,,,,,,,,,,,,1.690766836472913e+18,15.352912890624998,-15.700639724731444,19.77080078125,47.590911865234375,1.6907668364687345e+18,15.348734326171874,23.03782958984375,42.58043823242187,178.158203125,1.690766836472913e+18,15.352912890624998,1.2230913271601047,0.5507440341401451,-0.2639994214609082,1.2429805284121405,-0.741417779761489,-0.276734122000956,-0.7350149937254719
0.4,1.6907668365230203e+18,15.40302021484375,-0.2761178238765895,-7.83269713288784,-13.937447957332134,1.6907668365167575e+18,15.39675751953125,-0.107952880859375,-0.0358551025390625,-0.7805999755859375,1.6907668365230203e+18,15.40302021484375,-0.9753611871969328,7.482933964051009,6.225574889269471,1.6907668365230203e+18,15.40302021484375,-3.747724151611328,1.5205360233783722,-2.6850109577178953,1.6907668365167575e+18,15.39675751953125,-3.2415029764175416,1.848266613483429,-2.5628813743591308,,,,,,,,,,,,,1.6907668365230203e+18,15.40302021484375,-10.241858673095702,25.625335693359375,45.99393005371094,1.690766836520726e+18,15.400725830078123,28.936981201171875,48.926431274414064,176.34122619628906,1.6907668365230203e+18,15.40302021484375,1.3918112451930869,0.6229420510109838,-0.2295881873707083,1.419471535127188,-0.7046192856918638,-0.2480361318292981,-0.8700532771002825
0.45,1.6907668365731282e+18,15.453128076171874,-5.105190452933907,6.524951102171539,-14.915065494008063,1.6907668365668654e+18,15.446865380859377,-0.42142333984375,1.48321533203125,-1.1336334228515623,1.6907668365731282e+18,15.453128076171874,0.5663226125082094,8.956945142009854,3.741237001888007,1.6907668365731282e+18,15.453128076171874,-8.416010570526122,-0.3919796347618103,-4.450443685054779,1.6907668365668654e+18,15.446865380859377,-7.794584083557129,-1.747169542312622,-4.899425935745239,,,,,,,,,,,,,1.6907668365731282e+18,15.453128076171874,-4.4007080078125,38.560096740722656,36.09676513671875,1.690766836572722e+18,15.4527220703125,34.65542297363281,62.41179504394531,165.4413299560547,1.6907668365731282e+18,15.453128076171874,1.840273816905477,0.7152289914233896,-0.16012306748224,1.774269989143368,-0.6666904440210467,-0.1141351186516374,-1.1642444962476597
0.5,1.6907668366232356e+18,15.5032357421875,-9.113407513755746,38.54045079648495,-1.8931060663405057,1.6907668366169728e+18,15.496972705078123,-0.8962677001953125,4.927847290039063,-0.28460693359375,1.6907668366232356e+18,15.5032357421875,0.779789988355441,9.705256494927406,-0.566247899650922,1.6907668366232356e+18,15.5032357421875,-4.853713524341583,14.010734558105469,3.263104772567749,1.6907668366169728e+18,15.496972705078123,-6.09521894454956,14.321455383300782,2.4025593042373656,,,,,,,,,,,,,1.6907668366232356e+18,15.5032357421875,3.85079345703125,50.09056625366211,16.380206298828124,1.6907668366195154e+18,15.499515258789062,42.73118591308594,73.0509033203125,146.37364196777344,1.6907668366232356e+18,15.5032357421875,-0.3083299511092273,0.7272383615216573,0.1268753513133916,-1.251123343184218,-0.6586898516390731,-0.0924758141343406,-1.4279232443277476
0.55,1.6907668366733432e+18,15.553343261718748,27.114229405660033,4.53847859451294,8.300562949535848,1.6907668366670807e+18,15.5470806640625,2.592059326171875,1.5124725341796874,0.7004791259765625,1.6907668366733432e+18,15.553343261718748,-1.7593947989916057,9.527246549355386,-1.4462330026474597,1.6907668366733432e+18,15.553343261718748,1.1000527560710909,-4.536706566810608,2.8015432357788086,1.6907668366670807e+18,15.5470806640625,0.8630374804139137,-1.7406674385070802,3.8342936515808104,,,,,,,,,,,,,1.6907668366733432e+18,15.553343261718748,-2.573811340332031,51.85599899291992,10.477459716796876,1.6907668366663112e+18,15.546311083984374,35.112701416015625,74.52731018066406,140.98086547851562,1.6907668366733432e+18,15.553343261718748,-1.261873789129441,0.6278655034541972,0.2595317910550104,-0.7082085041215876,-0.7220604350818512,-0.1240397601784523,-1.3340206866699271
0.6,1.6907668367234511e+18,15.60345107421875,-2.3190807773637774,-5.583769737489223,2.3350923224531113,1.6907668367171884e+18,15.597188330078126,-0.1896240234375,0.431884765625,0.1118499755859375,1.6907668367234511e+18,15.60345107421875,0.069099805005202,9.694554483649132,-1.1396074469781667,1.6907668367234511e+18,15.60345107421875,1.8986183404922483,-8.745523357391358,-5.107995223999024,1.6907668367171884e+18,15.597188330078126,1.6921875715255736,-9.420525360107424,-4.887432432174682,,,,,,,,,,,,,1.6907668367234511e+18,15.60345107421875,-3.396287536621094,51.70832138061523,12.247772216796877,1.6907668367183089e+18,15.598308886718751,35.65097351074219,74.32531433105468,143.0289306640625,1.6907668367234511e+18,15.60345107421875,-1.855499096669606,0.7080631509769368,0.0957865665118777,-1.7044730006094533,-0.695570755416173,-0.0103407181435764,-1.4210577866205127
0.65,1.6907668367735588e+18,15.653558642578124,-12.494428480677604,-12.6394485953176,3.8873185790535807,1.690766836767296e+18,15.6472958984375,-1.06341552734375,-0.3152435302734375,0.416778564453125,1.6907668367735588e+18,15.653558642578124,2.1863129721839725,9.552334930287005,0.1090229542048415,1.6907668367735588e+18,15.653558642578124,0.46491679251194,-5.864715480804444,-1.9190333604812624,1.690766836767296e+18,15.6472958984375,0.9981724768877028,-5.9138596534729,-2.4298374533653258,,,,,,,,,,,,,1.6907668367735588e+18,15.653558642578124,2.542927551269531,50.34244918823242,17.06009521484375,1.690766836770304e+18,15.65030390625,41.30237426757813,72.86176452636718,147.97781982421876,1.6907668367735588e+18,15.653558642578124,-3.009443531222331,0.7790519907151309,-0.0556730693701145,0.5926930091613951,-0.619671969218927,0.0618526781111628,-1.3439747887323066
0.7,1.6907668368236664e+18,15.703666503906248,-7.051696744002699,-8.84838832117915,1.9594937244835495,1.6907668368174036e+18,15.697403662109377,-0.48182373046875,0.0604461669921875,0.2154296875,1.6907668368236664e+18,15.703666503906248,2.311865760644525,9.526396420719028,0.1646421162712387,1.6907668368236664e+18,15.703666503906248,-1.492487859725952,-0.8653828263282776,0.9835432201623916,1.6907668368174036e+18,15.697403662109377,-1.4142006874084472,-1.8292308866977691,0.6098283648490905,,,,,,,,,,,,,1.6907668368236664e+18,15.703666503906248,0.3350784301757812,50.796904754638675,15.974444580078124,1.6907668368222991e+18,15.702299169921876,38.654052734375,73.52778625488281,146.2870086669922,1.6907668368236664e+18,15.703666503906248,-2.827167204435859,0.7728194851028837,-0.123003580049858,1.8181559021831712,-0.605752345584156,0.1430056849802019,-1.331607260891003
0.75,1.6907668368737743e+18,15.753774267578128,-9.757868374983072,8.830610672426223,11.583061765570342,1.6907668368675113e+18,15.747511230468753,-0.878961181640625,1.83858642578125,1.0492523193359375,1.6907668368737743e+18,15.753774267578128,1.1356900908713414,9.67650795482695,-0.949394730176106,1.6907668368737743e+18,15.753774267578128,-1.198441485199146,6.747440910339355,2.6971138954162597,1.6907668368675113e+18,15.747511230468753,-1.701551127433777,6.141759920120239,2.7652254581451414,,,,,,,,,,,,,1.6907668368737743e+18,15.753774267578128,-3.380687713623047,51.75615310668945,11.706887817382812,1.690766836869095e+18,15.749094970703124,35.21273422241211,74.43254470825195,142.01963806152344,1.6907668368737743e+18,15.753774267578128,-2.171823919141725,0.7363278068959527,-0.0423341505823775,-2.40560144717863,-0.6619507179513612,0.1218154119401753,-1.40869177001832
0.8,1.6907668369238815e+18,15.803881689453124,-0.0027131168031693,4.476337254089713,6.492656618479491,1.6907668369176192e+18,15.7976193359375,0.00147705078125,1.4531524658203123,0.662164306640625,1.6907668369238815e+18,15.803881689453124,0.2049333882238482,9.782570854563115,-0.2833245075056515,1.6907668369238815e+18,15.803881689453124,4.084058141708374,2.3549343556165696,-0.9314583599567412,1.6907668369176192e+18,15.7976193359375,3.664597463607788,3.775992703437806,-0.299310803413391,,,,,,,,,,,,,1.6907668369238815e+18,15.803881689453124,-4.144344329833984,50.72100143432617,15.238302612304688,1.6907668369158897e+18,15.79588984375,34.587033081054685,73.2712646484375,146.2315216064453,1.6907668369238815e+18,15.803881689453124,-0.0859354411911179,0.7135265797811522,0.0307734992018437,-0.0270770114557972,-0.698884353997605,-0.010819873269323,-1.5074122999531478
0.85,1.6907668369739896e+18,15.8539896484375,-8.035377876953481,30.128185713829993,3.4090226122581955,1.6907668369677266e+18,15.847726708984377,-0.7852996826171875,3.9874755859375,0.6105712890625,1.6907668369739896e+18,15.8539896484375,0.0858503410267271,9.432674648544191,2.430315731362551,1.6907668369739896e+18,15.8539896484375,6.030007553100586,-7.509636497497558,2.8007569558918477,1.6907668369677266e+18,15.847726708984377,6.1026732444763185,-7.054879760742187,1.4694097995758058,,,,,,,,,,,,,1.6907668369739896e+18,15.8539896484375,-5.277812194824219,45.176605224609375,27.14820556640625,1.6907668369678856e+18,15.847885498046876,32.571588134765626,67.1499755859375,158.75271301269532,1.6907668369739896e+18,15.8539896484375,1.814513723794109,0.7078099338119267,-0.1264682875301298,1.707828930982004,-0.6889706842548687,-0.0523166936910861,-1.3078870757013408
0.9,1.6907668370240973e+18,15.904097314453123,30.57455112026185,11.332135227704049,-15.04991106992304,1.6907668370178342e+18,15.897834277343753,2.508309936523437,2.0562957763671874,-1.005975341796875,1.6907668370240973e+18,15.904097314453123,-3.587260229106247,7.897164402814506,4.424922650220692,1.6907668370240973e+18,15.904097314453123,2.845461571216583,1.522283554077148,6.400357034057379,1.6907668370178342e+18,15.897834277343753,3.2175939798355104,0.1357847213745113,6.707671427726746,1.6907668370006838e+18,15.880683837890626,50.53106824681163,0.8000000120221102,12.790006480317192,49.2754942634239,69.56963865086436,30.58595901517616,4.58235852772872,3.581414155908349,-122.87186977180048,4.059999942778718,1.6907668370240973e+18,15.904097314453123,-25.077722549438477,31.505928802490235,34.67485656738281,1.69076683701988e+18,15.8998796875,12.265988159179688,52.942929077148435,165.77040100097656,1.6907668370240973e+18,15.904097314453123,1.2097463544497922,0.5536658276892481,-0.2908879863983464,0.9002267640107544,-0.7728988770152412,-0.0836024656468872,-0.9435163209555492
0.95,1.6907668370742047e+18,15.9542046875,8.014801420488357,-0.5255155739665034,-11.187968982640504,1.6907668370679424e+18,15.947942236328126,0.71844482421875,0.7042449951171875,-0.647210693359375,1.6907668370742047e+18,15.9542046875,-3.0813394655433295,7.44840976315856,5.571800365849733,1.6907668370742047e+18,15.9542046875,-0.2908388018608093,1.459062135219574,-2.22908501625061,1.6907668370679424e+18,15.947942236328126,-0.0252868272364139,2.096866822242737,-1.8143063634634016,,,,,,,,,,,,,1.6907668370742047e+18,15.9542046875,-22.418761444091796,26.027278900146484,41.465554809570314,1.6907668370718715e+18,15.9518716796875,16.754156494140624,48.769351196289065,172.3333709716797,1.6907668370742047e+18,15.9542046875,1.1997125158167383,0.557741078801023,-0.2656075493852547,1.0669010866572493,-0.7657847143478522,-0.1776030272437946,-0.862851327820041
1.0,1.6907668371243126e+18,16.004312646484372,3.952717401515841,-6.971550025098324,-8.897777147535086,1.6907668371180498e+18,15.998049658203126,0.263958740234375,0.11881103515625,-0.382421875,1.6907668371243126e+18,16.004312646484372,-1.6840615447835623,8.111968130872249,5.221659829680919,1.6907668371243126e+18,16.004312646484372,-1.8453626871109008,0.4939134657382965,-3.336753225326538,1.6907668371180498e+18,15.998049658203126,-1.6817322254180909,0.5563825011253357,-3.2225046157836914,,,,,,,,,,,,,1.6907668371243126e+18,16.004312646484372,-16.04610595703125,30.779525756835938,40.86536560058594,1.6907668371238646e+18,16.003864453124997,23.0357421875,53.88428955078125,171.28604125976562,1.6907668371243126e+18,16.004312646484372,1.396570480642928,0.6240437380011994,-0.2460938812382286,1.2624645999175503,-0.7246279750276209,-0.1555125396789687,-0.9752072748929316
1.05,1.6907668371744202e+18,16.054420263671876,-1.9694619854336977,-1.5214600930672884,-11.132270710102915,1.6907668371681574e+18,16.04815751953125,-0.1773468017578125,0.6980926513671875,-0.6984527587890625,1.6907668371744202e+18,16.054420263671876,0.0958494565128115,8.908679299108385,4.01236376870513,1.6907668371744202e+18,16.054420263671876,-4.480629396438599,-0.1828943848609924,-4.663083553314209,1.6907668371681574e+18,16.04815751953125,-3.835622787475586,-0.9817269325256348,-4.979870891571045,,,,,,,,,,,,,1.6907668371744202e+18,16.054420263671876,-9.318766784667968,38.155730438232425,36.15709228515625,1.6907668371706593e+18,16.05065924072266,29.38862991333008,60.92487716674805,166.69748306274414,1.6907668371744202e+18,16.054420263671876,1.811372675426234,0.7048310322164226,-0.2146522763464672,1.614845457497679,-0.6697280106641812,-0.0790040888405068,-1.14319616258573
1.1,1.690766837224528e+18,16.104528076171874,-11.622429139484169,35.1251759042859,-6.954930021947919,1.690766837218265e+18,16.098265234375,-1.08076171875,4.494625854492187,-0.7070953369140625,1.690766837224528e+18,16.104528076171874,0.9984584016178546,9.66488953013003,0.5144976286068558,1.690766837224528e+18,16.104528076171874,-6.769254493713379,10.8631498336792,2.869517207145691,1.690766837218265e+18,16.098265234375,-7.348184490203858,10.916843032836914,1.957804548740387,,,,,,,,,,,,,1.690766837224528e+18,16.104528076171874,-0.8342460632324219,47.16670150756836,23.827621459960938,1.690766837217456e+18,16.097456103515626,38.49524536132813,70.61708068847656,153.00101013183593,1.690766837224528e+18,16.104528076171874,0.4580961487267787,0.7406517687311867,0.0052692202228126,0.5272804880229467,-0.663071634842734,-0.0436199678574737,-1.4126288674784049
1.15,1.6907668372746358e+18,16.1546357421875,15.149369690636394,11.020771289175151,9.747740831817984,1.6907668372683727e+18,16.148372705078124,1.4056640625,2.227581787109375,0.84681396484375,1.6907668372746358e+18,16.1546357421875,-0.858948571178671,9.657319971658588,-1.427261599452272,1.6907668372746358e+18,16.1546357421875,-0.953362163156271,-1.4372680954635144,2.0823409795761108,1.6907668372683727e+18,16.148372705078124,-1.2625909194350242,0.3973834753036499,2.858522566407919,,,,,,,,,,,,,1.6907668372746358e+18,16.1546357421875,-3.164501190185547,51.86817855834961,11.90595703125,1.6907668372694515e+18,16.149451611328125,34.84236450195313,74.6132080078125,142.0621795654297,1.6907668372746358e+18,16.1546357421875,-1.373512084354363,0.6728748753717613,0.1679479072728161,-1.0541203007356164,-0.7179145491504451,-0.0560682601874662,-1.39808895376463
1.2,1.6907668373247432e+18,16.20474326171875,0.2723034678332509,-5.983139993155598,5.226197239301801,1.6907668373184806e+18,16.198480712890625,0.0831207275390624,0.385394287109375,0.359393310546875,1.6907668373247432e+18,16.20474326171875,0.0283185039034417,9.63624246302962,-1.743082648907453,1.6907668373247432e+18,16.20474326171875,0.1126563834026455,-8.017465686798095,-2.2083530902862547,1.6907668373184806e+18,16.198480712890625,-0.0730907768011093,-8.163222503662109,-2.006162667274475,,,,,,,,,,,,,1.6907668373247432e+18,16.20474326171875,-4.998627471923828,52.2377815246582,9.272982788085937,1.6907668373214477e+18,16.20144765625,33.668408203125,74.90216674804688,139.68370971679687,1.6907668373247432e+18,16.20474326171875,-1.6113362859639568,0.7046729819821074,0.0729444056953564,-1.5860624641241183,-0.7009922773680363,0.0551841091270121,-1.3841073007100635
1.25,1.690766837374851e+18,16.25485107421875,-8.223741341853142,-15.425940898916718,8.27662449851781,1.6907668373685883e+18,16.248588330078128,-0.650054931640625,-0.584552001953125,0.7378509521484375,1.690766837374851e+18,16.25485107421875,1.8489103078091145,9.553951133311989,-1.099316703835204,1.690766837374851e+18,16.25485107421875,0.1354596138000487,-7.281516170501709,-2.453555417060852,1.6907668373685883e+18,16.248588330078128,0.4722013771533966,-7.1426615715026855,-2.623047661781311,,,,,,,,,,,,,1.690766837374851e+18,16.25485107421875,-1.47215576171875,52.26276016235352,9.555865478515624,1.6907668373734449e+18,16.253444921875,37.38569641113281,74.89640502929687,140.1906982421875,1.690766837374851e+18,16.25485107421875,-2.262396256674223,0.7527756972917372,-0.0605013040883838,-2.581463654966588,-0.6325234332570698,0.1622708451168909,-1.344831658077012
1.3,1.690766837419948e+18,16.299947998046875,-5.664876650501787,-9.94880528518036,1.7526115832053124,1.6907668374186962e+18,16.29869609375,-0.3272491455078125,-0.02261962890625,0.092547607421875,1.690766837419948e+18,16.299947998046875,2.4268683600811283,9.458180699592084,-0.8736027979879639,1.690766837419948e+18,16.299947998046875,-0.7092867502942681,-0.0911045670509338,1.7515255510807035,1.6907668374186962e+18,16.29869609375,-0.743480533361435,-0.5284070278517902,1.4484943345189094,,,,,,,,,,,,,1.690766837419948e+18,16.299947998046875,-1.397374153137207,52.73182678222656,7.950794219970703,1.6907668374202422e+18,16.300242248535156,36.92331314086914,75.4075698852539,138.37523651123047,1.690766837419948e+18,16.299947998046875,-2.22289667242594,0.7484523299345438,-0.1412966248833131,-2.7916130535432955,-0.5967920900576713,0.2518845355819905,-1.3041001988604413
1.35,1.690766837465045e+18,16.3450451171875,-1.5668651689362525,0.959678676785827,6.364364117469788,1.6907668374688038e+18,16.348803857421878,-0.174951171875,1.6965362548828125,0.94580078125,1.690766837465045e+18,16.3450451171875,1.4570910228180884,9.569780102989078,-1.5291839360915125,1.690766837465045e+18,16.3450451171875,-0.4261419147253037,9.995972633361816,-0.0127645522356033,1.6907668374688038e+18,16.348803857421878,-0.2919638091698289,10.163142776489256,-0.1061396464006975,,,,,,,,,,,,,1.690766837465045e+18,16.3450451171875,-2.709362030029297,52.694454193115234,7.854769897460938,1.6907668374670385e+18,16.3470384765625,36.54916076660156,75.39591674804687,138.28964538574218,1.690766837465045e+18,16.3450451171875,-2.0562674624808692,0.7392149005616397,-0.0357305417171156,-2.3382049378955725,-0.6489949544036565,0.1613135210403725,-1.350745886184575
1.4,1.690766837515154e+18,16.395153759765627,-7.359639359006882,14.15907796582639,18.895811187751885,1.6907668375189125e+18,16.398912451171874,-0.461968994140625,1.9577789306640625,1.4283721923828123,1.690766837515154e+18,16.395153759765627,0.8018909820268302,9.685196054386497,-1.1718052653627098,1.690766837515154e+18,16.395153759765627,4.1738275527954105,2.773358154296875,-0.4271346978843212,1.6907668375189125e+18,16.398912451171874,4.377283668518066,1.3695800065994264,-0.6218573868274688,,,,,,,,,,,,,1.690766837515154e+18,16.395153759765627,0.3335105895996094,52.10436172485352,10.807766723632811,1.690766837519033e+18,16.399033203125,39.438226318359376,74.0314208984375,144.26683044433594,1.690766837515154e+18,16.395153759765627,-2.3676686854403743,0.7344302215773489,0.0826333988854029,-2.2487209893137186,-0.6723642033567339,-0.0012043024594866,-1.4204605490904747
1.45,1.6907668375652613e+18,16.44526142578125,-6.366026410045772,9.605191257396935,4.137046320976316,1.6907668375690204e+18,16.449020410156248,-0.801531982421875,2.3934661865234377,0.504864501953125,1.6907668375652613e+18,16.44526142578125,0.9211932769915648,9.582689853444696,1.557353028682936,1.6907668375652613e+18,16.44526142578125,5.376679229736328,-12.964057350158692,0.1649751901626587,1.6907668375690204e+18,16.449020410156248,5.3566357612609865,-13.095858192443847,0.7769143968820572,,,,,,,,,,,,,1.6907668375652613e+18,16.44526142578125,-2.714242172241211,47.93048629760742,22.587457275390623,1.6907668375710277e+18,16.451027734375,31.55474548339844,68.61459655761719,156.05968017578124,1.6907668375652613e+18,16.44526142578125,2.4516978452191545,0.7385528000665765,-0.1208590107565434,2.2583767023242585,-0.6546995914966385,0.0137631781907937,-1.3670881519531952
1.5,1.690766837615369e+18,16.495369140625,-8.053277223163843,27.30820451450943,-4.273824735423922,1.6907668376191278e+18,16.499127734375,-0.9602569580078124,3.44815673828125,-0.0595855712890625,1.690766837615369e+18,16.495369140625,-2.6521860294991355,8.605299461975097,3.5304549305617803,1.690766837615369e+18,16.495369140625,2.184546780586243,-1.0420203089714044,11.388652801513672,1.6907668376191278e+18,16.499127734375,2.0908191204071045,3.1190767288208017,10.941343212127686,,,,,,,,,,,,,1.690766837615369e+18,16.495369140625,-24.921887969970705,37.50269622802735,27.630645751953125,1.690766837623022e+18,16.503021923828125,9.408575439453124,55.05410461425781,160.73948364257814,1.690766837615369e+18,16.495369140625,1.619197227112923,0.5971127429884389,-0.3708323822432002,0.982371222598904,-0.7036462912303499,0.0579218806815925,-1.0836598135019833
1.55,1.6907668376654766e+18,16.545476708984374,44.036645710895655,8.611585059663653,-21.53305073680341,1.6907668376692352e+18,16.5492353515625,4.31529541015625,1.3225982666015623,-1.660870361328125,1.6907668376654766e+18,16.545476708984374,-3.1962033360159396,6.83041709792912,6.238920342341661,1.6907668376654766e+18,16.545476708984374,1.0440880924463272,7.099014931172133,0.0892601191997528,1.6907668376692352e+18,16.5492353515625,0.8240647107362747,3.837789463996887,-0.3138652920722961,,,,,,,,,,,,,1.6907668376654766e+18,16.545476708984374,-21.95468635559082,22.38608627319336,43.1824462890625,1.690766837669819e+18,16.549818725585936,19.43508529663086,43.94321823120117,176.15637969970703,1.6907668376654766e+18,16.545476708984374,1.1887234849191164,0.5359565513746729,-0.2806451515196996,1.0957473020352968,-0.7640741134430169,-0.2200070205342268,-0.7706975014195404
1.6,1.6907668377155845e+18,16.595584374999998,3.701011959005445,-3.164414463758468,-10.601902318503855,1.6907668377193436e+18,16.599343408203126,0.06275634765625,0.2337432861328125,-0.443597412109375,1.6907668377155845e+18,16.595584374999998,-2.713912512817681,7.124513558410406,6.155061675629019,1.6907668377155845e+18,16.595584374999998,-0.6979706168174744,0.1072747468948365,-2.85265576839447,1.6907668377193436e+18,16.599343408203126,-0.7624743163585663,0.615172290802002,-2.7611285924911497,,,,,,,,,,,,,1.6907668377155845e+18,16.595584374999998,-19.853098678588868,23.631253814697267,44.05609130859375,1.690766837716616e+18,16.596615966796872,18.903170776367187,46.59847717285156,174.54218139648438,1.6907668377155845e+18,16.595584374999998,1.3345826262206888,0.5705698595032759,-0.305636439174302,1.1567214840819855,-0.7381046232590232,-0.1889359612350479,-0.8136003884295322
1.65,1.6907668377656924e+18,16.645692382812502,0.6633985009768605,-8.040615309989452,-9.677967622889875,1.6907668377694508e+18,16.649450732421876,-0.0476409912109375,0.0351898193359375,-0.446746826171875,1.6907668377656924e+18,16.645692382812502,-1.216698519252017,7.721318006564974,5.899856846695542,1.6907668377656924e+18,16.645692382812502,-1.8086341381073,1.4827633619308471,-2.849665880203247,1.6907668377694508e+18,16.649450732421876,-1.9902171611785888,1.10772967338562,-3.0799950838088987,,,,,,,,,,,,,1.6907668377656924e+18,16.645692382812502,-14.136340713500976,27.20807800292969,44.056881713867185,1.6907668377686124e+18,16.64861215820313,26.56097717285156,51.384768676757815,174.27576904296876,1.6907668377656924e+18,16.645692382812502,1.4811638072962436,0.6335051230381736,-0.2644253263273156,1.3701737220907828,-0.7013052174084391,-0.1903130523006559,-0.9071556285392564
1.7,1.6907668378157998e+18,16.695799755859376,-7.7132992941669745,9.713602766085865,-16.371108352173568,1.690766837819559e+18,16.69955869140625,-1.220074462890625,2.7103485107421874,-1.2673614501953123,1.6907668378157998e+18,16.695799755859376,0.3067762563722394,8.787500429496168,4.183634352245628,1.6907668378157998e+18,16.695799755859376,-7.474304676055908,0.7374576568603516,-3.8313822984695434,1.690766837819559e+18,16.69955869140625,-8.011679649353027,2.0584058284759523,-3.224784243106842,,,,,,,,,,,,,1.6907668378157998e+18,16.695799755859376,-8.435045623779297,35.98520050048828,38.39624938964844,1.6907668378206072e+18,16.700607177734376,32.01777954101563,62.61591796875,164.86578979492188,1.6907668378157998e+18,16.695799755859376,1.8989801396090584,0.7117052257184193,-0.2293327914019589,1.6766462198293084,-0.6561463820904185,-0.0763826926609739,-1.121825487279358
1.75,1.6907668378659077e+18,16.745907324218752,-9.360658950612397,44.84594327207803,2.632749427251518,1.6907668378696663e+18,16.74966640625,-0.534381103515625,5.199349975585937,0.5058807373046875,1.6907668378659077e+18,16.745907324218752,0.0809430313410051,9.735930099419354,-0.0740362293609231,1.6907668378659077e+18,16.745907324218752,-5.482020211219788,12.391162776947022,6.024247741699218,1.6907668378696663e+18,16.74966640625,-4.684076774120331,11.088114702701567,6.670713233947754,,,,,,,,,,,,,1.6907668378659077e+18,16.745907324218752,-0.930511474609375,48.9158073425293,20.164212036132813,1.6907668378726034e+18,16.7526033203125,36.6570068359375,73.20322875976562,146.7855438232422,1.6907668378659077e+18,16.745907324218752,-0.0366301022907934,0.7045976157408257,0.0836279017816406,0.1888496575459774,-0.6920195394456286,-0.0746186410601349,-1.4604774415151942
1.8,1.6907668379160154e+18,16.79601533203125,37.523879142871195,1.7948882102423902,10.350018976756337,1.690766837919774e+18,16.799773828125,3.6995452880859374,0.772845458984375,0.867388916015625,1.6907668379160154e+18,16.79601533203125,-2.3253136219517883,9.48452477967322,-0.7625580364523084,1.6907668379160154e+18,16.79601533203125,1.6297990679740906,-6.755650234222412,-0.4245265960693359,1.690766837919774e+18,16.799773828125,1.7724188327789308,-7.095976197719574,-1.918552589416504,,,,,,,,,,,,,1.6907668379160154e+18,16.79601533203125,-9.729774475097656,50.41827926635742,14.53328857421875,1.6907668379193984e+18,16.799398559570314,27.743553161621097,72.82539367675781,145.37931442260742,1.6907668379160154e+18,16.79601533203125,-0.6882139955977873,0.6111273370385586,0.168999973298339,-0.3266549968817788,-0.7670078682839296,-0.0827396964295681,-1.3177252767041758
1.85,1.6907668379661228e+18,16.846122802734374,-2.374460280888825,-6.76413512134373,-0.3315103403202071,1.6907668379698816e+18,16.849881787109375,-0.5039398193359375,0.050677490234375,-0.0836029052734375,1.6907668379661228e+18,16.846122802734374,0.3709923353233374,9.746143801110982,-0.2628799751194112,1.6907668379661228e+18,16.846122802734374,2.4322599172592163,-9.7009352684021,-5.960719013214112,1.6907668379698816e+18,16.849881787109375,2.435757064819336,-8.970640182495117,-5.895378875732422,,,,,,,,,,,,,1.6907668379661228e+18,16.846122802734374,-5.9826610565185545,50.650960540771486,15.730084228515626,1.690766837966192e+18,16.846192138671874,33.16299133300781,73.29181518554688,146.5218505859375,1.6907668379661228e+18,16.846122802734374,-2.0192763071958018,0.7158919392759543,-0.0388387600934899,0.3473595588598376,-0.688945491900078,0.0643221453036499,-1.4668526018671106
1.9,1.690766838016231e+18,16.896230712890624,-14.429279405266048,-13.196093934658766,-1.4772862321871891,1.6907668380199892e+18,16.8999892578125,-1.0627899169921875,-0.2855194091796875,-0.0103240966796875,1.690766838016231e+18,16.896230712890624,2.8027369267919657,9.358188088906406,0.6738220241073146,1.690766838016231e+18,16.896230712890624,0.1067221671342849,0.4378498196601867,-3.493512988090515,1.6907668380199892e+18,16.8999892578125,-0.1124696612358093,0.8125478863716126,-3.089661031961441,1.6907668380006618e+18,16.880661865234377,49.90283357631415,0.9100000263280772,13.5126985511125,49.275532071286406,68.94140398036689,33.75002516967257,4.5823586745242935,3.5814139680858994,-122.8718376246581,4.349999904631556,1.690766838016231e+18,16.896230712890624,2.516161346435547,49.66828536987305,19.003323364257813,1.690766838018186e+18,16.8981861328125,42.45256652832031,72.26738586425782,149.4990997314453,1.690766838016231e+18,16.896230712890624,-3.0264062315732554,0.7927863097083927,-0.1308111220157454,2.8977007521534124,-0.5826522987037442,0.1188449692234762,-1.2715731445881586
1.95,1.6907668380663383e+18,16.94633837890625,-9.675143330023287,-8.741687474252581,2.8961880945579703,1.6907668380700972e+18,16.950097216796873,-0.6810638427734375,0.18009033203125,0.2943878173828125,1.6907668380663383e+18,16.94633837890625,2.6712653573547303,9.4134099761039,0.177308320201626,1.6907668380663383e+18,16.94633837890625,-1.0846620202064514,0.937217992544174,3.972279953956604,1.6907668380700972e+18,16.950097216796873,-1.3548939108848572,0.8784581780433655,4.228601503372192,,,,,,,,,,,,,1.6907668380663383e+18,16.94633837890625,4.69730224609375,50.12540512084961,17.3942626953125,1.69076683807018e+18,16.950180029296877,41.1584228515625,73.14081115722657,147.12401428222657,1.6907668380663383e+18,16.94633837890625,-2.8963720529591575,0.7892777486492321,-0.0967788960648183,1.8285676988681496,-0.5947625054494846,0.1134985570697703,-1.2934787316437528
2.0,1.690766838116446e+18,16.99644599609375,-9.604983167604209,14.592534030967949,13.262183369733693,1.6907668381202048e+18,17.00020478515625,-0.84801025390625,2.76136474609375,1.4369110107421874,1.690766838116446e+18,16.99644599609375,0.7665781843866967,9.637414897035956,-1.4498207687802611,1.690766838116446e+18,16.99644599609375,-3.484809136390686,5.658080196380615,2.4308679342269897,1.6907668381202048e+18,17.00020478515625,-2.9927417993545533,6.246448135375976,2.205784773826599,,,,,,,,,,,,,1.690766838116446e+18,16.99644599609375,-3.7396827697753903,51.977725982666016,10.529327392578123,1.690766838122175e+18,17.002174951171874,33.5222900390625,75.04573364257813,138.9612274169922,1.690766838116446e+18,16.99644599609375,-1.9247109134724656,0.7229915045083717,-0.0147229339873631,-2.1252323428686912,-0.6768952054596972,0.1261769411818124,-1.3866470895626968
2.05,1.690766838166554e+18,17.04655380859375,0.4151022020163014,7.39110078210175,8.531991766084431,1.6907668381703122e+18,17.050312353515626,0.074371337890625,1.9580413818359377,0.6149017333984375,1.690766838166554e+18,17.04655380859375,-0.0380454256013175,9.71418319632232,-1.1582396740403398,1.690766838166554e+18,17.04655380859375,4.271847772598266,3.430062139034271,-2.2474154949188234,1.6907668381703122e+18,17.050312353515626,4.631778526306152,2.392853653430939,-2.611700738221407,,,,,,,,,,,,,1.690766838166554e+18,17.04655380859375,-3.584686279296875,51.797200775146486,11.667660522460938,1.6907668381741716e+18,17.05417177734375,36.818539428710935,73.58202209472657,145.67174377441407,1.690766838166554e+18,17.04655380859375,-1.8460262506034744,0.704391174776179,0.085258991027308,-1.72260237283637,-0.7031571962229126,-0.0017899251946478,-1.444414983101186
2.1,1.6907668382166615e+18,17.096661376953126,-4.1311009734797475,30.77703400366783,-0.9654259882661702,1.6907668382204204e+18,17.100420166015624,-0.42022705078125,4.0186614990234375,-0.076263427734375,1.6907668382166615e+18,17.096661376953126,0.3902208075923473,9.52210825123191,1.9432776405719665,1.6907668382166615e+18,17.096661376953126,6.700502681732178,-9.476428508758543,2.6166600227355956,1.6907668382204204e+18,17.100420166015624,6.585292911529541,-9.731725406646728,3.7622346103191378,,,,,,,,,,,,,1.6907668382166615e+18,17.096661376953126,-3.7539695739746097,45.66973114013672,26.302517700195313,1.6907668382209684e+18,17.100968261718748,32.31737518310547,66.5242919921875,159.66253280639648,1.6907668382166615e+18,17.096661376953126,2.0140507047603307,0.7185513710859086,-0.0901789442226605,1.9606141117382627,-0.6816636432152945,-0.0532438765680533,-1.34561492930146
2.15,1.6907668382667692e+18,17.146769189453124,20.999315732928512,9.376033892911671,-13.73760635298908,1.6907668382705275e+18,17.150527734375,2.3803924560546874,1.306689453125,-1.134088134765625,1.6907668382667692e+18,17.146769189453124,-3.08922107102558,7.869370620768666,4.784788403137922,1.6907668382667692e+18,17.146769189453124,4.262687158584595,6.310950469970703,7.309487342834473,1.6907668382705275e+18,17.150527734375,4.136853551864624,7.513664817810058,6.552690994739533,,,,,,,,,,,,,1.6907668382667692e+18,17.146769189453124,-21.45372543334961,29.903156280517575,37.889486694335936,1.6907668382677652e+18,17.1477650390625,16.79430236816406,51.14689331054687,169.55951538085938,1.6907668382667692e+18,17.146769189453124,1.1712067895800229,0.5622810693994122,-0.2537752104314946,0.9895832488166014,-0.7694145350639806,-0.1306113833766821,-0.9404703331057462
2.2,1.6907668383168768e+18,17.196876757812497,12.193735106149315,-2.1792764684498307,-15.015628276571036,1.6907668383206354e+18,17.200635400390627,0.514373779296875,0.4353240966796875,-0.691766357421875,1.6907668383168768e+18,17.196876757812497,-2.3535366768734156,6.7070110830128185,6.752041363446116,1.6907668383168768e+18,17.196876757812497,1.6543854594230651,-0.4096566379070282,-2.3405639052391054,1.6907668383206354e+18,17.200635400390627,1.4242854028940202,-0.5431975543498992,-2.512963151931763,,,,,,,,,,,,,1.6907668383168768e+18,17.196876757812497,-14.876163101196289,21.610076904296875,46.87144165039062,1.6907668383197622e+18,17.19976220703125,24.536337280273436,43.35462951660156,178.23067626953124,1.6907668383168768e+18,17.196876757812497,1.1706315976273614,0.5475566424360154,-0.2411454471853299,1.2350937286054062,-0.7492875789801191,-0.2829972759157667,-0.7531939039194591
2.25,1.6907668383669844e+18,17.246984326171876,-0.1878171269024163,-7.196782675807475,-17.02539760556936,1.6907668383707433e+18,17.250743359375,-0.2063720703125,-0.0563629150390625,-1.102105712890625,1.6907668383669844e+18,17.246984326171876,-1.45837606496647,7.004108946493268,6.690017161209584,1.6907668383669844e+18,17.246984326171876,-2.3820292592048644,1.8130991816520692,-1.5668619871139526,1.6907668383707433e+18,17.250743359375,-2.723884117603302,1.8570430040359496,-1.5026325225830075,,,,,,,,,,,,,1.6907668383669844e+18,17.246984326171876,-11.699123001098632,22.10475082397461,47.579779052734374,1.6907668383717596e+18,17.251759570312498,28.4790283203125,46.40038146972656,177.64951171875,1.6907668383669844e+18,17.246984326171876,1.3206808818144544,0.5928478708997816,-0.2474328874919349,1.357843355816274,-0.7160651622145183,-0.2718822688132942,-0.7962665087916208
2.3,1.6907668384170924e+18,17.297092333984374,-0.2836593472168967,-6.13565753626585,-14.908747279998064,1.6907668384208507e+18,17.30085078125,-0.0893585205078125,0.499908447265625,-1.084527587890625,1.6907668384170924e+18,17.297092333984374,-0.5164228153826202,8.339909456018209,5.062054783301651,1.6907668384170924e+18,17.297092333984374,-5.751016616821289,-3.3394225180149077,-3.865831398963928,1.6907668384208507e+18,17.30085078125,-5.950045108795166,-3.8631518721580504,-4.258428955078125,,,,,,,,,,,,,1.6907668384170924e+18,17.297092333984374,-7.482235717773437,31.44480285644531,42.46277770996094,1.6907668384237532e+18,17.303753125,31.242889404296875,57.81261291503906,169.96070251464843,1.6907668384170924e+18,17.297092333984374,1.4563966906239505,0.6577915180926294,-0.183922409910661,1.4736463655006682,-0.7016920810867843,-0.1951706670015533,-1.0227566432619573
2.35,1.6907668384671995e+18,17.34719990234375,-14.929765050489902,26.223783138149976,-13.777764760376217,1.6907668384709588e+18,17.35095888671875,-1.45699462890625,4.3622589111328125,-1.046820068359375,1.6907668384671995e+18,17.34719990234375,0.6994385169130004,9.556633270455002,1.5491706976482271,1.6907668384671995e+18,17.34719990234375,-8.704843044281006,7.87414026260376,-0.8779761850833893,1.6907668384709588e+18,17.35095888671875,-8.630197334289551,9.50697045326233,-0.1447126865386963,,,,,,,,,,,,,1.6907668384671995e+18,17.34719990234375,-3.757917785644531,45.22126846313476,26.923947143554688,1.6907668384705482e+18,17.350548217773436,36.544471740722656,70.22833633422852,153.86366271972656,1.6907668384671995e+18,17.34719990234375,1.1862151083667878,0.7309152343223073,-0.0805073747599875,1.1144166517144545,-0.6703785141526123,-0.0305188524412779,-1.3677162635601412
2.4,1.690766838517308e+18,17.397307958984374,0.6764353264912962,33.622353291671274,2.805024803920388,1.690766838521067e+18,17.401067041015626,0.62855224609375,3.7248748779296874,0.29078369140625,1.690766838517308e+18,17.397307958984374,-1.1093965280945226,9.536664015328885,-1.62788539637506,1.690766838517308e+18,17.397307958984374,-2.196466885507107,6.217453098297119,6.005840492248535,1.690766838521067e+18,17.401067041015626,-1.5022452116012572,4.390127420425415,5.442965817451477,,,,,,,,,,,,,1.690766838517308e+18,17.397307958984374,-1.9874549865722655,51.89057388305664,10.338772583007811,1.6907668385173463e+18,17.397346240234377,35.855953979492185,74.6911407470703,140.11219177246093,1.690766838517308e+18,17.397307958984374,-1.6167560066120614,0.6567881303783907,0.2355199262286353,-1.135495890479433,-0.7055091797419358,-0.0985520836696928,-1.3497651938253894
2.45,1.690766838567416e+18,17.447415966796875,31.4551205460453,-1.9451487974321844,8.594833714444636,1.6907668385711744e+18,17.451174365234372,2.4324615478515623,0.54307861328125,0.58272705078125,1.690766838567416e+18,17.447415966796875,-1.1460832846222444,9.5002022412765,-1.9109410274647176,1.690766838567416e+18,17.447415966796875,2.5254335403442383,-13.09456615447998,-4.478783226013183,1.6907668385711744e+18,17.451174365234372,2.624602031707764,-13.355271530151366,-4.471070146560669,,,,,,,,,,,,,1.690766838567416e+18,17.447415966796875,-7.767588806152344,51.99262161254883,8.233358764648438,1.6907668385693455e+18,17.449345410156248,31.717572021484376,74.68580627441406,139.16084899902344,1.690766838567416e+18,17.447415966796875,-1.3167181250227389,0.6611661032117692,0.145864972575844,-1.116274084099034,-0.7286352685528777,0.0065709609665824,-1.326479138019215
2.5,1.6907668386175237e+18,17.4975234375,-10.787479396781473,-10.40835005278945,0.7897983931729942,1.6907668386212823e+18,17.501282373046877,-1.1015350341796877,-0.2205291748046875,0.0029510498046875,1.6907668386175237e+18,17.4975234375,1.7385944852557778,9.610093057963848,-0.3348102403821237,1.6907668386175237e+18,17.4975234375,3.207153654098511,-6.170721912384034,-3.8606185913085938,1.6907668386212823e+18,17.501282373046877,3.0128940105438233,-5.3235793828964235,-3.748106002807617,,,,,,,,,,,,,1.6907668386175237e+18,17.4975234375,-2.4874366760253905,51.590657806396486,12.401504516601562,1.6907668386213432e+18,17.501343359375,37.7177490234375,73.75202026367188,145.05868225097657,1.6907668386175237e+18,17.4975234375,-2.542925483779616,0.7544524478046135,-0.0914785794724017,-0.3573894593180299,-0.6326277615928242,0.1377891961233666,-1.3738665813354456
2.55,1.690766838667631e+18,17.547631201171875,-11.406653819141386,-10.983494691608549,-1.4061470905876905,1.69076683867139e+18,17.551389990234377,-0.7526031494140625,-0.090655517578125,-0.0209381103515625,1.690766838667631e+18,17.547631201171875,3.244610399405956,9.237103210414052,0.4650759813468157,1.690766838667631e+18,17.547631201171875,-0.7423621535301208,-0.1181664533913135,-1.7615579128265382,1.69076683867139e+18,17.551389990234377,-0.8985716164112091,0.0484887063503265,-1.2869572401046754,,,,,,,,,,,,,1.690766838667631e+18,17.547631201171875,3.7833320617675783,50.2536735534668,16.786111450195314,1.6907668386733356e+18,17.553335595703125,43.52640075683594,72.91775817871094,146.98192138671874,1.690766838667631e+18,17.547631201171875,-2.8562081761390266,0.8002468252596817,-0.1402496777808453,2.9957850867200686,-0.5610152516088187,0.1578600340344846,-1.22945437842971
2.6,1.690766838717739e+18,17.597738916015626,-8.450212711350918,-6.887484788349866,3.10700453577131,1.6907668387214976e+18,17.60149775390625,-0.648394775390625,0.5593963623046875,0.38829345703125,1.690766838717739e+18,17.597738916015626,2.612969527991563,9.426835157961843,-0.3065365896110515,1.690766838717739e+18,17.597738916015626,-2.3754833221435545,1.9189424753189088,3.5037914752960204,1.6907668387214976e+18,17.60149775390625,-2.68798885345459,2.0796285390853884,3.5008360862731935,,,,,,,,,,,,,1.690766838717739e+18,17.597738916015626,2.423411560058594,51.29216842651367,13.589236450195312,1.6907668387201298e+18,17.600129699707033,39.6340217590332,74.24021911621094,143.29381561279297,1.690766838717739e+18,17.597738916015626,-2.6021244987490304,0.7776428760562292,-0.1081897532165208,-1.7425680963937182,-0.5952226791216038,0.1679690908443938,-1.2951695073012304
2.65,1.690766838767847e+18,17.64784658203125,-8.937989214031695,18.491371023023127,19.131822305202483,1.6907668387716055e+18,17.65160546875,-0.642742919921875,2.7546966552734373,1.738836669921875,1.690766838767847e+18,17.64784658203125,0.8394228110765665,9.586389993910789,-1.7981614159202577,1.690766838767847e+18,17.64784658203125,-0.1265318155288696,6.852798175811768,2.3008479356765745,1.6907668387716055e+18,17.65160546875,0.5642413377761841,7.035599708557129,2.109574830532074,,,,,,,,,,,,,1.690766838767847e+18,17.64784658203125,-3.937077331542969,52.51648635864258,7.097653198242187,1.6907668387669253e+18,17.646925195312498,34.27809448242188,75.1814971923828,137.4648864746094,1.690766838767847e+18,17.64784658203125,-1.7776607289821125,0.7218003144980523,-0.0045463065501403,-1.9874167248950485,-0.6749261804392213,0.1424143705601036,-1.359553908543715
2.7,1.6907668388179543e+18,17.69795439453125,0.6298752938205003,6.66298349142909,4.58821731567204,1.6907668388217132e+18,17.70171298828125,0.046832275390625,2.154840087890625,0.3696533203125,1.6907668388179543e+18,17.69795439453125,0.3409135401921689,9.763754393507838,-0.3725667906989809,1.6907668388179543e+18,17.69795439453125,4.8401895523071286,-0.5669004321098328,-2.1964414775371552,1.6907668388217132e+18,17.70171298828125,4.974588680267334,-1.5462824344635009,-2.358617889881134,,,,,,,,,,,,,1.6907668388179543e+18,17.69795439453125,-3.5050086975097656,50.51974258422852,15.758419799804688,1.690766838818919e+18,17.698918994140627,35.355044555664065,72.88005676269532,147.3537384033203,1.6907668388179543e+18,17.69795439453125,0.0310593743701208,0.7187592019606612,0.0192322308824474,0.0474900385381754,-0.693737472586456,0.0076172018561331,-1.482625802225996
2.75,1.690766838868062e+18,17.74806201171875,-5.286562451511025,32.022159152202605,-2.147839595274329,1.6907668388718208e+18,17.751820751953126,-0.559442138671875,4.044403076171875,-0.0763153076171875,1.690766838868062e+18,17.74806201171875,-0.2137866544897947,9.374155824080107,2.4874570715413986,1.690766838868062e+18,17.74806201171875,5.74039306640625,-8.28155517578125,5.88966703414917,1.6907668388718208e+18,17.751820751953126,5.625112247467041,-8.051675701141358,6.928361188806593,,,,,,,,,,,,,1.690766838868062e+18,17.74806201171875,-7.2674095153808596,45.42488098144531,25.722271728515626,1.6907668388709138e+18,17.7509138671875,25.44890441894531,64.81208190917968,158.97059020996093,1.690766838868062e+18,17.74806201171875,1.8894167266208128,0.698006388741385,-0.1833744596122873,1.6291770222673123,-0.6865640041888821,-0.0027030472118192,-1.2870020216884603
2.8,1.6907668389181696e+18,17.798169580078124,21.56123649922848,7.434419465537667,-12.965486488269567,1.6907668389219282e+18,17.801928369140626,2.578656005859375,1.056329345703125,-1.0409149169921874,1.6907668389181696e+18,17.798169580078124,-3.3415413721117373,7.523744697867035,5.1765803325045106,1.6907668389181696e+18,17.798169580078124,4.029645776748657,8.517577362060546,5.972679495811462,1.6907668389219282e+18,17.801928369140626,3.890857553482056,8.578555083274841,5.151440620422363,,,,,,,,,,,,,1.6907668389181696e+18,17.798169580078124,-23.86176643371582,29.61232986450195,36.46043395996094,1.6907668389229071e+18,17.80290693359375,16.189498901367188,47.804962158203125,171.3294708251953,1.6907668389181696e+18,17.798169580078124,1.1882017334782016,0.5478929070511418,-0.2804981944961217,0.9830836005382906,-0.7686181969148838,-0.1430216422810181,-0.8801228742875005
2.85,1.6907668389682775e+18,17.848277294921875,11.876321015349031,-2.5532764867293833,-15.577434242771863,1.690766838972036e+18,17.85203603515625,0.265838623046875,0.344183349609375,-0.7896331787109375,1.6907668389682775e+18,17.848277294921875,-2.611957603696138,6.434247099608778,6.922214974756241,1.6907668389682775e+18,17.848277294921875,1.2548912942409516,-0.364181911945343,-1.9834137380123136,1.690766838972036e+18,17.85203603515625,0.9726680219173433,-0.3343767844140529,-2.1458825349807737,,,,,,,,,,,,,1.6907668389682775e+18,17.848277294921875,-17.115399169921876,19.6599983215332,46.6710693359375,1.6907668389697037e+18,17.84970367431641,21.642009735107425,41.63782501220703,177.62142181396484,1.6907668389682775e+18,17.848277294921875,1.207818660059628,0.5396891016921959,-0.273385935314839,1.2098797053431598,-0.7470770540220164,-0.2747395897325783,-0.7156939584631192
2.9,1.690766839018385e+18,17.89838505859375,-0.4038796082365511,-7.912580933846234,-17.42961810697198,1.690766839022144e+18,17.902143994140623,-0.2505126953125,-0.129931640625,-1.058544921875,1.690766839018385e+18,17.89838505859375,-1.6407687118282168,6.943437912431359,6.706707248534559,1.690766839018385e+18,17.89838505859375,-2.992102551460266,2.1265716314315797,-1.3592600107192994,1.690766839022144e+18,17.902143994140623,-3.2594008922576903,2.073615336418152,-1.2882190465927124,1.6907668390006423e+18,17.880642333984376,47.35681306757033,0.7300000192008046,10.024357017446764,49.27557487490521,66.39538347162306,30.23439781242967,4.582358834754054,3.5814137630746186,-122.87181382917962,4.349999904631556,1.690766839018385e+18,17.89838505859375,-13.203305435180663,22.064002990722656,46.79869995117187,1.6907668390164987e+18,17.896498779296873,25.86712646484375,45.21251220703125,177.28635864257814,1.690766839018385e+18,17.89838505859375,1.3246324163081415,0.5883304330057045,-0.2589521054319159,1.3327343829561031,-0.7183777555438297,-0.2644260543663769,-0.787805079845293
2.95,1.6907668390684928e+18,17.948492822265628,-0.1800336188063024,-8.64459090649545,-13.091872746492625,1.6907668390722514e+18,17.952251318359377,-0.06138916015625,0.112066650390625,-0.753594970703125,1.6907668390684928e+18,17.948492822265628,-0.8523162387584149,8.258196101545096,5.177060575689078,1.6907668390684928e+18,17.948492822265628,-4.392907762527466,-2.8331900000572205,-2.6972763538360596,1.6907668390722514e+18,17.952251318359377,-4.361128807067871,-3.390429812669754,-2.9830752849578857,,,,,,,,,,,,,1.6907668390684928e+18,17.948492822265628,-9.665681838989258,31.81377182006836,41.46170654296875,1.6907668390684943e+18,17.948494189453122,28.9118896484375,55.30347900390625,171.41067810058593,1.6907668390684928e+18,17.948492822265628,1.4012570506028557,0.6451158185032669,-0.1922956294035642,1.408034411945687,-0.7116223839480598,-0.1965810951749884,-1.0047908618654902
3.0,1.6907668391186004e+18,17.998600390625,-10.017751936317309,13.559076299839614,-14.450603699036837,1.6907668391223596e+18,18.002359375,-1.2334808349609374,3.1015289306640623,-1.2364990234375,1.6907668391186004e+18,17.998600390625,-0.03948104104514,9.36699028713882,2.659279779845849,1.6907668391186004e+18,17.998600390625,-7.713242340087891,3.396858549118042,-1.989769184589386,1.6907668391223596e+18,18.002359375,-8.171199417114257,5.097803473472595,-1.4929686069488526,,,,,,,,,,,,,1.6907668391186004e+18,17.998600390625,-9.628876495361329,42.072994995117185,30.793124389648437,1.69076683912049e+18,18.00048994140625,30.27178649902344,66.6123779296875,158.5304382324219,1.6907668391186004e+18,17.998600390625,1.7871572626375,0.7037867048603221,-0.1550191198666474,1.6209639539811285,-0.6888114341778631,-0.0392188661669605,-1.2919748208878417
3.05,1.690766839168708e+18,18.048707958984373,-2.0968850685846805,45.88289866528987,0.0716705669820308,1.6907668391724672e+18,18.052467041015625,-0.1416290283203125,5.286062622070313,0.0680145263671875,1.690766839168708e+18,18.048707958984373,-0.509891680597805,9.642349197019934,-1.3693577906542085,1.690766839168708e+18,18.048707958984373,-5.345153367519378,11.853289604187012,3.92791211605072,1.6907668391724672e+18,18.052467041015625,-4.574320191144944,10.647599172592162,4.669976210594177,,,,,,,,,,,,,1.690766839168708e+18,18.048707958984373,-2.304534149169922,50.66057968139648,13.915121459960938,1.6907668391724856e+18,18.052485498046877,35.92885131835938,74.4529022216797,140.43805236816405,1.690766839168708e+18,18.048707958984373,-1.9453965410525011,0.6828084289586481,0.1846761208242941,-1.5691995508558674,-0.6953678517936382,-0.0772973927048768,-1.409658119110997
3.1,1.690766839218816e+18,18.098816064453125,30.21743986829757,5.875875316414238,7.682023317948132,1.6907668392225743e+18,18.102574365234375,3.0424957275390625,1.1675384521484375,0.504193115234375,1.690766839218816e+18,18.098816064453125,-1.740985501271635,9.31623145837784,-2.3451382663623987,1.690766839218816e+18,18.098816064453125,1.9178387627005575,-13.261725616455076,-0.9016592025756835,1.6907668392225743e+18,18.102574365234375,2.1499894082546236,-14.9031587600708,-2.481493663787842,,,,,,,,,,,,,1.690766839218816e+18,18.098816064453125,-9.179353332519533,51.73858108520508,5.939266967773437,1.690766839219281e+18,18.099280761718752,28.42811584472656,74.29254150390625,135.96113967895508,1.690766839218816e+18,18.098816064453125,-1.2622020379087018,0.6369398015901355,0.1965532228197773,-0.9731772576885664,-0.7374989216899026,-0.0029594559556122,-1.256560373512118
3.15,1.6907668392689234e+18,18.148923388671875,-4.92295979170084,-7.05122176151514,1.372167835799735,1.6907668392726822e+18,18.152682324218752,-0.694049072265625,0.0281463623046875,-0.0198211669921875,1.6907668392689234e+18,18.148923388671875,1.217303956065569,9.622384033547045,-1.0790577404809325,1.6907668392689234e+18,18.148923388671875,3.752564430236816,-10.51561164855957,-2.9261054754257203,1.6907668392726822e+18,18.152682324218752,3.740359878540039,-9.755560493469238,-2.7825633764266966,,,,,,,,,,,,,1.6907668392689234e+18,18.148923388671875,-5.790283966064453,52.02379684448242,7.854644775390625,1.6907668392660746e+18,18.146074658203126,33.12825927734375,74.64275512695312,138.89278869628907,1.6907668392689234e+18,18.148923388671875,-2.0578026273959775,0.7276318203293688,-0.0801723129321074,-2.426267784104658,-0.652154483223151,0.1769960542087106,-1.3769895459885533
3.2,1.6907668393190313e+18,18.199031103515622,-13.7685127140975,-13.920848003282549,-4.20775552480638,1.69076683932279e+18,18.202789990234372,-0.947442626953125,-0.4026702880859375,-0.3526275634765625,1.6907668393190313e+18,18.199031103515622,2.5533835419134796,9.447521153829095,0.5035663751499727,1.6907668393190313e+18,18.199031103515622,0.6034134268760681,1.905114085972309,-2.2901226758956907,1.69076683932279e+18,18.202789990234372,0.2561097323894501,2.549670195579529,-2.3091928243637083,,,,,,,,,,,,,1.6907668393190313e+18,18.199031103515622,-1.790484619140625,50.97014236450195,13.757562255859376,1.6907668393180692e+18,18.198069140625,37.2530029296875,73.55657043457032,144.60704956054687,1.6907668393190313e+18,18.199031103515622,-2.7632004010864013,0.7660232163920289,-0.1903795779425267,2.9438569720929104,-0.5772237454292429,0.2076884209573087,-1.3015723878148129
3.25,1.690766839369139e+18,18.249139013671876,-8.641430513542293,-10.825687459205389,1.32863476800099,1.6907668393728978e+18,18.252897802734378,-0.5143585205078125,-0.070989990234375,0.1630279541015625,1.690766839369139e+18,18.249139013671876,3.08068766518414,9.2859165165174,-0.5132894214042161,1.690766839369139e+18,18.249139013671876,-1.846521806716919,2.5682120442390444,1.2071515053510666,1.6907668393728978e+18,18.252897802734378,-1.9441917657852172,2.1187284111976625,1.5246105194091797,,,,,,,,,,,,,1.690766839369139e+18,18.249139013671876,3.38106689453125,51.52531356811524,11.040487670898438,1.6907668393700664e+18,18.2500666015625,41.99867553710938,74.24405517578126,141.21856384277345,1.690766839369139e+18,18.249139013671876,-2.560240189287741,0.7895255001522964,-0.1006104266418352,-1.7137226445006426,-0.5763585214911094,0.1834443863698362,-1.2439631082660096
