seconds_elapsed_rounded,accelerometer_time,accelerometer_seconds_elapsed,accelerometer_z,accelerometer_y,accelerometer_x,accelerometeruncalibrated_time,accelerometeruncalibrated_seconds_elapsed,accelerometeruncalibrated_z,accelerometeruncalibrated_y,accelerometeruncalibrated_x,gravity_time,gravity_seconds_elapsed,gravity_z,gravity_y,gravity_x,gyroscope_time,gyroscope_seconds_elapsed,gyroscope_z,gyroscope_y,gyroscope_x,gyroscopeuncalibrated_time,gyroscopeuncalibrated_seconds_elapsed,gyroscopeuncalibrated_z,gyroscopeuncalibrated_y,gyroscopeuncalibrated_x,location_time,location_seconds_elapsed,location_altitude,location_speedAccuracy,location_bearingAccuracy,location_latitude,location_altitudeAboveMeanSeaLevel,location_bearing,location_horizontalAccuracy,location_verticalAccuracy,location_longitude,location_speed,magnetometer_time,magnetometer_seconds_elapsed,magnetometer_z,magnetometer_y,magnetometer_x,magnetometeruncalibrated_time,magnetometeruncalibrated_seconds_elapsed,magnetometeruncalibrated_z,magnetometeruncalibrated_y,magnetometeruncalibrated_x,orientation_time,orientation_seconds_elapsed,orientation_yaw,orientation_qx,orientation_qz,orientation_roll,orientation_qw,orientation_qy,orientation_pitch
0.0,1.690766821139975e+18,0.019974853515625,0.9626911857008932,-0.234106569777429,-0.5921119064241648,1.6907668211387226e+18,0.0187225341796875,-0.8534164428710938,-0.29135894775390625,0.06036376953125,1.690766821139975e+18,0.019974853515625,-9.32833047697246,-2.776152812796831,1.2023339814912528,1.690766821139975e+18,0.019974853515625,0.1076912432909011,1.436220645904541,-0.7469619512557983,1.6907668211387226e+18,0.0187225341796875,0.062194930389523506,1.3869104981422424,-0.7645812928676605,,,,,,,,,,,,,1.690766821139975e+18,0.019974853515625,-52.65943145751953,3.172534942626953,-1.1054229736328125,1.6907668211362179e+18,0.0162177734375,-14.083816528320312,25.80987548828125,129.48175048828125,1.690766821139975e+18,0.019974853515625,-2.258633919973746,-0.1182933317382057,0.8890756839167423,0.1281838727789123,-0.4302985580714817,0.1019518899265999,0.2870131182680727
0.05,1.6907668211700393e+18,0.050039160156250005,0.961058031541109,-0.0318727511486411,-1.1233000607474148,1.6907668211737976e+18,0.053797705078125,-0.8470489501953125,-0.2845672607421875,0.056884765625,1.6907668211700393e+18,0.050039160156250005,-9.301019977625014,-2.647627905883789,1.6175829642605781,1.6907668211700393e+18,0.050039160156250005,0.4167983323335648,1.491457748413086,-0.35495666712522506,1.6907668211737976e+18,0.053797705078125,0.4301140964031219,1.4626150369644164,-0.30540726035833354,,,,,,,,,,,,,1.6907668211700393e+18,0.050039160156250005,-52.24280319213867,3.265255355834961,0.9438262939453125,1.6907668211674179e+18,0.047417919921875,-13.588229370117187,25.959005737304686,132.02193298339844,1.6907668211700393e+18,0.050039160156250005,-2.246789408428844,-0.13550086626525462,0.8847454383929735,0.17217048037149124,-0.4375198918089371,0.08551561125915652,0.2733776609732922
0.1,1.6907668212201467e+18,0.100146728515625,2.508628249803185,-0.8369917991504072,-1.7475771253955361,1.6907668212239058e+18,0.10390556640625,-0.6433319091796875,-0.373016357421875,-0.000982666015625,1.6907668212201467e+18,0.100146728515625,-9.2099686521554,-2.6345405776780844,2.097100640257597,1.6907668212201467e+18,0.100146728515625,-0.23648642003536224,0.6211313962936401,0.07591274753212929,1.6907668212239058e+18,0.10390556640625,-0.3517454534769058,0.5135827273130417,0.0699900574982166,,,,,,,,,,,,,1.6907668212201467e+18,0.100146728515625,-52.136923217773436,3.4548789978027346,4.280892944335937,1.6907668212194176e+18,0.0994177734375,-13.539385986328124,26.079379272460937,135.03119812011718,1.6907668212201467e+18,0.100146728515625,-2.2338293827051965,-0.15854406986019415,0.8782273517846535,0.22388427191826815,-0.44529868217469987,0.07256459623653255,0.27198976648664897
0.15000000000000002,1.690766821270254e+18,0.150254150390625,2.981706131237149,-0.06924392435699707,-3.314733386232853,1.6907668212740132e+18,0.154013134765625,-0.6436553955078125,-0.232525634765625,-0.079571533203125,1.690766821270254e+18,0.150254150390625,-9.257746419278979,-2.535647248084247,1.9975333569249512,1.690766821270254e+18,0.150254150390625,-1.152734351158142,-1.7167944073677064,-0.10157509595155712,1.6907668212740132e+18,0.154013134765625,-1.102520227432251,-1.8989158511161803,-0.11999596729874606,,,,,,,,,,,,,1.690766821270254e+18,0.150254150390625,-52.105220794677734,3.7087886810302733,3.0439056396484374,1.6907668212714158e+18,0.1514158203125,-13.518447875976562,26.36845703125,133.32119750976562,1.690766821270254e+18,0.150254150390625,-2.2783335833813787,-0.14972260514312435,0.8895570687961938,0.2125373901940851,-0.42496553777692336,0.07367526029165675,0.2615384847493213
0.2,1.6907668213203622e+18,0.20036215820312497,2.4766017109453675,-0.5597287507614492,-1.3130446485810725,1.6907668213241206e+18,0.204120703125,-0.7965118408203125,-0.2539215087890625,-0.172698974609375,1.6907668213203622e+18,0.20036215820312497,-9.491223400529027,-2.260820428479314,0.8850212504399009,1.6907668213203622e+18,0.20036215820312497,-0.6333863079547882,-3.188642883300781,-0.8175559282302857,1.6907668213241206e+18,0.204120703125,-0.6536465793848037,-3.2552774429321287,-0.8157832860946655,,,,,,,,,,,,,1.6907668213203622e+18,0.20036215820312497,-51.83307800292969,4.552005004882813,-2.1720611572265627,1.6907668213234143e+18,0.203414404296875,-12.977593994140625,27.659829711914064,126.11449890136718,1.6907668213203622e+18,0.20036215820312497,-2.317149306950298,-0.08875430013253828,0.9065756373229569,0.09312063153431335,-0.4024742619506053,0.08758864092727861,0.2326552081593812
0.25,1.69076682137047e+18,0.25046982421874997,1.6790386605072019,1.504771379368752,-4.537088016937375,1.6907668213742282e+18,0.2542283203125,-0.667498779296875,-0.0775726318359375,-0.5555511474609375,1.69076682137047e+18,0.25046982421874997,-9.53492307533264,-2.0866521653489767,-0.774358634702675,1.69076682137047e+18,0.25046982421874997,-0.6366351842880249,-4.192894697189331,0.27911868691444397,1.6907668213742282e+18,0.2542283203125,-0.629252028465271,-4.27607946395874,0.31073289886116984,,,,,,,,,,,,,1.69076682137047e+18,0.25046982421874997,-50.282884216308595,5.407513809204102,-11.394859313964844,1.6907668213702134e+18,0.25021343994140627,-11.430122375488281,27.997806549072266,117.33709716796875,1.69076682137047e+18,0.25046982421874997,-2.3518654315978345,-0.0038663437971537596,0.9182932599609929,-0.08111195322058312,-0.3779202243364498,0.11403256657684087,0.21442242435566258
0.30000000000000004,1.6907668214205773e+18,0.3005771484375,6.250455764930248,2.4956993854817746,-1.8776629980149864,1.6907668214243361e+18,0.304336083984375,-0.265826416015625,0.0911865234375,-0.4367401123046875,1.6907668214205773e+18,0.3005771484375,-8.979546265396475,-2.3128721904341876,-3.083033088492602,1.6907668214205773e+18,0.3005771484375,-0.3644594132900238,-6.1304612159729,0.5574171155691147,1.6907668214243361e+18,0.304336083984375,-0.27316522672772403,-6.278768920898438,0.6346677631139755,,,,,,,,,,,,,1.6907668214205773e+18,0.3005771484375,-45.7676513671875,4.165827941894531,-23.648837280273437,1.6907668214170117e+18,0.29701157226562497,-6.655999755859375,26.68248291015625,105.85113525390625,1.6907668214205773e+18,0.3005771484375,-2.3793682726895,0.10815768688724825,0.9155608535421333,-0.33092971419834993,-0.34562736651761705,0.1693064082429403,0.2380998702924546
0.35000000000000003,1.690766821470685e+18,0.350685009765625,6.1658452861630915,6.451095475461483,5.130657896310985,1.690766821474444e+18,0.354443994140625,-0.0283966064453125,0.4604034423828125,-0.056549072265625,1.690766821470685e+18,0.350685009765625,-7.175120645288824,-2.5862550948411225,-6.0552383717086915,1.690766821470685e+18,0.350685009765625,1.7879864692687988,-7.95548791885376,1.674007773399353,1.690766821474444e+18,0.354443994140625,1.9963060855865478,-8.09300422668457,1.7333017349243165,,,,,,,,,,,,,1.690766821470685e+18,0.350685009765625,-34.1577651977539,3.1616889953613283,-37.92193603515625,1.69076682146901e+18,0.349010009765625,5.622036743164062,25.80458984375,91.57528076171874,1.690766821470685e+18,0.350685009765625,-2.3265286307634865,0.26202940072639713,0.871242123631444,-0.7010267862675386,-0.3260021185484947,0.2500286243793656,0.26688393081112954
0.4,1.690766821520793e+18,0.40079316406250004,3.679065237100422,9.950700860442518,8.475515845624804,1.6907668215245514e+18,0.40455146484375,-0.0294921875,0.8969482421875,-0.0945892333984375,1.690766821520793e+18,0.40079316406250004,-3.5226937950409947,-1.8737113377797603,-8.829139781543017,1.690766821520793e+18,0.40079316406250004,4.703946113586426,-9.580127906799316,3.0767346382141114,1.6907668215245514e+18,0.40455146484375,4.918412685394287,-9.504253578186034,3.223211669921875,,,,,,,,,,,,,1.690766821520793e+18,0.40079316406250004,-14.353695297241211,7.909501647949218,-47.98872528076172,1.6907668215210092e+18,0.40100903320312503,26.01140441894531,31.219366455078124,82.10198059082032,1.690766821520793e+18,0.40079316406250004,-2.1477295449406566,0.4501212332646555,0.7472425628131257,-1.1898203713773294,-0.3443786938002073,0.33775901656613616,0.19246005461143
0.45,1.6907668215709005e+18,0.45090048828124996,2.660135169179216,8.936575138676165,-0.964639163350463,1.6907668215746593e+18,0.45465937500000003,0.31409912109375,0.9332794189453125,-1.328948974609375,1.6907668215709005e+18,0.45090048828124996,0.052854244750700885,0.6153614967969026,-9.736214527770876,1.6907668215709005e+18,0.45090048828124996,6.324530029296875,-3.303911876678467,1.4139271978288888,1.6907668215746593e+18,0.45465937500000003,6.347569274902344,-2.6084011852741242,1.023406058549881,,,,,,,,,,,,,1.6907668215709005e+18,0.45090048828124996,1.7991012573242187,19.418994903564453,-47.37499084472656,1.6907668215730053e+18,0.45300537109374994,41.694760131835935,45.00579833984375,84.62632446289062,1.6907668215709005e+18,0.45090048828124996,-1.9654354301719021,0.6009101825562129,0.572667966924254,-1.5764121901761152,-0.4093117523866008,0.3750836878137352,-0.06304425272652082
0.5,1.6907668216210081e+18,0.5010082031249999,-2.923445563156977,4.8483638095653045,-8.545514563097953,1.6907668216247672e+18,0.5047671874999999,-0.39349365234375,0.882891845703125,-1.91348876953125,1.6907668216210081e+18,0.5010082031249999,0.3882554038839414,3.595806056037843,-9.0755401910609,1.6907668216210081e+18,0.5010082031249999,6.118479633331299,-0.029379767179489136,-0.6663353741168976,1.6907668216247672e+18,0.5047671874999999,6.025615882873535,-0.3098314180970192,-0.46717208102345464,,,,,,,,,,,,,1.6907668216210081e+18,0.5010082031249999,4.539684295654297,32.407518005371095,-39.56559295654297,1.6907668216198008e+18,0.49980084228515625,43.194705963134766,57.48569869995117,92.7163314819336,1.6907668216210081e+18,0.5010082031249999,-1.9960526959239928,0.6654436284599546,0.4974388416214527,-1.613693605460135,-0.48172527465859316,0.2751878242648304,-0.37690930821179647
0.55,1.6907668216711158e+18,0.551115771484375,-5.725913536814451,0.1914928781926631,-19.420451498640777,1.6907668216748744e+18,0.554874560546875,-0.401629638671875,0.530230712890625,-2.7818145751953125,1.6907668216711158e+18,0.551115771484375,0.8059191415643692,5.795298272494674,-7.851271134263277,1.6907668216711158e+18,0.551115771484375,3.5851909160614013,-2.807293653488159,2.7628324747085573,1.6907668216748744e+18,0.554874560546875,3.393688201904297,-2.754798936843872,2.9108289241790772,1.6907668216807032e+18,0.560703125,58.03377914428711,-1.0,-1.0,49.27497159593398,77.07234954833984,-1.0,54.0,56.18330764770508,-122.8718456688916,-1.0,1.6907668216711158e+18,0.551115771484375,5.034261322021484,42.25711364746094,-29.13964385986328,1.6907668216665974e+18,0.546597314453125,43.563906860351565,65.47411804199218,102.21782836914062,1.6907668216711158e+18,0.551115771484375,-1.9462994753375278,0.7004030278853696,0.3955569841661375,-1.6736725719103276,-0.5486403069883832,0.22474333498325588,-0.6332970877807462
0.6000000000000001,1.6907668217212237e+18,0.60122353515625,-0.4032303359345345,-3.752862353169322,-16.672408811136485,1.6907668217199713e+18,0.5999713134765625,0.02417755126953125,0.2905426025390625,-2.4153900146484375,1.6907668217212237e+18,0.60122353515625,0.5063304385157209,6.8821137336099145,-6.958690426620841,1.6907668217212237e+18,0.60122353515625,1.5697930812835694,-0.9320253551006317,3.464562702178955,1.6907668217199713e+18,0.5999713134765625,1.667410284280777,-1.0156964100897312,3.5095606446266174,,,,,,,,,,,,,1.6907668217212237e+18,0.60122353515625,0.5669548034667969,46.586693572998044,-22.428443908691406,1.6907668217185938e+18,0.59859375,38.613775634765624,69.41465454101562,108.54772033691407,1.6907668217212237e+18,0.60122353515625,-1.745626146119119,0.6852449796392586,0.3039577996829192,-1.6425824568510545,-0.6173478531467073,0.2369115275072499,-0.7782491662624504
0.65,1.690766821771331e+18,0.6513311035156251,4.909433136842846,-6.745763598350882,-14.51500936035633,1.6907668217650683e+18,0.645068408203125,0.4241546630859375,0.0246826171875,-2.20069580078125,1.690766821771331e+18,0.6513311035156251,-0.6342267341489157,6.967347546520233,-6.861889276226758,1.690766821771331e+18,0.6513311035156251,-0.9711200565099716,1.2491902232170105,2.1489644050598145,1.6907668217650683e+18,0.645068408203125,-0.7349580019712448,1.1035879015922547,2.4001460790634157,,,,,,,,,,,,,1.690766821771331e+18,0.6513311035156251,-6.764035415649414,46.65735549926758,-21.382257080078126,1.690766821770588e+18,0.650587890625,31.272650146484374,69.17389831542968,109.1118377685547,1.690766821771331e+18,0.6513311035156251,-1.5387526627514103,0.6368163070926511,0.28756019331840044,-1.4794511555950123,-0.670441838590054,0.24880429609767232,-0.79031938901734
0.7000000000000001,1.6907668218214385e+18,0.70143857421875,7.538257090439797,-5.297736873380542,-6.86940669534564,1.6907668218151762e+18,0.695176220703125,0.6024505615234375,0.0950164794921875,-1.4734375,1.6907668218214385e+18,0.70143857421875,-1.5368913832767306,6.387547424658537,-7.275686233556866,1.6907668218214385e+18,0.70143857421875,-1.4613255500793456,1.403406548500061,0.1209546260535717,1.6907668218151762e+18,0.695176220703125,-1.6326014518737793,1.3019036769866943,0.5407299757003784,,,,,,,,,,,,,1.6907668218214385e+18,0.70143857421875,-11.352902221679688,44.486664581298825,-23.90221710205078,1.6907668218225828e+18,0.70258271484375,27.01343688964844,66.94298095703125,106.47254638671875,1.6907668218214385e+18,0.70143857421875,-1.4702609345161626,0.596176391709914,0.3260236666056243,-1.362987264754788,-0.6869540253871929,0.25719571030151,-0.7096032911633073
0.75,1.6907668218715466e+18,0.7515465820312499,6.729476392738372,3.1977785056042665,4.913485977817178,1.6907668218652836e+18,0.745283544921875,0.513916015625,0.9588958740234375,-0.23721923828125,1.6907668218715466e+18,0.7515465820312499,-1.956036745123565,6.265483004383444,-7.284583708857298,1.6907668218715466e+18,0.7515465820312499,-0.585430559515953,2.458216738700867,-1.5698688507080079,1.6907668218652836e+18,0.745283544921875,-0.39786923825740816,2.6260250091552733,-1.7719700932502747,,,,,,,,,,,,,1.6907668218715466e+18,0.7515465820312499,-11.541535186767579,44.26550064086914,-24.12006072998047,1.690766821869377e+18,0.7493768920898437,27.117237091064453,67.17427062988281,106.70788955688477,1.6907668218715466e+18,0.7515465820312499,-1.5603038237901707,0.5939983805576851,0.3779958887559571,-1.3085024046128408,-0.6756989435104515,0.21730260603853532,-0.6930949248639926
0.8,1.6907668219216543e+18,0.801654150390625,0.14027040666878235,-1.5274129808962345,-0.8051005771100523,1.6907668219153912e+18,0.795391162109375,-0.196710205078125,0.4466339111328125,-0.862738037109375,1.6907668219216543e+18,0.801654150390625,-2.0738577702882885,5.775535236691236,-7.644815664738417,1.6907668219216543e+18,0.801654150390625,-1.5220728993415833,-0.8220809817314148,0.005340223014354706,1.6907668219153912e+18,0.795391162109375,-1.6381430864334106,-0.5275439620018005,-0.021794562041759478,,,,,,,,,,,,,1.6907668219216543e+18,0.801654150390625,-11.302975845336913,43.170386505126956,-26.19226989746094,1.6907668219161713e+18,0.7961711914062499,27.328607177734376,65.64303283691406,104.09521789550782,1.6907668219216543e+18,0.801654150390625,-1.6192314577295583,0.587921197967349,0.41703963797373345,-1.3056189300795737,-0.6570897677548675,0.2201553236685529,-0.6299364789281233
0.8500000000000001,1.6907668219717617e+18,0.8517615722656251,-4.508829569215328,-3.8733237806141374,-4.741019871655703,1.690766821965499e+18,0.8454990234374999,-0.6225982666015625,0.14930419921875,-1.297210693359375,1.6907668219717617e+18,0.8517615722656251,-1.7264496693710982,5.31280818578422,-8.058083279045224,1.6907668219717617e+18,0.8517615722656251,-1.0601940870285034,-0.6719364285469055,0.374632853269577,1.690766821965499e+18,0.8454990234374999,-1.0459892392158507,-0.7351266741752625,0.264023969322443,,,,,,,,,,,,,1.6907668219717617e+18,0.8517615722656251,-10.058638763427734,41.316576385498045,-29.199888610839842,1.6907668219681654e+18,0.848165380859375,28.605325317382814,63.805642700195314,101.18158569335938,1.6907668219717617e+18,0.8517615722656251,-1.6298129748163006,0.5894604708788693,0.42106844354883394,-1.3596569213350616,-0.6408703778432469,0.2538301167335413,-0.5726161423019562
0.9,1.690766822021869e+18,0.9018691406249999,-1.8109200090152022,-0.7837932929262518,1.0252259093558789,1.6907668220156065e+18,0.8956065429687501,-0.356689453125,0.4109954833984375,-0.7559295654296875,1.690766822021869e+18,0.9018691406249999,-1.6642637883798777,4.904453887125551,-8.326642913401127,1.690766822021869e+18,0.9018691406249999,-0.6376580238342285,-0.16905372142791747,0.7834344863891601,1.6907668220156065e+18,0.8956065429687501,-0.7050130367279053,-0.2762425132095814,0.6808076798915863,,,,,,,,,,,,,1.690766822021869e+18,0.9018691406249999,-9.922499084472657,39.81602325439453,-31.237474060058595,1.6907668220149606e+18,0.8949606323242187,28.66256332397461,62.433204650878906,99.30180740356445,1.690766822021869e+18,0.9018691406249999,-1.6099365315370289,0.5801769663921531,0.42460254836226746,-1.3735408231151773,-0.6360533126115708,0.28015913838296946,-0.5237695627507766
0.9500000000000001,1.6907668220719772e+18,0.9519771484374999,-0.26209827093511817,2.340347554180622,7.456132933982611,1.6907668220657142e+18,0.9457141601562501,-0.2468109130859375,0.7157684326171875,-0.1117340087890625,1.6907668220719772e+18,0.9519771484374999,-2.0616540345971286,4.732633151582479,-8.336151915502548,1.6907668220719772e+18,0.9519771484374999,0.6868556007742882,0.36963389515876766,1.7015021085739135,1.6907668220657142e+18,0.9457141601562501,0.4248058430850506,0.38394463062286377,1.6409793853759767,,,,,,,,,,,,,1.6907668220719772e+18,0.9519771484374999,-11.3733699798584,38.96927337646484,-31.623385620117187,1.6907668220801093e+18,0.960109375,25.89410909016927,61.22591654459635,98.90155537923177,1.6907668220719772e+18,0.9519771484374999,-1.5392863416066624,0.5563386183194994,0.4202805489160255,-1.3283136018847723,-0.6544995325962594,0.29208294307519844,-0.5036193378562681
1.0,1.6907668221220846e+18,1.0020845703124999,1.2962279392017424,2.7924186541342735,9.42230932187438,1.6907668221158216e+18,0.9958215820312499,-0.13375244140625,0.82503662109375,0.1786346435546875,1.6907668221220846e+18,1.0020845703124999,-2.653979466867596,5.271611199903488,-7.821156332697868,1.6907668221220846e+18,1.0020845703124999,2.860137605667114,0.6881122142076492,1.6001463174819945,1.6907668221158216e+18,0.9958215820312499,2.662041115760803,0.5960638791322708,1.6284311056137084,,,,,,,,,,,,,1.6907668221220846e+18,1.0020845703124999,-15.314863586425782,39.267171478271486,-29.55555419921875,1.690766822120299e+18,1.000299169921875,22.94719543457031,62.022586059570315,101.344775390625,1.6907668221220846e+18,1.0020845703124999,-1.416869598813835,0.5369424881266841,0.3837469538564672,-1.243002227476764,-0.6983052335240383,0.2761293303895399,-0.5678536509055403
1.05,1.6907668221721923e+18,1.0521921875,1.9163713819503783,1.147026944067478,0.8359994563382862,1.6907668221659295e+18,1.0459293457031251,-0.1639892578125,0.7510986328125,-0.5901824951171875,1.6907668221721923e+18,1.0521921875,-3.396346962819397,6.202513630251288,-6.781041364863515,1.6907668221721923e+18,1.0521921875,3.3589280128479,0.3100493110716343,1.6192898511886598,1.6907668221659295e+18,1.0459293457031251,3.370605802536011,0.44041919335722923,1.6947919845581054,,,,,,,,,,,,,1.6907668221721923e+18,1.0521921875,-19.702045059204103,41.55459747314453,-23.170973205566405,1.6907668221705313e+18,1.050531298828125,18.4998779296875,64.37196350097656,108.01398620605468,1.6907668221721923e+18,1.0521921875,-1.2471667730053615,0.5213279958121836,0.32474553822475655,-1.1054719830373343,-0.7530826619065658,0.23437993069846447,-0.6851627768373065
1.1,1.6907668222222996e+18,1.10229951171875,5.086884747105836,0.9527029925543069,-3.5990875034743546,1.690766822216037e+18,1.096037109375,0.1326171875,0.8185028076171875,-0.9401763916015625,1.6907668222222996e+18,1.10229951171875,-3.7960509804847833,7.086248066710828,-5.595484959011078,1.6907668222222996e+18,1.10229951171875,3.7471943855285645,0.49486289024353025,0.3210443824529648,1.690766822216037e+18,1.096037109375,3.6053202629089354,0.3737774766981602,0.5344073146581649,,,,,,,,,,,,,1.6907668222222996e+18,1.10229951171875,-23.11082229614258,43.31532974243164,-15.666253662109375,1.6907668222207624e+18,1.100762255859375,15.28134765625,66.08406982421874,115.52129211425782,1.6907668222222996e+18,1.10229951171875,-1.069765948610536,0.5187462738055887,0.2561274108878069,-0.9729283900619281,-0.7921439508841831,0.1926417247645506,-0.808402819082836
1.1500000000000001,1.6907668222724073e+18,1.15240732421875,4.186779430725276,-0.28946541045367713,-14.210121924365163,1.6907668222661445e+18,1.14614462890625,0.0251861572265625,0.7931640625,-1.8355743408203125,1.6907668222724073e+18,1.15240732421875,-3.850244576773941,7.965754773246646,-4.221130496233999,1.6907668222724073e+18,1.15240732421875,1.702451479434967,0.834742060303688,-0.919752624630928,1.6907668222661445e+18,1.14614462890625,2.3662189800292253,0.7558752328157425,-0.6958385001868009,,,,,,,,,,,,,1.6907668222724073e+18,1.15240732421875,-23.92540626525879,45.17751846313477,-7.001329040527343,1.6907668222709937e+18,1.15099375,14.6707275390625,67.95288696289063,124.27331848144532,1.6907668222724073e+18,1.15240732421875,-0.9224042383406195,0.5340215998340739,0.19730911768793982,-0.8306044928331275,-0.8107427105183739,0.13552672939610733,-0.9484692632244812
1.2000000000000002,1.6907668223225152e+18,1.2025151855468752,4.9770890321299435,1.7587873200047013,-15.230112037346363,1.6907668223162522e+18,1.196252197265625,0.1984222412109375,0.9795745849609375,-2.032159423828125,1.6907668223225152e+18,1.2025151855468752,-3.1956233149448035,8.143690484538674,-4.4103019457417725,1.6907668223225152e+18,1.2025151855468752,-2.9220609188079836,0.9638501524925231,-2.9476725578308107,1.6907668223162522e+18,1.196252197265625,-2.5592329025268556,1.104083037376404,-2.9145833015441895,,,,,,,,,,,,,1.6907668223225152e+18,1.2025151855468752,-21.148502349853516,47.24183883666992,-3.6998138427734375,1.6907668223212232e+18,1.201223291015625,17.827020263671876,70.07861633300782,126.7974853515625,1.6907668223225152e+18,1.2025151855468752,-1.1196783545345896,0.5686714194952819,0.2358047162942313,-0.9426305649791995,-0.7788145493019003,0.11623731255666411,-0.9799629218009069
1.25,1.6907668223726226e+18,1.25262255859375,-3.4966714358079427,10.099862897192835,-3.660225453621745,1.6907668223663598e+18,1.246359765625,-0.574517822265625,1.7952911376953125,-0.9801513671875,1.6907668223726226e+18,1.25262255859375,-2.2184973904041945,7.569165555827022,-5.797259694147706,1.6907668223726226e+18,1.25262255859375,-3.4830631732940676,-2.1159296557307243,-1.0337113320827485,1.6907668223663598e+18,1.246359765625,-3.559047794342041,-1.5490116000175476,-1.3342104792594909,,,,,,,,,,,,,1.6907668223726226e+18,1.25262255859375,-14.893113708496093,48.737500762939455,-9.869947814941407,1.6907668223714516e+18,1.2514516113281249,24.134765624999996,71.39093933105468,120.03867797851562,1.6907668223726226e+18,1.25262255859375,-1.4188119167416762,0.6010457668151942,0.3023130778297505,-1.2018389319462557,-0.7220954946591912,0.15809650138879144,-0.8827708103632306
1.3,1.6907668224227302e+18,1.302730126953125,-4.430688549497128,9.046300184955596,-1.044159157884717,1.6907668224164675e+18,1.2964674804687502,-0.5733856201171875,1.611505126953125,-0.834442138671875,1.6907668224227302e+18,1.302730126953125,-1.1460653178806601,6.638383887701631,-7.112975447021126,1.6907668224227302e+18,1.302730126953125,-2.5523947715759276,-2.0455603122711183,-0.43203033208847047,1.6907668224164675e+18,1.2964674804687502,-2.664992570877075,-2.3792904376983643,-0.38705536127090456,,,,,,,,,,,,,1.6907668224227302e+18,1.302730126953125,-10.785453796386719,47.02383041381836,-19.1329345703125,1.6907668224216814e+18,1.301681298828125,28.064614868164064,69.46516723632813,110.75207824707032,1.6907668224227302e+18,1.302730126953125,-1.51342808501775,0.6159177416389117,0.3157989600141955,-1.4097999402604797,-0.6771738543876005,0.2486254435527137,-0.7441416123772259
1.35,1.6907668224728374e+18,1.352837255859375,-2.5524558179962633,4.039530241858959,0.6385438703489303,1.6907668224665748e+18,1.346575,-0.31226806640625,1.0174041748046876,-0.73665771484375,1.6907668224728374e+18,1.352837255859375,-0.5361243540033698,5.782203228600025,-7.894770434963107,1.6907668224728374e+18,1.352837255859375,-2.361274003982544,-0.773164165019989,-0.36632702797651284,1.6907668224665748e+18,1.346575,-2.3024043083190917,-0.8362671494483948,-0.4513873755931854,,,,,,,,,,,,,1.6907668224728374e+18,1.352837255859375,-7.725307464599609,44.49536666870117,-25.888929748535155,1.6907668224719104e+18,1.351910498046875,31.0728759765625,66.92554016113282,104.24637451171876,1.6907668224728374e+18,1.352837255859375,-1.562900586992317,0.6180440448301814,0.33890453408332133,-1.5025975344497187,-0.6421310878928427,0.3008594426763832,-0.6309847837890439
1.4000000000000001,1.690766822522945e+18,1.4029451171875,-2.01146151986897,-1.9010725736272334,3.627278175883293,1.6907668225166822e+18,1.3966821289062499,-0.2491729736328125,0.3085113525390625,-0.5172760009765625,1.690766822522945e+18,1.4029451171875,-0.3463182817734405,4.714918105123937,-8.584233409975171,1.690766822522945e+18,1.4029451171875,-2.5935989379882813,0.017622235417366027,-0.11014450192451478,1.6907668225166822e+18,1.3966821289062499,-2.636004638671875,-0.13693191707134247,0.013067865371704101,,,,,,,,,,,,,1.690766822522945e+18,1.4029451171875,-6.130384063720703,41.06338195800781,-31.370951843261718,1.6907668225221396e+18,1.402139697265625,32.49844665527344,63.37877197265625,98.77717590332031,1.690766822522945e+18,1.4029451171875,-1.5730309649555043,0.601429323172671,0.37299131689601234,-1.5304340329410167,-0.6150942624356722,0.34708980574267045,-0.501925884242503
1.4500000000000002,1.6907668225730527e+18,1.453052734375,1.3189542379510402,-9.696380413128137,9.73401298452556,1.6907668225667896e+18,1.4467896972656251,0.0798065185546875,-0.594482421875,0.047119140625,1.6907668225730527e+18,1.453052734375,-0.46275781137146055,3.702137426677942,-9.065013653253912,1.6907668225730527e+18,1.453052734375,-1.9604435205459594,0.7013139486312866,-0.8203822791576385,1.6907668225667896e+18,1.4467896972656251,-2.097287321090698,0.7791894316673279,-0.8888014197349549,,,,,,,,,,,,,1.6907668225730527e+18,1.453052734375,-5.823641204833985,36.967027282714845,-36.21874084472656,1.690766822572372e+18,1.452371923828125,32.77764892578125,59.2926025390625,94.04254150390625,1.6907668225730527e+18,1.453052734375,-1.6168893636523627,0.5851792490775946,0.4228012814672388,-1.519848317789614,-0.5870053618367975,0.36599541155456616,-0.38726629339297186
1.5,1.69076682262316e+18,1.50316015625,6.008267303245067,-10.636354740108251,13.746291997556686,1.6907668226168978e+18,1.4968978027343751,0.549493408203125,-0.7746002197265625,0.465350341796875,1.69076682262316e+18,1.50316015625,-0.4272035404321737,3.0667873254820703,-9.303103096735477,1.69076682262316e+18,1.50316015625,-1.056614625453949,-1.0054318860173226,0.6143918573856354,1.6907668226168978e+18,1.4968978027343751,-1.0545578718185424,-0.7464548587799072,0.5066322579979896,,,,,,,,,,,,,1.69076682262316e+18,1.50316015625,-5.593588256835938,33.79697723388672,-39.175872802734375,1.6907668226226007e+18,1.5026007324218749,33.000668334960935,56.2281005859375,91.22913208007813,1.69076682262316e+18,1.50316015625,-1.6271501494767477,0.574241802653224,0.44380131439217446,-1.5248503416174437,-0.5699170537124706,0.38516069230664685,-0.31809848223430404
1.55,1.6907668226732677e+18,1.5532677734375,1.139184764586687,-7.582164971940517,6.5939651340693235,1.6907668226670052e+18,1.547005126953125,0.1393402099609375,-0.53428955078125,-0.2777801513671875,1.6907668226732677e+18,1.5532677734375,0.020835660784852363,2.4969105732893944,-9.481760926370024,1.6907668226732677e+18,1.5532677734375,-1.1376116871833801,-0.7317903026938438,1.0294514060020448,1.6907668226670052e+18,1.547005126953125,-1.2311220645904541,-0.9783194541931153,0.9189648509025574,,,,,,,,,,,,,1.6907668226732677e+18,1.5532677734375,-4.450605773925782,31.269388580322264,-41.300131225585936,1.6907668226728276e+18,1.552827490234375,34.23910217285156,53.68871154785156,89.1079315185547,1.6907668226732677e+18,1.5532677734375,-1.5881796142337212,0.5641879788676417,0.43592574723623284,-1.5729651249176384,-0.5557883053971577,0.4273287316235792,-0.2574863203066598
1.6,1.6907668227233756e+18,1.60337578125,-7.568911522613763,3.643272068411558,1.227975743908882,1.6907668227171128e+18,1.597112744140625,-0.757476806640625,0.559674072265625,-0.8326416015625,1.6907668227233756e+18,1.60337578125,-0.19159371210022477,2.267233802652955,-9.537561256429552,1.6907668227233756e+18,1.60337578125,0.5431767918169499,0.4980903461575508,3.140444612503052,1.6907668227171128e+18,1.597112744140625,0.22931501120328904,0.4096656978130341,2.9236631631851195,,,,,,,,,,,,,1.6907668227233756e+18,1.60337578125,-5.507489013671875,28.975479125976562,-42.96893310546875,1.690766822723055e+18,1.6030553222656252,32.82069396972656,51.487081909179686,87.54614868164063,1.6907668227233756e+18,1.60337578125,-1.4853340260098071,0.5313711963558106,0.41944995841628285,-1.5506835740012013,-0.5774978696364234,0.45573623360545507,-0.23331139565519834
1.6500000000000001,1.690766822773483e+18,1.6534831542968749,-5.384984247296453,11.601655231524706,-5.819531614806055,1.6907668227672202e+18,1.64722021484375,-0.67999267578125,1.51834716796875,-1.5019683837890625,1.690766822773483e+18,1.6534831542968749,-1.1694720147226005,3.265349645217359,-9.14701190369606,1.690766822773483e+18,1.6534831542968749,3.782754993438721,2.457053065299988,1.74789856672287,1.6907668227672202e+18,1.64722021484375,3.548701047897339,2.2726075887680053,2.0603336572647093,,,,,,,,,,,,,1.690766822773483e+18,1.6534831542968749,-11.33931770324707,30.07094039916992,-41.14017028808594,1.6907668227732836e+18,1.65328359375,26.655618286132814,52.992373657226565,89.79406127929687,1.690766822773483e+18,1.6534831542968749,-1.3340733013666672,0.5029414620882477,0.3698434765974632,-1.4427088740190785,-0.6496542083892349,0.4323331079858539,-0.3399649419998477
1.7000000000000002,1.6907668228235907e+18,1.7035907226562501,-2.6492736857163903,7.485939107990265,-6.099461135151385,1.6907668228173279e+18,1.6973279296875,-0.5210052490234375,1.2703369140625,-1.490350341796875,1.6907668228235907e+18,1.7035907226562501,-2.2797290101844068,4.890676823090017,-8.164863270235658,1.6907668228235907e+18,1.7035907226562501,4.551759910583496,1.1045024037361144,1.2848731756210328,1.6907668228173279e+18,1.6973279296875,4.281009149551392,1.1921140789985656,1.286741304397583,,,,,,,,,,,,,1.6907668228235907e+18,1.7035907226562501,-18.206206130981446,35.66027297973633,-33.717472839355466,1.69076682282351e+18,1.703510107421875,19.927883911132813,58.74943542480469,97.54010009765625,1.6907668228235907e+18,1.7035907226562501,-1.21795077330452,0.5033182132462629,0.312015126801954,-1.2973988696772767,-0.719759604096957,0.36069910717154524,-0.5230431415841159
1.75,1.690766822873698e+18,1.753698095703125,3.0590042996165154,0.7941278152924773,-13.665883062132597,1.6907668228674358e+18,1.747435693359375,-0.02398681640625,0.781268310546875,-1.9898406982421875,1.690766822873698e+18,1.753698095703125,-3.219565389998555,6.541825664604902,-6.529028259256482,1.690766822873698e+18,1.753698095703125,3.1054028138518333,2.8411261558532717,0.5304488897323608,1.6907668228674358e+18,1.747435693359375,3.889727807044983,2.740185785293579,0.5599847972393036,,,,,,,,,,,,,1.690766822873698e+18,1.753698095703125,-22.506082153320314,41.27881622314453,-23.06696472167969,1.6907668228737377e+18,1.753737841796875,15.733737182617187,64.33926086425781,108.4967529296875,1.690766822873698e+18,1.753698095703125,-1.069808854815005,0.5128170877928504,0.242478169316693,-1.1104476506563346,-0.777875998071543,0.2685476963161414,-0.731022962714668
1.8,1.690766822923806e+18,1.80380595703125,8.337781328722238,-3.154034991658926,-7.253622519595622,1.6907668229175432e+18,1.7975431640625001,0.4434906005859375,0.3238525390625,-1.4460968017578124,1.690766822923806e+18,1.80380595703125,-3.955315192150175,6.490385049511789,-6.190448163213134,1.690766822923806e+18,1.80380595703125,-1.6623850345611573,-0.2070275492966175,0.8455064535140991,1.6907668229175432e+18,1.7975431640625001,-1.4444196224212646,0.2666842997074127,0.8600057125091553,,,,,,,,,,,,,1.690766822923806e+18,1.80380595703125,-26.138976669311525,42.96026840209961,-15.947319030761719,1.6907668229239657e+18,1.80396572265625,12.2117431640625,65.51971740722657,114.7622314453125,1.690766822923806e+18,1.80380595703125,-1.0304016873368196,0.49148742398556033,0.2562360156874387,-1.0020407506654174,-0.7974711524566134,0.23793567367187932,-0.7236044973302874
1.85,1.6907668229739139e+18,1.8539138183593749,4.529920843334794,-0.7556842782253026,4.225943507925868,1.6907668229676508e+18,1.84765078125,0.095196533203125,0.4870330810546875,-0.3316253662109375,1.6907668229739139e+18,1.8539138183593749,-3.7149943363547324,5.579102797817588,-7.138819030234217,1.6907668229739139e+18,1.8539138183593749,-2.7277636528015137,-2.522149920463562,0.655642306804657,1.6907668229676508e+18,1.84765078125,-2.7275857448577883,-2.1571664094924925,0.6376105070114135,,,,,,,,,,,,,1.6907668229739139e+18,1.8539138183593749,-27.214291763305663,40.26407165527344,-20.090373229980468,1.690766822974193e+18,1.8541927734375,11.373797607421874,62.6379150390625,109.96680908203125,1.6907668229739139e+18,1.8539138183593749,-1.0637253707015524,0.47093828620509726,0.2808168853635076,-1.0897641706215697,-0.7813028120460709,0.29691942212369676,-0.6057487035606738
1.9000000000000001,1.690766823024021e+18,1.904021142578125,-2.6521832603266833,5.66994954062581,22.28296788825631,1.6907668230177582e+18,1.8977581542968749,-0.5077423095703125,1.1001068115234376,1.4881500244140624,1.690766823024021e+18,1.904021142578125,-2.560711838974952,5.204663686694502,-7.894444154844284,1.690766823024021e+18,1.904021142578125,1.7419179677963257,-3.09537410736084,-0.29125342071056365,1.6907668230177582e+18,1.8977581542968749,1.0835779905319214,-3.2238555431365965,-0.2052821010351181,1.6907668230005307e+18,1.88053076171875,38.47515869140625,1.1100000143051147,36.30725023141512,49.27506084092825,57.513729095458984,16.875,18.84226106723661,24.0,-122.87244935531436,1.840000033378601,1.690766823024021e+18,1.904021142578125,-24.591305541992188,37.41859893798828,-27.675901794433592,1.690766823024418e+18,1.9044180664062498,14.317999267578125,59.967550659179686,102.45124816894531,1.690766823024021e+18,1.904021142578125,-1.0780008587855257,0.48156928722716097,0.25921515961821673,-1.2578551831075069,-0.7502985463215246,0.37050106935619254,-0.5597382542364546
1.9500000000000002,1.6907668230741286e+18,1.954128662109375,-7.115138645630479,-1.2363457466560601,-16.911851773505806,1.690766823067866e+18,1.94786611328125,-0.91856689453125,0.5206268310546875,-2.3981719970703126,1.6907668230741286e+18,1.954128662109375,-1.5820082898540793,6.11019190490663,-7.502391411810517,1.6907668230741286e+18,1.954128662109375,0.8904747843742371,-0.0029639773070812224,-1.4966826654970646,1.690766823067866e+18,1.94786611328125,1.4662725985050202,-0.7146473050117492,-1.0619669243693353,,,,,,,,,,,,,1.6907668230741286e+18,1.954128662109375,-20.177583694458008,40.252587890625,-27.57501220703125,1.690766823074645e+18,1.9546450195312501,18.709347534179688,63.206719970703126,103.19952697753907,1.6907668230741286e+18,1.954128662109375,-1.0773588524575142,0.5250120605432701,0.19745141437507968,-1.363196038546934,-0.7359158935684629,0.3789050026861995,-0.6727946234801244
2.0,1.690766823124236e+18,2.0042361328125002,4.223186902694105,-1.5369911903893947,-12.76848495888412,1.690766823117974e+18,1.9979738281250001,0.301959228515625,0.4498016357421875,-2.1367584228515626,1.690766823124236e+18,2.0042361328125002,-1.2195115308461337,6.019864100632072,-7.641874116780757,1.690766823124236e+18,2.0042361328125002,-1.5868954420089723,1.4977224707603454,-3.6553555965423583,1.690766823117974e+18,1.9979738281250001,-1.5358129024505616,1.780318593978882,-3.6945316314697267,,,,,,,,,,,,,1.690766823124236e+18,2.0042361328125002,-16.385277557373048,42.63345108032227,-26.769996643066406,1.6907668231248696e+18,2.004869775390625,22.549966430664064,65.3765625,103.7616943359375,1.690766823124236e+18,2.0042361328125002,-1.2738436503529162,0.5636035266414516,0.25839707715180493,-1.4123210067126901,-0.7033491153127782,0.34635718007387334,-0.6610036806747365
2.0500000000000003,1.690766823174344e+18,2.0543439453125,4.496699191021323,-3.198943925347924,0.37632045327723035,1.6907668231680812e+18,2.0480811523437503,0.42012939453125,0.239471435546875,-0.8139495849609375,1.690766823174344e+18,2.0543439453125,-0.43999379223731105,5.445722384471297,-8.134311713914276,1.690766823174344e+18,2.0543439453125,-2.0190531492233275,-0.987270176410675,-2.0935370445251467,1.6907668231680812e+18,2.0480811523437503,-1.971812129020691,-0.7171722710132599,-2.347647547721863,,,,,,,,,,,,,1.690766823174344e+18,2.0543439453125,-10.580498886108398,42.634752655029295,-29.41205291748047,1.6907668231700764e+18,2.0500764770507813,27.863040924072266,65.37594223022461,101.31554412841797,1.690766823174344e+18,2.0543439453125,-1.4675363618774235,0.5973831685548558,0.31693556441168874,-1.516120798014208,-0.6493329235136015,0.3472318358164096,-0.5889685184639104
2.1,1.6907668232244516e+18,2.1044517578125,1.1427620385515689,-4.161146392296851,5.952498420463204,1.6907668232181888e+18,2.0981886718749996,0.1552001953125,0.0371124267578125,-0.298638916015625,1.6907668232244516e+18,2.1044517578125,0.4528535263421386,4.569058207885027,-8.658723827457427,1.6907668232244516e+18,2.1044517578125,-1.9516229152679443,-1.4441232919692992,-0.29758915603160857,1.6907668232181888e+18,2.0981886718749996,-2.049314284324646,-1.5319918155670167,-0.3815005362033844,,,,,,,,,,,,,1.6907668232244516e+18,2.1044517578125,-5.068347930908203,40.111898040771486,-33.93798065185547,1.690766823215282e+18,2.09528193359375,33.010476684570314,63.16994934082031,97.20592651367187,1.6907668232244516e+18,2.1044517578125,-1.527211606438587,0.6062603767339199,0.3364336526148566,-1.6227097418473733,-0.6030066606513916,0.39411317286727765,-0.4848810891690857
2.15,1.690766823274559e+18,2.1545591796875003,0.007307225047349953,-2.80250715123713,5.043869079817534,1.6907668232682962e+18,2.1482961425781246,0.1012542724609375,0.098492431640625,-0.377850341796875,1.690766823274559e+18,2.1545591796875003,0.8197995052308589,3.6677418790534135,-9.050086483948231,1.690766823274559e+18,2.1545591796875003,-2.6206262826919557,-0.10140975676476957,0.4168081969022751,1.6907668232682962e+18,2.1482961425781246,-2.3936763763427735,-0.20384501814842224,0.17696322202682496,,,,,,,,,,,,,1.690766823274559e+18,2.1545591796875003,-2.4326271057128905,36.71498260498047,-37.95939636230469,1.69076682326551e+18,2.145509814453125,36.0351318359375,59.82035827636719,93.10523376464843,1.690766823274559e+18,2.1545591796875003,-1.5231777442002,0.5930298878590328,0.3549607691112777,-1.6611811039924358,-0.5762601479678814,0.4357252077512113,-0.3836161805696109
2.2,1.6907668233246666e+18,2.2046667480468747,1.5897746860718722,-6.53262049698174,-3.858033155597448,1.6907668233184038e+18,2.198403857421875,0.2310577392578125,-0.43936767578125,-1.35408935546875,1.6907668233246666e+18,2.2046667480468747,0.8066419174940138,2.21339059801057,-9.508225622543097,1.6907668233246666e+18,2.2046667480468747,-3.339685344696045,-0.35205772407352925,0.30156590342521666,1.6907668233184038e+18,2.198403857421875,-3.327372360229492,-0.3760992288589478,0.4759108781814575,,,,,,,,,,,,,1.6907668233246666e+18,2.2046667480468747,-2.780650329589844,30.838538360595702,-42.718875122070315,1.690766823315736e+18,2.1957361328125,35.85416259765625,54.36674194335937,88.45687866210938,1.6907668233246666e+18,2.2046667480468747,-1.472384818165643,0.5480882907640516,0.3892297937455395,-1.65539910563393,-0.5541914699538161,0.49029834869611016,-0.2279227015141589
2.25,1.690766823374774e+18,2.2547740234374998,-14.85290860530257,4.447593507068753,2.29252173935771,1.690766823368512e+18,2.248511767578125,-1.41605224609375,0.5360565185546875,-0.76470947265625,1.690766823374774e+18,2.2547740234374998,0.7539336351656913,1.0792712855068594,-9.716970430501103,1.690766823374774e+18,2.2547740234374998,-0.7971596896648407,-0.28636299967765805,2.2285792589187623,1.690766823368512e+18,2.248511767578125,-1.3111861199140549,-0.22692035138607025,2.0682044625282288,,,,,,,,,,,,,1.690766823374774e+18,2.2547740234374998,-3.3219444274902346,23.939325714111327,-46.70953521728516,1.6907668233659648e+18,2.245964794921875,35.42819519042969,47.19205932617187,84.16575622558594,1.690766823374774e+18,2.2547740234374998,-1.4162230569325172,0.5049247497381665,0.41033172233848597,-1.648232907161562,-0.5413659742708081,0.5321996220249795,-0.11028567724359144
2.3000000000000003,1.6907668234248812e+18,2.304880908203125,0.699379403483644,12.23319816629648,6.895360168673991,1.6907668234186176e+18,2.298617626953125,0.10206298828125,1.41905517578125,-0.2825439453125,1.6907668234248812e+18,2.304880908203125,0.4423255651330179,1.8635621380786596,-9.596767829349043,1.6907668234248812e+18,2.304880908203125,3.8318541288375854,2.127904176712036,0.6998133033514022,1.6907668234186176e+18,2.298617626953125,3.2888352394104006,1.670966589450836,0.7141658514738083,,,,,,,,,,,,,1.6907668234248812e+18,2.304880908203125,-4.548921203613281,22.753507995605467,-47.127157592773436,1.6907668234161946e+18,2.296194580078125,33.886593627929685,45.54800720214844,83.55235290527344,1.6907668234248812e+18,2.304880908203125,-1.3517458618853877,0.50186921915495,0.3761628957263548,-1.6164927666713826,-0.5791336937217177,0.5197889954572769,-0.1915238006215109
2.35,1.6907668234699773e+18,2.3499774169921874,3.498208026951551,7.838996320710331,0.8529689743526279,1.6907668234687247e+18,2.34872470703125,0.177423095703125,1.231103515625,-0.770916748046875,1.6907668234699773e+18,2.3499774169921874,-1.109804696076829,4.025993518611416,-8.831346731615811,1.6907668234699773e+18,2.3499774169921874,6.188707947731018,4.877988219261169,-0.36757541075348854,1.6907668234687247e+18,2.34872470703125,6.1096696853637695,4.711733150482178,-0.26154201626777646,,,,,,,,,,,,,1.6907668234699773e+18,2.3499774169921874,-8.986090660095215,29.23437786102295,-42.591739654541016,1.6907668234664218e+18,2.346421923828125,27.997991943359374,53.781927490234374,89.77384033203126,1.6907668234699773e+18,2.3499774169921874,-1.3147247577473693,0.5199753474805345,0.33829331770018134,-1.4439443390620141,-0.6645231950882482,0.41420960927781086,-0.4241550235208242
2.4000000000000004,1.690766823515074e+18,2.3950740722656247,-3.878289761684537,3.228977945988178,2.995362433050275,1.690766823518832e+18,2.3988321289062497,-0.73248291015625,0.9634002685546875,-0.4110931396484375,1.690766823515074e+18,2.3950740722656247,-2.5239846919846536,6.542716592869162,-6.747615129888653,1.690766823515074e+18,2.3950740722656247,7.156051921844482,5.234644794464112,-1.461687171459198,1.690766823518832e+18,2.3988321289062497,7.129304027557373,5.1158522605896,-1.428886353969574,,,,,,,,,,,,,1.690766823515074e+18,2.3950740722656247,-16.04795913696289,39.31668548583984,-30.846292114257814,1.6907668235166502e+18,2.3966503417968754,21.258560180664062,64.98670349121093,104.66384887695312,1.690766823515074e+18,2.3950740722656247,-1.2929813379701731,0.5556728512201753,0.30112709447250924,-1.2039948103867573,-0.7331064836971357,0.24274131731316237,-0.7351609074231911
2.45,1.6907668235651817e+18,2.44518173828125,-1.5558393325310944,-3.426009052181244,-17.488760733196735,1.6907668235689398e+18,2.448939794921875,-0.079754638671875,0.2032928466796875,-2.7135009765625,1.6907668235651817e+18,2.44518173828125,-3.217540197007358,8.292223692640066,-4.104364357723593,1.6907668235651817e+18,2.44518173828125,2.354050087928772,2.072443389892578,-0.986677671968937,1.6907668235689398e+18,2.448939794921875,1.6544353425502778,1.8383955359458923,-1.1064493268728257,,,,,,,,,,,,,1.6907668235651817e+18,2.44518173828125,-18.594707489013672,47.81297378540039,-11.63408203125,1.6907668235668767e+18,2.4468765625,19.957492065429687,71.62537231445313,123.6049560546875,1.6907668235651817e+18,2.44518173828125,-1.155044242324733,0.5731983154659647,0.2535625402326116,-0.9028910807692329,-0.7743914605765368,0.08267138867852875,-1.008684235796554
2.5,1.690766823615289e+18,2.4952891601562497,11.19526743985951,-9.294175226296781,-13.775130904741285,1.6907668236190474e+18,2.49904755859375,0.5864593505859375,0.0158050537109375,-1.3001556396484375,1.690766823615289e+18,2.4952891601562497,-2.4653499276037514,8.228994673884511,-4.675993272732795,1.690766823615289e+18,2.4952891601562497,-4.160372018814087,-1.0617705941200257,-2.8007715702056886,1.6907668236190474e+18,2.49904755859375,-4.207638216018677,-1.2541607797145844,-2.719731903076172,,,,,,,,,,,,,1.690766823615289e+18,2.4952891601562497,-16.64420394897461,50.30379104614258,-3.671650695800781,1.690766823617103e+18,2.497102978515625,23.5194091796875,73.2630615234375,125.40252685546875,1.690766823615289e+18,2.4952891601562497,-1.3922451573907033,0.6057008816033722,0.29388631474437493,-1.079264278187504,-0.7338440190875858,0.08252520230122252,-0.9966353872433796
2.5500000000000003,1.690766823665397e+18,2.545396923828125,-0.5193262178070843,-5.170872476251722,5.196814492951035,1.6907668236691553e+18,2.54915517578125,-0.222412109375,0.3556640625,-0.0616363525390625,1.690766823665397e+18,2.545396923828125,-0.9244072559889591,7.670060346823334,-6.018534196428656,1.690766823665397e+18,2.545396923828125,-0.2679191768169402,-3.808186483383179,-1.4565763533115388,1.6907668236691553e+18,2.54915517578125,0.27703015208244314,-4.082661104202271,-1.2850346396677197,,,,,,,,,,,,,1.690766823665397e+18,2.545396923828125,-9.76985855102539,50.48495101928711,-12.654661560058594,1.6907668236673254e+18,2.54732529296875,30.79222717285156,72.92864685058593,115.70350952148438,1.690766823665397e+18,2.545396923828125,-1.6585885915600795,0.6549807005387495,0.31276339693379634,-1.418405211764308,-0.6699938433255057,0.15288629216673594,-0.8981478399561391
2.6,1.6907668237155046e+18,2.5955046875,-6.571380728008746,-0.3786696467518807,2.8919086636731026,1.6907668237192627e+18,2.5992626953125,-0.666259765625,0.8267852783203125,-0.163946533203125,1.6907668237155046e+18,2.5955046875,0.27920945513594886,8.516561089622973,-4.7826393499583,1.6907668237155046e+18,2.5955046875,5.659870624542236,-3.518114471435547,1.8870256781578063,1.6907668237192627e+18,2.5992626953125,5.872446918487549,-3.0855897545814512,2.0574665427207948,,,,,,,,,,,,,1.6907668237155046e+18,2.5955046875,-3.7289451599121093,50.86663284301758,-14.31634979248047,1.690766823717551e+18,2.5975511718749997,35.41759338378906,74.06771545410156,118.6376953125,1.6907668237155046e+18,2.5955046875,-1.640314028140065,0.695251168867818,0.18187682143725123,-1.630112376017583,-0.670984515126239,0.17533768725267126,-1.0582708377782066
2.6500000000000004,1.690766823765612e+18,2.6456122070312498,3.2475676125502586,13.113966738687754,-0.3246026579040289,1.69076682376937e+18,2.6493701171875,0.256695556640625,3.11695556640625,-0.3057891845703125,1.690766823765612e+18,2.6456122070312498,0.04712325096380986,9.557656885188221,-2.089261266481876,1.690766823765612e+18,2.6456122070312498,4.300833907723427,5.0510693565011024,-0.9884464025497437,1.69076682376937e+18,2.6493701171875,3.703247773647308,5.489400696754456,-1.09858181476593,,,,,,,,,,,,,1.690766823765612e+18,2.6456122070312498,-5.274265289306641,52.37320327758789,-1.4120773315429687,1.6907668237677765e+18,2.6477763671875,33.153628540039065,74.97305297851562,133.65763244628906,1.690766823765612e+18,2.6456122070312498,-1.6353423370045832,0.703533296899331,0.08223485267923347,-1.6167388313850697,-0.7004582880180659,0.06899477908877426,-1.354689803960716
2.7,1.6907668238157197e+18,2.6957197265625,-0.731043290348053,22.470670258898735,0.9103101625655592,1.6907668238194778e+18,2.6994777343750003,0.11527099609375,2.451385498046875,0.03138427734375,1.6907668238157197e+18,2.6957197265625,-0.3711573616074875,9.64218786897838,-1.730503825519681,1.6907668238157197e+18,2.6957197265625,-1.0242430567741394,1.6757169723510743,1.1349985793232917,1.6907668238194778e+18,2.6994777343750003,-0.9022046223282814,1.0781651735305786,0.9832665249705315,,,,,,,,,,,,,1.6907668238157197e+18,2.6957197265625,-2.4882217407226563,52.02464981079102,9.475802612304687,1.6907668238180012e+18,2.698001318359375,36.45108337402344,74.71691284179687,140.2706512451172,1.6907668238157197e+18,2.6957197265625,-1.6269386479083976,0.6930552891280062,0.1540064306597848,-1.3703690505577526,-0.7035413588067131,-0.026131939802285797,-1.3883607528548816
2.75,1.690766823865827e+18,2.745827197265625,1.1949822889411448,-8.311660097611545,3.9708619546589254,1.6907668238695852e+18,2.74958515625,0.053759765625,-0.021124267578125,0.2184234619140625,1.690766823865827e+18,2.745827197265625,-0.3013763847031258,9.641638535306452,-1.7526340580719708,1.690766823865827e+18,2.745827197265625,0.9068052589893341,-2.701945161819458,-0.7893557995557785,1.6907668238695852e+18,2.74958515625,1.005817288160324,-2.7537467002868654,-0.8805643498897553,,,,,,,,,,,,,1.690766823865827e+18,2.745827197265625,-3.087657165527344,52.33797073364258,8.622125244140625,1.6907668238682253e+18,2.748225390625,35.36693420410156,74.95907287597656,139.2973419189453,1.690766823865827e+18,2.745827197265625,-1.607163041587111,0.6960448729668011,0.1343533100403246,-1.4078877084473806,-0.7049537616974415,-0.00568448851479296,-1.3876716231699304
2.8000000000000003,1.6907668239159347e+18,2.795934814453125,-2.2144249387204646,-13.906644355171917,2.4428738188362864,1.6907668239196925e+18,2.799692724609375,-0.233306884765625,-0.4388946533203125,0.072869873046875,1.6907668239159347e+18,2.795934814453125,0.2636296580072771,9.733790164781212,-1.1489274147004633,1.6907668239159347e+18,2.795934814453125,1.0818263232707976,-2.9628716468811036,0.11220191121101379,1.6907668239196925e+18,2.799692724609375,0.9737681657075882,-2.869765520095825,0.322617244720459,,,,,,,,,,,,,1.6907668239159347e+18,2.795934814453125,-2.720051574707031,51.93305282592773,10.381674194335938,1.6907668239184494e+18,2.79844931640625,35.91884765625,74.40260009765625,141.84789428710937,1.6907668239159347e+18,2.795934814453125,-1.8593331569177676,0.7161498156004161,0.06075722415361938,-1.8039614929542906,-0.6945472916783104,0.0217066587273407,-1.4499514608311153
2.85,1.690766823966042e+18,2.84604208984375,-0.7935442359443382,-11.193004521815777,-0.36765880333319306,1.6907668239698004e+18,2.849800341796875,-0.0697479248046875,-0.0711944580078125,-0.11033935546875,1.690766823966042e+18,2.84604208984375,-0.13459778703947084,9.751994982131123,-1.009006990513131,1.690766823966042e+18,2.84604208984375,-0.3992152750492096,-0.29482476934790613,1.1918893337249756,1.6907668239698004e+18,2.849800341796875,-0.4362774550914764,-0.1825242720544338,1.121428120136261,,,,,,,,,,,,,1.690766823966042e+18,2.84604208984375,-4.535031127929687,51.487955474853514,12.573480224609375,1.690766823968678e+18,2.8486779296874998,32.9619384765625,74.03128051757812,143.13591613769532,1.690766823966042e+18,2.84604208984375,-1.4197506117364376,0.7006106599599048,0.025436621563047917,-1.4506384749452195,-0.7114610770245915,0.04724596661473668,-1.4655127436637412
2.9000000000000004,1.6907668240161498e+18,2.8961496582031248,-0.6698225719010829,-6.2552913976192475,1.9192680094008145,1.690766824019908e+18,2.8999081542968748,-0.1516143798828125,0.7014495849609375,0.1496856689453125,1.6907668240161498e+18,2.8961496582031248,-0.39826071621537207,9.714344407459498,-1.278100746358782,1.6907668240161498e+18,2.8961496582031248,-0.6167574539780617,1.7019139051437377,-0.4362903624773026,1.690766824019908e+18,2.8999081542968748,-0.5248463034629822,1.945747184753418,-0.6021959036588669,1.690766824000533e+18,2.880532958984375,51.2149658203125,0.800000011920929,18.811432096935025,49.27506159529953,70.25353622436523,38.671875,7.4230040626238925,12.0,-122.87236184824523,2.7200000286102295,1.6907668240161498e+18,2.8961496582031248,-7.437539291381836,51.2836051940918,11.74781494140625,1.6907668240189036e+18,2.8989035156250003,31.001171875,73.99627380371093,141.98038635253906,1.6907668240161498e+18,2.8961496582031248,-1.265352299040466,0.6910077560026548,0.04570191563435792,-1.2666562912669208,-0.7197730027333067,0.04662648916040018,-1.433745963756755
2.95,1.6907668240662577e+18,2.9462578125,-4.837930912165045,21.001977177996633,8.208507240103184,1.6907668240700157e+18,2.9500157714843747,-0.5242431640625,3.2959014892578127,0.6920684814453125,1.6907668240662577e+18,2.9462578125,0.15023393299162388,9.760611185498238,-0.7523644742797267,1.6907668240662577e+18,2.9462578125,3.2092148542404173,3.147928774356842,-2.2428547143936157,1.6907668240700157e+18,2.9500157714843747,3.430466389656067,2.6436614036560058,-2.195660924911499,,,,,,,,,,,,,1.6907668240662577e+18,2.9462578125,-5.258604049682617,51.5098518371582,11.629061889648437,1.6907668240691297e+18,2.9491296875,35.14875793457031,73.92344360351562,143.4459014892578,1.6907668240662577e+18,2.9462578125,-0.9046453976204614,0.7109256416996773,0.0816807118490005,-2.004652275583134,-0.6967939079850488,-0.028822659744348576,-1.479603030970835
3.0,1.690766824116365e+18,2.99636513671875,-5.728616599841118,12.083767833998799,-1.4416724751858412,1.6907668241201231e+18,3.000123193359375,-0.5192901611328125,1.9685089111328125,-0.09949951171875,1.690766824116365e+18,2.99636513671875,0.3531852303204313,9.73955986344993,0.953165583177805,1.690766824116365e+18,2.99636513671875,2.522997570037842,-7.470073986053467,1.584020447731018,1.6907668241201231e+18,3.000123193359375,2.396850562095642,-7.908453464508057,2.0255192458629607,,,,,,,,,,,,,1.690766824116365e+18,2.99636513671875,0.21168746948242187,49.40061721801758,19.2084716796875,1.6907668241193551e+18,2.9993552734375,38.00907592773437,71.145361328125,152.0847900390625,1.690766824116365e+18,2.99636513671875,1.9713602118237028,0.7171928577675974,-0.01719216452483218,2.0229398364583457,-0.6920652100825393,-0.05360631373066558,-1.4562712456275348
3.0500000000000003,1.6907668241664727e+18,3.04647275390625,-3.4780248368138076,8.601182206688524,-3.804456288354099,1.6907668241702308e+18,3.0502307617187503,-0.5205047607421875,1.9542572021484375,-0.2397308349609375,1.6907668241664727e+18,3.04647275390625,-2.6089039152139426,9.153918029822707,1.866589639980197,1.6907668241664727e+18,3.04647275390625,2.108371353149414,-2.7415699422359467,9.415057563781739,1.6907668241702308e+18,3.0502307617187503,2.156444454193115,-0.6434062480926513,9.212694072723389,,,,,,,,,,,,,1.6907668241664727e+18,3.04647275390625,-11.28795051574707,45.65484085083008,24.062774658203125,1.690766824169579e+18,3.04957900390625,21.376095581054688,66.19072570800782,155.0292938232422,1.6907668241664727e+18,3.04647275390625,0.9594262756132128,0.6028380280231357,-0.16996654444514636,0.7021304967390447,-0.7758830878966351,0.008252377950704961,-1.2270644352789304
3.1,1.69076682421658e+18,3.09658017578125,31.259967157970664,5.177905326724052,-9.88184020708859,1.6907668242203382e+18,3.100338134765625,2.8285430908203124,1.127923583984375,-0.629669189453125,1.69076682421658e+18,3.09658017578125,-3.9844143869322535,8.097254662769435,3.770910284844041,1.69076682421658e+18,3.09658017578125,1.0012683391571044,6.952338695526123,-0.45503997802734375,1.6907668242203382e+18,3.100338134765625,0.8858775198459625,5.869921910762787,-0.8542657762765884,,,,,,,,,,,,,1.69076682421658e+18,3.09658017578125,-26.638754272460936,35.43556900024414,29.181338500976562,1.690766824219809e+18,3.099808935546875,12.851483154296876,55.987060546875,163.0587921142578,1.69076682421658e+18,3.09658017578125,0.7483634826304464,0.5229265602697502,-0.13910159241164446,0.7577775873358976,-0.826579074673105,-0.14548637309966445,-0.9714768810484948
3.1500000000000004,1.6907668242666877e+18,3.1466876953125,9.361445980110762,-3.710742290320396,-9.052740564040542,1.6907668242704458e+18,3.150445654296875,0.6080078125,0.2422637939453125,-0.5228912353515625,1.6907668242666877e+18,3.1466876953125,-3.358224737434983,8.160396237050294,4.270532415880263,1.6907668242666877e+18,3.1466876953125,0.2367927461862564,-1.0327632427215576,-2.265122127532959,1.6907668242704458e+18,3.150445654296875,0.14921046309173108,-0.8971885323524476,-2.3071237087249754,,,,,,,,,,,,,1.6907668242666877e+18,3.1466876953125,-20.525322723388673,32.15950241088867,37.57252502441406,1.6907668242700365e+18,3.15003671875,18.432000732421876,54.79807739257812,168.4388641357422,1.6907668242666877e+18,3.1466876953125,0.8713792518733416,0.5473695818430999,-0.14714189718069284,0.9052869614700793,-0.8058573002186744,-0.17003932410570943,-0.9832239025217507
3.2,1.6907668243167951e+18,3.196795166015625,2.9874070609055456,-9.672027711446882,-8.922142942506671,1.6907668243205532e+18,3.200553125,-0.0182952880859375,-0.0188934326171875,-0.5001220703125,1.6907668243167951e+18,3.196795166015625,-2.396039309299141,8.620434370360375,3.9963724188470833,1.6907668243167951e+18,3.196795166015625,-1.4493285179138184,-0.9274657994508744,-2.6907724857330324,1.6907668243205532e+18,3.200553125,-1.651472818851471,-1.192020246386528,-2.8395192623138428,,,,,,,,,,,,,1.6907668243167951e+18,3.196795166015625,-18.326381301879884,33.81755828857422,37.397885131835935,1.6907668243202616e+18,3.2002615722656254,21.333682250976562,57.403717041015625,167.59774169921874,1.6907668243167951e+18,3.196795166015625,1.0427642077480868,0.5968493888636877,-0.1525347379166499,1.032613777082925,-0.7738327070492141,-0.14551774463777076,-1.0750789704416885
3.25,1.6907668243669028e+18,3.246902783203125,-4.7022956471771,6.729573394145964,-10.283058604065776,1.690766824370661e+18,3.250661181640625,-0.8445098876953125,2.293408203125,-0.811358642578125,1.6907668243669028e+18,3.246902783203125,-0.9919239620010739,9.414018931008577,2.3766566218893233,1.6907668243669028e+18,3.246902783203125,-5.26896858215332,2.4025938272476197,-3.97933976650238,1.690766824370661e+18,3.250661181640625,-5.61534013748169,3.9467188119888306,-3.729999828338623,,,,,,,,,,,,,1.6907668243669028e+18,3.246902783203125,-14.945367050170898,38.86925582885742,33.410153198242185,1.6907668243704863e+18,3.250486279296875,25.030218505859374,63.844183349609374,161.56747741699218,1.6907668243669028e+18,3.246902783203125,1.321478061248745,0.667287150259986,-0.12342338598961411,1.2217581226939263,-0.7306080472936548,-0.0537069390634945,-1.3019864201854108
