seconds_elapsed_rounded,accelerometer_time,accelerometer_seconds_elapsed,accelerometer_z,accelerometer_y,accelerometer_x,accelerometeruncalibrated_time,accelerometeruncalibrated_seconds_elapsed,accelerometeruncalibrated_z,accelerometeruncalibrated_y,accelerometeruncalibrated_x,gravity_time,gravity_seconds_elapsed,gravity_z,gravity_y,gravity_x,gyroscope_time,gyroscope_seconds_elapsed,gyroscope_z,gyroscope_y,gyroscope_x,gyroscopeuncalibrated_time,gyroscopeuncalibrated_seconds_elapsed,gyroscopeuncalibrated_z,gyroscopeuncalibrated_y,gyroscopeuncalibrated_x,location_time,location_seconds_elapsed,location_altitude,location_speedAccuracy,location_bearingAccuracy,location_latitude,location_altitudeAboveMeanSeaLevel,location_bearing,location_horizontalAccuracy,location_verticalAccuracy,location_longitude,location_speed,magnetometer_time,magnetometer_seconds_elapsed,magnetometer_z,magnetometer_y,magnetometer_x,magnetometeruncalibrated_time,magnetometeruncalibrated_seconds_elapsed,magnetometeruncalibrated_z,magnetometeruncalibrated_y,magnetometeruncalibrated_x,orientation_time,orientation_seconds_elapsed,orientation_yaw,orientation_qx,orientation_qz,orientation_roll,orientation_qw,orientation_qy,orientation_pitch
0.0,1.6907666617224463e+18,0.0184464111328125,1.0341302820146083,1.2183888250395656,-2.939423658981174,1.6907666617199424e+18,0.0159423828125,-0.8134689331054688,-0.19309234619140625,0.01102447509765625,1.6907666617224463e+18,0.0184464111328125,-8.861822972291709,-3.1367429052397604,2.791731197939813,1.6907666617224463e+18,0.0184464111328125,0.1924644187092781,1.4086082875728607,0.7669052481651306,1.6907666617199424e+18,0.0159423828125,0.24695200473070145,1.6833703517913818,0.7169283032417297,,,,,,,,,,,,,1.6907666617224463e+18,0.0184464111328125,-52.335872650146484,-1.1927337646484375,3.7474899291992188,1.6907666617195154e+18,0.015515380859375,-13.170318603515623,20.96343994140625,135.31219482421875,1.6907666617224463e+18,0.0184464111328125,-2.5009113038744775,-0.19280556836347815,0.9179292206515415,0.3051963698124469,-0.33050272742391484,0.10480747676978616,0.3255830564360326
0.05,1.6907666617575227e+18,0.053522705078124996,3.636836862345338,0.4932358202260733,-1.2970551253539324,1.6907666617550185e+18,0.05101855468750001,-0.5313201904296875,-0.2967010498046875,0.159307861328125,1.6907666617575227e+18,0.053522705078124996,-8.645267315226196,-3.456898403702676,3.0724753079906106,1.6907666617575227e+18,0.053522705078124996,-0.14316439665853972,0.7244439214468001,1.1164206385612487,1.6907666617550185e+18,0.05101855468750001,-0.12459205021150406,0.7755343914031982,1.127665913105011,,,,,,,,,,,,,1.6907666617575227e+18,0.053522705078124996,-52.0228157043457,-3.163638687133789,5.93096923828125,1.6907666617507072e+18,0.046707177734375,-13.340499877929688,19.19581298828125,136.72635803222656,1.6907666617575227e+18,0.053522705078124996,-2.5146382769997175,-0.21345378440517188,0.9128042783100943,0.3415540091033861,-0.3279738443921952,0.11642342151213543,0.3602898556442809
0.1,1.6907666618076314e+18,0.103631396484375,2.8395497062391044,-0.668664341776669,1.0436074276730418,1.6907666618051274e+18,0.10112744140625,-0.5636444091796875,-0.439404296875,0.4194976806640625,1.6907666618076314e+18,0.103631396484375,-8.555107619447112,-3.6645413878986233,3.0876174644473195,1.6907666618076314e+18,0.103631396484375,-0.5240220665931702,-1.1627513647079468,-0.0776512533426285,1.6907666618051274e+18,0.10112744140625,-0.5137338936328888,-1.0653313875198365,-0.009595200419425954,,,,,,,,,,,,,1.6907666618076314e+18,0.103631396484375,-51.59842071533203,-5.176287460327148,6.495272827148438,1.6907666618026993e+18,0.098699365234375,-12.9392333984375,17.494534301757813,136.80382080078124,1.6907666618076314e+18,0.103631396484375,-2.543081336089487,-0.2169158609144663,0.9143485272925822,0.34638469199004224,-0.31642718681000526,0.1292352297207343,0.38297649638540293
0.15000000000000002,1.6907666618577403e+18,0.15374013671875,-0.6004205343729258,-0.17941864332616328,1.1023084768362343,1.690766661855236e+18,0.151236181640625,-0.9526641845703125,-0.37054443359375,0.3696075439453125,1.6907666618577403e+18,0.15374013671875,-8.871699638661742,-3.384649744571745,2.4386558650411665,1.6907666618577403e+18,0.15374013671875,-0.2516046106815338,-1.6808592081069946,-0.7487338185310364,1.690766661855236e+18,0.151236181640625,-0.26967920064926143,-1.716263198852539,-0.7289332747459412,,,,,,,,,,,,,1.6907666618577403e+18,0.15374013671875,-51.80147933959961,-4.017825317382813,2.409552001953125,1.690766661854687e+18,0.1506869140625,-13.178036499023438,18.830511474609374,132.46080932617187,1.6907666618577403e+18,0.15374013671875,-2.55773017393608,-0.1760977407899264,0.9275394784386668,0.26835161236991345,-0.30329102807570674,0.12844460633865185,0.35240800029047464
0.2,1.690766661907849e+18,0.20384902343749997,-1.9189391866117718,0.3000284808787703,-0.06428127506136896,1.690766661905345e+18,0.20134497070312501,-1.121527099609375,-0.276190185546875,0.1908233642578125,1.690766661907849e+18,0.20384902343749997,-9.162293877788782,-2.9444541420421,1.8730706141103801,1.690766661907849e+18,0.20384902343749997,0.15359926000237464,-1.0625928044319153,-1.011044406890869,1.690766661905345e+18,0.20134497070312501,0.11904122084379196,-1.0671728134155274,-1.031543791294098,,,,,,,,,,,,,1.690766661907849e+18,0.20384902343749997,-51.96569061279297,-1.6412681579589843,-1.12467041015625,1.690766661906677e+18,0.20267695312500003,-13.332452392578125,21.273818969726562,129.0813018798828,1.690766661907849e+18,0.20384902343749997,-2.550347939363779,-0.13920799800026815,0.9361844612119068,0.20172984762052887,-0.3011667089370433,0.11559527983988196,0.30498824021532156
0.25,1.6907666619579581e+18,0.2539580078125,-1.7635190247017145,-0.3864331495863199,-0.5704100407387316,1.690766661955454e+18,0.25145400390625,-1.1346466064453125,-0.3033538818359375,0.0893585205078125,1.6907666619579581e+18,0.2539580078125,-9.308227132524847,-2.719744287711084,1.457581407457441,1.6907666619579581e+18,0.2539580078125,0.035596993565559384,-0.5998477935791016,-0.06585990665480498,1.690766661955454e+18,0.25145400390625,0.09891699254512787,-0.6005945980548859,-0.10219928580336272,,,,,,,,,,,,,1.6907666619579581e+18,0.2539580078125,-52.08952178955078,0.08397178649902344,-3.362934875488281,1.690766661953466e+18,0.24946624755859376,-13.37173843383789,22.75748062133789,126.98826599121095,1.6907666619579581e+18,0.2539580078125,-2.5296611923051966,-0.11531113874241801,0.9380308063979863,0.15533022202953467,-0.30770602066230685,0.1100026694927515,0.2810210312125365
0.30000000000000004,1.6907666620080668e+18,0.304066845703125,-0.16210159782230854,-0.41374528559505935,-0.01055516476653513,1.690766662005563e+18,0.301562744140625,-0.98037109375,-0.3268890380859375,0.1285430908203125,1.6907666620080668e+18,0.304066845703125,-9.331715910853145,-2.7575543199542163,1.217412322770655,1.6907666620080668e+18,0.304066845703125,-0.4575782001018524,-0.5318059265613556,0.1544045090675354,1.690766662005563e+18,0.301562744140625,-0.46501392126083374,-0.5482073843479156,0.1742713451385498,,,,,,,,,,,,,1.6907666620080668e+18,0.304066845703125,-51.92311172485351,-0.24077987670898438,-4.805599975585937,1.6907666620002627e+18,0.296262646484375,-13.26749267578125,22.425836181640626,125.49614868164062,1.6907666620080668e+18,0.304066845703125,-2.549187974744797,-0.10273056932281865,0.9420672124119918,0.12972355515868367,-0.29712231865177713,0.11682919805336718,0.28503701317151736
0.35000000000000003,1.6907666620581757e+18,0.3541755859375,1.273853347273469,-0.6774679428616166,-0.1333496382687986,1.6907666620556716e+18,0.35167158203125004,-0.82686767578125,-0.342767333984375,0.094879150390625,1.6907666620581757e+18,0.3541755859375,-9.377627299582958,-2.6353888942965864,1.130534600497782,1.6907666620581757e+18,0.3541755859375,-0.43839335441589355,-0.1380435951054096,-0.5336138188838959,1.6907666620556716e+18,0.35167158203125004,-0.4484095871448517,-0.14673516601324077,-0.5125115573406219,,,,,,,,,,,,,1.6907666620581757e+18,0.3541755859375,-51.6385986328125,-0.15806312561035157,-5.932376098632813,1.6907666620522542e+18,0.34825419921875,-12.982757568359375,22.615371704101562,124.45830993652343,1.6907666620581757e+18,0.3541755859375,-2.5717715848738387,-0.09506649092691406,0.9468106653328288,0.11997828156859969,-0.28577201698930893,0.11322324345493276,0.2720896120403352
0.4,1.6907666621082844e+18,0.4042845703125,2.212001510965824,-0.27137670837715266,-0.505378181118816,1.6907666621057807e+18,0.40178071289062495,-0.7457122802734375,-0.2662261962890625,0.06787109375,1.6907666621082844e+18,0.4042845703125,-9.460028051798343,-2.3390213616912066,1.0947708040338753,1.6907666621082844e+18,0.4042845703125,-0.1240229710936546,-0.32581086605787274,-0.5880355119705201,1.6907666621057807e+18,0.40178071289062495,-0.13272987008094783,-0.28617578148841855,-0.5904680371284485,,,,,,,,,,,,,1.6907666621082844e+18,0.4042845703125,-51.71740036010742,1.2714202880859375,-6.289302062988281,1.6907666621042458e+18,0.400245849609375,-13.088717651367187,24.107818603515625,124.09326477050782,1.6907666621082844e+18,0.4042845703125,-2.582119958918996,-0.0880527926343803,0.9506615203732773,0.11522217073038518,-0.28030118285890754,0.09948491699635308,0.24084408904439658
0.45,1.6907666621583933e+18,0.45439331054687504,3.0352871485859154,0.06274906783193346,-1.2810395762896536,1.6907666621558894e+18,0.45188940429687496,-0.6673858642578125,-0.2103363037109375,-0.0463592529296875,1.6907666621583933e+18,0.45439331054687504,-9.552064530460834,-2.0869865703220665,0.7345630181328952,1.6907666621583933e+18,0.45439331054687504,0.1432300791144371,-1.2342357635498047,-0.42782979011535643,1.6907666621558894e+18,0.45188940429687496,0.13127791583538054,-1.1761758685112,-0.44270036220550535,,,,,,,,,,,,,1.6907666621583933e+18,0.45439331054687504,-51.358036041259766,2.728298568725586,-7.982798767089844,1.6907666621562324e+18,0.452232470703125,-12.660101318359375,25.532022094726564,122.23148498535156,1.6907666621583933e+18,0.45439331054687504,-2.5796563900662153,-0.06630821938037772,0.9533763864915145,0.07677312196600564,-0.2794505305284424,0.0921796817165745,0.2144574424055458
0.5,1.6907666622085023e+18,0.50450224609375,4.344468648158907,1.0648285533303024,-1.8655633948984742,1.690766662205998e+18,0.50199814453125,-0.5486541748046875,-0.104620361328125,-0.21383056640625,1.6907666622085023e+18,0.50450224609375,-9.586363690425753,-2.015566032578349,-0.22131259301521813,1.6907666622085023e+18,0.50450224609375,0.30485892742872234,-2.8730185508728026,0.20670426264405245,1.690766662205998e+18,0.50199814453125,0.28172771036624905,-2.75744047164917,0.1741903882473707,,,,,,,,,,,,,1.6907666622085023e+18,0.50450224609375,-50.08281021118164,3.2696422576904296,-12.949179077148438,1.6907666622030236e+18,0.49902368164062494,-11.519405364990234,25.952781677246094,117.82170867919922,1.6907666622085023e+18,0.50450224609375,-2.569193418143473,-0.018153048055874317,0.9542667680767813,-0.023112995218926898,-0.27954078114278674,0.10236823589247716,0.2070069909493923
0.55,1.690766662258611e+18,0.554611083984375,6.702337129078506,2.206216965441108,-1.0960020409423112,1.690766662256107e+18,0.55210703125,-0.27054443359375,0.0093994140625,-0.308599853515625,1.690766662258611e+18,0.554611083984375,-9.346193933538794,-2.0496960026822983,-2.0637455415967105,1.690766662258611e+18,0.554611083984375,1.0872301578521728,-4.11731972694397,-0.2212051644921303,1.690766662256107e+18,0.55210703125,1.0563068866729737,-4.122598552703858,-0.15951125621795653,,,,,,,,,,,,,1.690766662258611e+18,0.554611083984375,-47.53033981323242,3.3395816802978517,-20.078205871582032,1.6907666622498153e+18,0.54581533203125,-8.56746826171875,26.106729125976564,109.57982482910157,1.690766662258611e+18,0.554611083984375,-2.5342376532526263,0.07155970451316648,0.946281806321411,-0.21723717975367487,-0.2846854162455371,0.13209712055763836,0.21056883285600456
0.6000000000000001,1.6907666623087194e+18,0.6047193359375,4.8642073922896385,3.854740660697222,0.9236099937042594,1.6907666623062154e+18,0.60221533203125,-0.3960479736328125,0.2174041748046875,-0.3332244873046875,1.6907666623087194e+18,0.6047193359375,-8.760231781916023,-1.5872520357264577,-4.056602372691035,1.6907666623087194e+18,0.6047193359375,1.8109406232833862,-4.582987976074219,-0.4263202968984842,1.6907666623062154e+18,0.60221533203125,1.7476948499679565,-4.469464921951294,-0.46813227608799934,1.6907666622892252e+18,0.58522509765625,57.657169342041016,-1.0,-1.0,49.27480636193656,76.69573974609375,-1.0,49.17869961891717,48.90576171875,-122.87192510848922,-1.0,1.6907666623087194e+18,0.6047193359375,-41.97422790527344,6.083966827392578,-29.223306274414064,1.690766662301805e+18,0.597804931640625,-2.8057891845703127,29.083718872070314,100.52413635253907,1.6907666623087194e+18,0.6047193359375,-2.476799864081667,0.17658988803929926,0.9251254164453945,-0.4334972109016125,-0.301106906780934,0.14522439152122235,0.1625920225729221
0.65,1.6907666623588278e+18,0.6548279296875,3.135744951017499,6.734584383401871,4.04704543979466,1.6907666623563238e+18,0.652323974609375,-0.40634765625,0.582806396484375,-0.24090576171875,1.6907666623588278e+18,0.6548279296875,-7.138820199277997,-0.856190617893301,-6.5812480420285455,1.6907666623588278e+18,0.6548279296875,3.871287298202515,-7.165591049194336,0.8248512327671051,1.6907666623563238e+18,0.652323974609375,3.7604038238525392,-7.067722797393799,0.7581108152866364,,,,,,,,,,,,,1.6907666623588278e+18,0.6548279296875,-32.031210327148436,10.83983268737793,-38.77158050537109,1.6907666623537917e+18,0.64979169921875,7.616094970703125,34.013491821289065,90.94774780273437,1.6907666623588278e+18,0.6548279296875,-2.3581663220004416,0.3195062255050642,0.8644365261724799,-0.7445280061876635,-0.34018330552547,0.17756011279749748,0.08745547205925523
0.7000000000000001,1.6907666624089367e+18,0.704936767578125,0.295083133431077,6.264131122156977,-1.8837250160807373,1.6907666624064328e+18,0.70243271484375,-0.395343017578125,0.701861572265625,-1.040850830078125,1.6907666624089367e+18,0.704936767578125,-4.301689478427171,0.6598404468223638,-8.722827407864333,1.6907666624089367e+18,0.704936767578125,5.172246646881104,-6.7247051239013675,1.113906240463257,1.6907666624064328e+18,0.70243271484375,5.138682460784912,-6.810683917999268,1.1195340514183045,,,,,,,,,,,,,1.6907666624089367e+18,0.704936767578125,-16.71452217102051,19.53050079345703,-44.593511962890624,1.6907666624057838e+18,0.701783740234375,23.1427001953125,43.040838623046874,85.75746154785156,1.6907666624089367e+18,0.704936767578125,-2.1787911928376706,0.48004821701862543,0.7420399986163453,-1.112998213715742,-0.40835570613063854,0.22031483426985687,-0.0674581241167791
0.75,1.6907666624540344e+18,0.7500346069335937,-5.167765625503659,4.0744598086819055,-8.17917885428816,1.6907666624565417e+18,0.752541552734375,-0.67667236328125,0.65989990234375,-1.822216796875,1.6907666624540344e+18,0.7500346069335937,-1.949522577456571,2.6493938707234337,-9.212003022140264,1.6907666624540344e+18,0.7500346069335937,5.2490047216415405,-5.299838304519653,2.2940236926078796,1.6907666624565417e+18,0.752541552734375,5.145558452606201,-5.017087173461914,2.263568139076233,,,,,,,,,,,,,1.6907666624540344e+18,0.7500346069335937,-5.354881763458252,29.66835117340088,-42.10998344421387,1.6907666624577746e+18,0.7537746582031251,34.50209045410156,54.14942321777344,89.68478393554688,1.6907666624540344e+18,0.7500346069335937,-2.035013977958207,0.5860222393420498,0.6085049819827394,-1.3629755748986427,-0.4770270586596079,0.23828407307275556,-0.2739510930047334
0.8,1.6907666624991327e+18,0.7951327148437499,-0.8356667172525822,-0.879728766401708,-12.276271818156243,1.6907666625066504e+18,0.802650390625,-0.1314117431640625,0.309600830078125,-2.14246826171875,1.6907666624991327e+18,0.7951327148437499,-0.8331815932124853,4.36371110876739,-8.726712374151944,1.6907666624991327e+18,0.7951327148437499,3.824449300765991,-2.304364013671875,1.849113154411316,1.6907666625066504e+18,0.802650390625,3.5653388023376467,-2.0693578720092773,1.7263127565383911,,,,,,,,,,,,,1.6907666624991327e+18,0.7951327148437499,-1.9992446899414062,37.42504119873047,-35.797698974609375,1.6907666625045688e+18,0.80056884765625,36.7501106262207,61.52671813964844,96.31065368652344,1.6907666624991327e+18,0.7951327148437499,-1.8986216223513572,0.630861468944113,0.49538041837674796,-1.4760327465044614,-0.5440543028767598,0.24386356245058455,-0.46181041304363457
0.8500000000000001,1.6907666625492413e+18,0.8452414062500001,-0.3309084654369205,-4.925986796758771,-12.350686598505973,1.6907666625567593e+18,0.8527591796874999,-0.0778656005859375,0.037127685546875,-2.0257110595703125,1.6907666625492413e+18,0.8452414062500001,-0.4462494007563218,5.544618578222393,-8.071972571283577,1.6907666625492413e+18,0.8452414062500001,1.952063751220703,-1.7254927158355713,1.5728659152984619,1.6907666625567593e+18,0.8527591796874999,1.6941621780395508,-1.7568963527679444,1.6475043535232543,,,,,,,,,,,,,1.6907666625492413e+18,0.8452414062500001,-1.9378158569335937,41.79339065551758,-30.67552032470703,1.6907666625513585e+18,0.8473584472656249,36.508111572265626,65.35807800292969,101.13716430664063,1.6907666625492413e+18,0.8452414062500001,-1.7925679825221839,0.6470015341261545,0.41457979992132055,-1.5157144510116194,-0.5919780872199673,0.2421257637031075,-0.6011501400649112
0.9,1.6907666625993505e+18,0.8953503906250001,0.9917942894731088,-6.64502686207354,-9.440170791066288,1.6907666626068682e+18,0.9028682617187499,0.172003173828125,-0.0910858154296875,-1.7069976806640625,1.6907666625993505e+18,0.8953503906250001,-0.35209346033487465,5.960734100080133,-7.778897504352331,1.6907666625993505e+18,0.8953503906250001,0.33978315703570844,-1.3493751764297486,2.2836957216262816,1.6907666626068682e+18,0.9028682617187499,0.11709989309310913,-1.1266833424568177,2.207350468635559,,,,,,,,,,,,,1.6907666625993505e+18,0.8953503906250001,-3.279917907714844,43.70804977416992,-27.739259338378908,1.6907666626033485e+18,0.89934833984375,34.35745849609375,66.4651092529297,103.0695556640625,1.6907666625993505e+18,0.8953503906250001,-1.6686871671996315,0.6405406333275114,0.3582307351483322,-1.5255529101965437,-0.6240128982249159,0.2675956074667982,-0.6533265903356209
0.9500000000000001,1.6907666626494592e+18,0.945459130859375,6.070669924952983,-6.898214739774465,-5.429597179100513,1.690766662656977e+18,0.9529769531250001,0.6051513671875,-0.0968505859375,-1.2798614501953125,1.6907666626494592e+18,0.945459130859375,-0.5553272351733968,5.7924523523181675,-7.89245841708064,1.6907666626494592e+18,0.945459130859375,-0.8864010572433472,-0.38113413453102113,0.855314627289772,1.690766662656977e+18,0.9529769531250001,-0.9724464535713195,-0.21729716062545773,0.5092638850212097,,,,,,,,,,,,,1.6907666626494592e+18,0.945459130859375,-6.212290191650391,43.056417083740236,-28.235311889648436,1.6907666626553385e+18,0.95133857421875,32.036807250976565,65.24364929199218,101.83932800292969,1.6907666626494592e+18,0.945459130859375,-1.566115077017531,0.6182454650256278,0.3403038023782675,-1.5005735305457586,-0.6422653302949888,0.2989572042150813,-0.6319522836605479
1.0,1.6907666626995679e+18,0.99556796875,8.090138927093147,-3.275603620467186,-0.9811206932651995,1.6907666627070858e+18,1.003085693359375,0.7214996337890625,0.26705322265625,-0.9109649658203125,1.6907666626995679e+18,0.99556796875,-0.664582230868712,5.334587822107077,-8.199266358192563,1.6907666626995679e+18,0.99556796875,-1.471234917640686,1.6304168701171875,-1.3865102767944335,1.6907666627070858e+18,1.003085693359375,-1.5876737594604493,1.8515120983123778,-1.506633734703064,,,,,,,,,,,,,1.6907666626995679e+18,0.99556796875,-6.445413589477539,41.440026092529294,-30.39317626953125,1.6907666627073326e+18,1.003332568359375,32.19206237792969,63.543023681640626,99.49388427734377,1.6907666626995679e+18,0.99556796875,-1.5932727696235278,0.6105627675151596,0.36942678859625555,-1.490040758706369,-0.6301305373758915,0.3054509445450858,-0.57528981702812
1.05,1.690766662749677e+18,1.045676953125,0.4219010026174783,-0.13435562966704354,-0.39802562151134013,1.6907666627571948e+18,1.05319482421875,-0.185540771484375,0.48792724609375,-0.9008026123046875,1.690766662749677e+18,1.045676953125,-0.9113057202480734,4.649909801736176,-8.582146199211477,1.690766662749677e+18,1.045676953125,-1.7505306243896483,-0.18857160806655884,-0.36746627688407896,1.6907666627571948e+18,1.05319482421875,-1.6611055374145507,-0.8312591224908829,0.04479019045829773,,,,,,,,,,,,,1.690766662749677e+18,1.045676953125,-6.295539855957031,38.985547637939455,-33.40397491455078,1.69076666275413e+18,1.0501298828125,32.42906188964844,61.00314712524414,96.53803634643555,1.690766662749677e+18,1.045676953125,-1.6740522825528656,0.6033163986336942,0.42584436590984376,-1.4649083789078152,-0.6041429716691276,0.29912427594015056,-0.4941710984145553
1.1,1.6907666627997857e+18,1.095785791015625,-2.970359392314553,0.7516026787739991,0.5996425357377528,1.6907666628073034e+18,1.1033034667968749,-0.3384521484375,0.4643646240234375,-0.890264892578125,1.6907666627997857e+18,1.095785791015625,-0.39534949763726435,4.012589218797982,-8.936611379033327,1.6907666627997857e+18,1.095785791015625,-1.2419050097465516,-1.865668535232544,1.4371092557907104,1.6907666628073034e+18,1.1033034667968749,-1.3418604373931884,-1.782295036315918,1.5104055166244508,1.69076666282652e+18,1.12252001953125,82.97088623046875,0.6200000047683716,12.929959617731631,49.275024337739936,102.00945663452148,1.0546875,7.9718752297158675,16.0,-122.87253233615576,3.0999999046325684,1.6907666627997857e+18,1.095785791015625,-4.95419921875,36.61664810180664,-36.05617828369141,1.69076666280092e+18,1.096920166015625,33.935552978515624,58.65873718261719,93.81175537109375,1.6907666627997857e+18,1.095785791015625,-1.6397529602218128,0.5971878119927914,0.41792296332772316,-1.5264594934629747,-0.5877539236588409,0.3506022736394865,-0.42161122161033565
1.1500000000000001,1.6907666628498944e+18,1.145894384765625,-5.854892617235779,1.1076017024865745,1.7686339419496058,1.690766662857412e+18,1.1534121582031251,-0.6709197998046875,0.4605072021484375,-0.694635009765625,1.6907666628498944e+18,1.145894384765625,-0.0102730122829572,3.2880327770251037,-9.236178964402079,1.6907666628498944e+18,1.145894384765625,-1.511668586730957,-0.7655200213193893,1.771758484840393,1.690766662857412e+18,1.1534121582031251,-1.2802121818065644,-0.3088460385799408,1.7739641904830932,,,,,,,,,,,,,1.6907666628498944e+18,1.145894384765625,-4.222175598144531,33.46609878540039,-39.110205078125,1.6907666628477115e+18,1.1437115478515625,34.31284713745117,55.345191955566406,90.90128707885742,1.6907666628498944e+18,1.145894384765625,-1.5545591829900478,0.5740578191577581,0.4032599533451554,-1.5696543540584273,-0.5812901142068712,0.411842872556769,-0.34200109004942475
1.2000000000000002,1.6907666629000033e+18,1.1960033203125,-1.9225263097704945,0.5863396943113208,2.3143179761022328,1.6907666629075213e+18,1.20352119140625,-0.146563720703125,0.34136962890625,-0.741143798828125,1.6907666629000033e+18,1.1960033203125,-0.5990767696942016,2.9550737357339263,-9.326246422626971,1.6907666629000033e+18,1.1960033203125,-0.047011430375278024,1.982709813117981,1.068436747789383,1.6907666629075213e+18,1.20352119140625,0.03375737816095352,2.183482623100281,0.8748391509056092,,,,,,,,,,,,,1.6907666629000033e+18,1.1960033203125,-6.234657287597656,31.324088287353515,-40.37858428955078,1.690766662910709e+18,1.2067091064453126,30.32522964477539,53.35906219482422,90.14944458007812,1.6907666629000033e+18,1.1960033203125,-1.4755038885633567,0.5370047365655528,0.40759414448300746,-1.506660528536767,-0.6035618159237149,0.42536744213395583,-0.30609144350382184
1.25,1.690766662950112e+18,1.246112109375,1.485780321625024,1.1833954284262655,4.232895694377421,1.69076666295763e+18,1.25362998046875,-0.0338134765625,0.4685333251953125,-0.396453857421875,1.690766662950112e+18,1.246112109375,-1.765811928718388,3.013250556440353,-9.157588359672427,1.690766662950112e+18,1.246112109375,0.5118720352649688,2.29407799243927,0.22831429243087764,1.69076666295763e+18,1.25362998046875,0.754087433218956,2.067474889755249,0.2098287552595138,,,,,,,,,,,,,1.690766662950112e+18,1.246112109375,-11.507231521606446,30.64055480957031,-39.59773559570313,1.690766662955886e+18,1.251885986328125,25.567843627929687,53.354559326171874,91.55352478027343,1.690766662950112e+18,1.246112109375,-1.4511990375111532,0.507006153740226,0.43137931764440696,-1.3802481879368278,-0.6354755184280549,0.3907955044573194,-0.31232450231492503
1.3,1.690766663000221e+18,1.29622099609375,-1.4119350701785087,4.633643492781221,4.269533175709844,1.690766663007739e+18,1.303738818359375,-0.4212615966796875,0.8723724365234375,-0.64420166015625,1.690766663000221e+18,1.29622099609375,-2.419116905704141,3.6398798833030463,-8.772877211573123,1.690766663000221e+18,1.29622099609375,2.563826084136963,0.06703588329255585,1.367305290699005,1.690766663007739e+18,1.303738818359375,2.6976492404937744,-0.10201185271143913,1.6840785264968872,1.690766663013246e+18,1.309245849609375,58.676513671875,1.0099999904632568,20.851669366173073,49.275016458750954,77.71508407592773,355.4296875,8.460292779728276,4.0,-122.8725123872262,3.119999885559082,1.690766663000221e+18,1.29622099609375,-16.007816314697266,31.838099670410156,-36.96043243408203,1.6907666630060856e+18,1.30208544921875,21.756149291992188,55.313229370117185,94.66546936035157,1.690766663000221e+18,1.29622099609375,-1.4062112457884293,0.49953275224821914,0.41760953330585693,-1.3015811456066508,-0.6697176654735513,0.35649930586885364,-0.3804581652296132
1.35,1.6907666630503296e+18,1.346329736328125,2.9785893436169624,2.987489799979031,-5.5219770059210065,1.6907666630578478e+18,1.35384765625,0.02489013671875,0.7671173095703125,-1.4131134033203125,1.6907666630503296e+18,1.346329736328125,-2.7595796298497914,4.5166264774757625,-8.250458434578182,1.6907666630503296e+18,1.346329736328125,2.3181697368621825,0.23423892706632615,1.2974745333194733,1.6907666630578478e+18,1.35384765625,2.2262056827545167,0.3649542614817619,0.9791759520769119,,,,,,,,,,,,,1.6907666630503296e+18,1.346329736328125,-18.894200134277344,34.849996948242186,-32.85066375732422,1.6907666630562836e+18,1.352283544921875,18.790939331054688,58.148599243164064,98.90545043945312,1.6907666630503296e+18,1.346329736328125,-1.2747952161992253,0.492560448803162,0.3577903627423888,-1.2477852388868964,-0.7158082411360435,0.34152765048558675,-0.4787999243105633
1.4000000000000001,1.6907666631004388e+18,1.39643876953125,-0.23854215568512677,4.519110344793797,-2.5383036078119274,1.6907666631079562e+18,1.40395634765625,-0.3522613525390625,1.06490478515625,-0.92392578125,1.6907666631004388e+18,1.39643876953125,-3.1303090727999807,5.2927471607214205,-7.6322649276274435,1.6907666631004388e+18,1.39643876953125,2.1957937240600587,0.9695911526679992,0.28199529945850366,1.6907666631079562e+18,1.40395634765625,2.298988103866577,1.119561493396759,0.23772206529974937,,,,,,,,,,,,,1.6907666631004388e+18,1.39643876953125,-21.367190551757812,37.298240661621094,-28.47807922363281,1.6907666631064817e+18,1.40248173828125,16.734912109375,60.657797241210936,103.44438171386719,1.6907666631004388e+18,1.39643876953125,-1.2021836374482608,0.49505199039915065,0.32156691819276045,-1.1811693734525441,-0.7456921443274822,0.30850558033764586,-0.5703210270598882
1.4500000000000002,1.6907666631505475e+18,1.446547412109375,0.053428223326802284,6.186045661244392,1.9634020131945609,1.6907666631580652e+18,1.45406513671875,-0.36627197265625,1.268634033203125,-0.4640411376953125,1.6907666631505475e+18,1.446547412109375,-3.602772446371317,6.238005799393058,-6.63622513145864,1.6907666631505475e+18,1.446547412109375,3.182836818695068,1.4069155693054198,-0.22983686923980712,1.6907666631580652e+18,1.45406513671875,3.326032114028931,1.351156735420227,-0.28498640954494475,,,,,,,,,,,,,1.6907666631505475e+18,1.446547412109375,-23.093839645385742,40.077265930175784,-22.810751342773436,1.6907666631566794e+18,1.452679541015625,15.056280517578125,63.637457275390624,109.88675231933594,1.6907666631505475e+18,1.446547412109375,-1.1303646774228864,0.5033137319300642,0.2874144127345808,-1.0721973445310047,-0.7751606332012897,0.25014749629079,-0.690145677833152
1.5,1.6907666632006561e+18,1.496656201171875,0.24140210438698534,3.112800011855364,-1.642312916369438,1.690766663208174e+18,1.504173974609375,-0.372418212890625,0.9829254150390625,-0.8007080078125,1.6907666632006561e+18,1.496656201171875,-3.8273175824338197,7.328792034609317,-5.252179646463692,1.6907666632006561e+18,1.496656201171875,3.2803107261657716,0.5578456928022206,-0.23822923973202706,1.690766663208174e+18,1.504173974609375,3.0480881214141844,0.24150609374046325,-0.08284641206264495,,,,,,,,,,,,,1.6907666632006561e+18,1.496656201171875,-24.003516006469727,43.43758010864258,-14.45712890625,1.6907666632068764e+18,1.502876318359375,14.59525146484375,66.88973999023438,118.5817138671875,1.6907666632006561e+18,1.496656201171875,-1.0236730801886949,0.5213515893669385,0.23663685625795047,-0.9393197792620253,-0.7992896412997826,0.18089229907357152,-0.845005002726561
1.55,1.690766663250765e+18,1.5467649414062499,1.9616701917397976,-1.5415328085678817,-6.112643857329488,1.6907666632582828e+18,1.554282763671875,-0.136920166015625,0.6169525146484375,-1.0598236083984376,1.690766663250765e+18,1.5467649414062499,-3.8833160654139514,7.83472156600058,-4.437615016985535,1.690766663250765e+18,1.5467649414062499,1.3993156909942628,-0.7267370611429214,0.5130270838737487,1.6907666632582828e+18,1.554282763671875,1.1671811580657958,-0.5015242174267769,0.42749914322048427,,,,,,,,,,,,,1.690766663250765e+18,1.5467649414062499,-24.3035099029541,45.09520950317383,-7.336082458496094,1.6907666632570724e+18,1.553072412109375,13.937417602539062,67.68981323242187,124.29033203125,1.690766663250765e+18,1.5467649414062499,-0.8831580634968814,0.5256009665941979,0.18150630678063723,-0.85174492555664,-0.8154126292958976,0.16046019042726073,-0.9255492195514113
1.6,1.6907666633008745e+18,1.5968744140625,2.576454474768936,-5.076201557432412,-8.533070793492794,1.6907666633083924e+18,1.604392333984375,-0.195294189453125,0.215533447265625,-1.397119140625,1.6907666633008745e+18,1.5968744140625,-3.9178057210627193,7.926289141203165,-4.241461161244511,1.6907666633008745e+18,1.5968744140625,-0.6294244349002838,0.3112381875514984,-0.1401662357151508,1.6907666633083924e+18,1.604392333984375,-1.122808688879013,0.27813409045338633,-0.2404138252139091,,,,,,,,,,,,,1.6907666633008745e+18,1.5968744140625,-25.14442253112793,44.99365921020508,-4.949252319335938,1.6907666633072717e+18,1.6032715332031249,13.4504638671875,67.67825927734376,125.83896179199219,1.6907666633008745e+18,1.5968744140625,-0.8485500821900753,0.5256724256085638,0.1704783396582373,-0.8249853909548588,-0.8189381942432723,0.15463869853475992,-0.9412058750330221
1.6500000000000001,1.6907666633509837e+18,1.6469836914062501,1.5207822230318189,-4.624080656213761,-8.554177528216242,1.6907666633585014e+18,1.6545013183593749,-0.271807861328125,0.34844970703125,-1.3522491455078125,1.6907666633509837e+18,1.6469836914062501,-3.6879236078864333,7.543779536349177,-5.047731074394882,1.6907666633509837e+18,1.6469836914062501,-3.0056039810180666,-0.8145339116454124,-0.9913173794746399,1.6907666633585014e+18,1.6545013183593749,-3.0997526168823244,-1.3933394595980644,-0.9132077842950821,,,,,,,,,,,,,1.6907666633509837e+18,1.6469836914062501,-24.525377655029295,45.05448989868164,-6.754916381835938,1.690766663357467e+18,1.65346689453125,14.594345092773438,67.65679016113282,122.2147216796875,1.6907666633509837e+18,1.6469836914062501,-0.9908148841390381,0.5286699954204519,0.21470489323012645,-0.9381341916401539,-0.8009779601359105,0.17968931653012138,-0.878062434277276
1.7000000000000002,1.6907666634010924e+18,1.6970922851562498,2.5606996809196465,-2.8825167413061856,-6.651115943502783,1.69076666340861e+18,1.7046101074218751,0.0500701904296875,0.3932525634765625,-1.361749267578125,1.6907666634010924e+18,1.6970922851562498,-2.724163740814626,6.676308252426385,-6.613180122148989,1.6907666634010924e+18,1.6970922851562498,-4.126145124435425,-2.0519324839115143,-1.517652003467083,1.69076666340861e+18,1.7046101074218751,-4.467423820495606,-1.5565029501914978,-1.9136855065822602,,,,,,,,,,,,,1.6907666634010924e+18,1.6970922851562498,-21.599681091308593,44.31198959350586,-14.560859680175781,1.6907666634076644e+18,1.703664306640625,18.12934265136719,66.41061096191406,113.09983520507812,1.6907666634010924e+18,1.6970922851562498,-1.167494916694514,0.5397592074062206,0.25676821910087033,-1.1770950476143998,-0.756542899162663,0.26291707340341475,-0.749843309305812
1.75,1.6907666634512013e+18,1.7472013183593749,-1.9666138148479164,2.6967804684919114,4.62766202183187,1.6907666634587192e+18,1.754719140625,-0.4252685546875,0.80653076171875,-0.1240753173828125,1.6907666634512013e+18,1.7472013183593749,-1.634415046565607,5.144469797851145,-8.158989760479331,1.6907666634512013e+18,1.7472013183593749,-4.509461307525635,-1.301998209953308,-1.9868247270584107,1.6907666634587192e+18,1.754719140625,-4.072411298751831,-1.4571102380752563,-1.6935697078704834,,,,,,,,,,,,,1.6907666634512013e+18,1.7472013183593749,-16.305839920043944,41.478939056396484,-25.36097106933594,1.6907666634578621e+18,1.75386220703125,24.066488647460936,62.859945678710936,102.27420043945312,1.6907666634512013e+18,1.7472013183593749,-1.3914526736409685,0.5533582130264711,0.34408371158109574,-1.3714380445449286,-0.6811623201274651,0.3317577042352414,-0.5532741470829262
1.8,1.69076666350131e+18,1.7973100585937503,-1.9270224229198694,-1.1513446903622149,7.619292282616496,1.690766663508828e+18,1.8048279296875003,-0.16407470703125,0.2671722412109375,-0.17742919921875,1.69076666350131e+18,1.7973100585937503,-0.5923960041554923,3.8674467637264724,-8.981383534600138,1.69076666350131e+18,1.7973100585937503,-2.1871509313583375,-2.2337618589401247,-0.47086737155914304,1.690766663508828e+18,1.8048279296875003,-1.9835158586502075,-2.3415430545806886,-0.44447768926620485,,,,,,,,,,,,,1.69076666350131e+18,1.7973100585937503,-10.447591018676757,36.73896102905273,-34.200830078125,1.6907666635080576e+18,1.8040576171875,29.568609619140624,58.1709716796875,94.79696960449219,1.69076666350131e+18,1.7973100585937503,-1.4802862583471312,0.5600259298290595,0.38067369711565624,-1.5044543913773523,-0.6205547124608332,0.3947794256609578,-0.40558243453050524
1.85,1.690766663551419e+18,1.8474189941406252,1.0136729620703868,1.7607735838380456,5.70311402669847,1.6907666635589366e+18,1.8549367187499999,0.1847442626953125,0.516900634765625,-0.427374267578125,1.690766663551419e+18,1.8474189941406252,0.49958230865585607,3.167391433742642,-9.262872793155909,1.690766663551419e+18,1.8474189941406252,-0.970704460144043,-1.8448050260543822,-0.2506887197494506,1.6907666635589366e+18,1.8549367187499999,-0.8206378638744354,-1.5062968134880066,-0.2362210541963577,,,,,,,,,,,,,1.690766663551419e+18,1.8474189941406252,-5.283169937133789,33.140734100341795,-38.640359497070314,1.6907666635582533e+18,1.8542533203125,34.65208129882812,55.117242431640626,91.18315734863282,1.690766663551419e+18,1.8474189941406252,-1.5008508066776365,0.5706817652013161,0.37581866074945613,-1.624543086420752,-0.5772230754740125,0.4468296210048074,-0.32891298826848303
1.9000000000000001,1.6907666636015278e+18,1.897527783203125,-0.5120975671147555,2.842228336250782,4.806590835814476,1.6907666636040346e+18,1.9000344848632813,0.03281402587890625,0.5927352905273438,-0.4322395324707031,1.6907666636015278e+18,1.897527783203125,0.9283892200309036,2.9475495946133137,-9.306881329326032,1.6907666636015278e+18,1.897527783203125,0.20132944583892823,-0.16536992937326428,-0.22221195832826196,1.6907666636040346e+18,1.9000344848632813,0.27536279521882534,-0.15061034727841613,-0.21411588322371244,,,,,,,,,,,,,1.6907666636015278e+18,1.897527783203125,-1.765129852294922,31.502003479003907,-40.431454467773435,1.6907666636084477e+18,1.904447705078125,37.21182556152344,54.057070922851565,90.00458984375,1.6907666636015278e+18,1.897527783203125,-1.5139833981640796,0.577378926285053,0.373561609828928,-1.6702230892178604,-0.5595654432690428,0.46256093578708446,-0.3052886018864162
1.9500000000000002,1.6907666636516367e+18,1.947636669921875,0.2053572697985171,7.030027465412616,-3.557602114493251,1.6907666636491328e+18,1.9451327636718752,0.1150115966796875,1.03831787109375,-1.2362640380859375,1.6907666636516367e+18,1.947636669921875,1.3175343904418497,3.1610715246191616,-9.185386817893384,1.6907666636516367e+18,1.947636669921875,0.21011003255844116,-1.1031100749969482,-1.4714405596256257,1.6907666636491328e+18,1.9451327636718752,0.30151882320642476,-1.1339990943670273,-1.348377537727356,,,,,,,,,,,,,1.6907666636516367e+18,1.947636669921875,-0.35380706787109373,32.14971771240234,-40.104331970214844,1.6907666636586406e+18,1.9546406250000001,39.10556640625,55.111386108398435,90.74487915039063,1.6907666636516367e+18,1.947636669921875,-1.5466858046570577,0.5973036568724561,0.36291089477094923,-1.7132660926242789,-0.5486300143993199,0.4585820111785196,-0.3282050743723687
2.0,1.6907666637017452e+18,1.9977453125,2.238652903430462,-0.43587358922511343,3.090359164370894,1.6907666636992415e+18,1.9952413574218748,0.409454345703125,0.29635009765625,-0.64415283203125,1.6907666637017452e+18,1.9977453125,1.6237334497143325,3.0135909819889064,-9.188959649491904,1.6907666637017452e+18,1.9977453125,0.5018603086471558,1.123673176765442,-1.471546459197998,1.6907666636992415e+18,1.9952413574218748,0.4263256326317787,1.1087270379066467,-1.5740974307060243,,,,,,,,,,,,,1.6907666637017452e+18,1.9977453125,3.482888031005859,32.31931381225586,-39.80343170166016,1.6907666637088353e+18,2.0048353515625,42.58705139160156,54.913150024414065,90.77719421386719,1.6907666637017452e+18,1.9977453125,-1.6468297621377714,0.6229662620581611,0.3846398656750239,-1.7456725540531184,-0.5188426821429235,0.4410763512705692,-0.3123630450090979
2.0500000000000003,1.690766663751854e+18,2.047854150390625,0.9031325844733417,-2.0066289266937973,-3.0634487118047473,1.6907666637493501e+18,2.04535009765625,0.255084228515625,0.1302947998046875,-1.2578277587890625,1.690766663751854e+18,2.047854150390625,1.3168311959955097,3.307638225727081,-9.136475195208192,1.690766663751854e+18,2.047854150390625,1.1359104990959168,1.4235042810440064,-1.916545581817627,1.6907666637493501e+18,2.04535009765625,1.0827541589736938,1.3555122375488282,-1.8313053846359253,,,,,,,,,,,,,1.690766663751854e+18,2.047854150390625,3.884796142578125,33.205552673339845,-39.25830841064453,1.690766663754009e+18,2.050008972167969,42.42987823486328,56.13500213623047,91.53292846679688,1.690766663751854e+18,2.047854150390625,-1.7231990043626157,0.6379337514499351,0.40530033681947336,-1.713901329667636,-0.5181884810749169,0.39982243379635024,-0.3440574655865835
2.1,1.690766663801963e+18,2.09796318359375,-3.383851696835756,0.35476609169065954,-0.14832418307363976,1.690766663799459e+18,2.095459130859375,-0.28092041015625,0.4260589599609375,-0.9191070556640625,1.690766663801963e+18,2.09796318359375,0.7443041777158529,3.952402402669489,-8.93788014224708,1.690766663801963e+18,2.09796318359375,1.901735496520996,2.297192859649658,-1.4947800040245056,1.690766663799459e+18,2.095459130859375,1.9191340684890748,2.3201504707336427,-1.5680635571479797,,,,,,,,,,,,,1.690766663801963e+18,2.09796318359375,3.8766632080078125,35.53981018066406,-37.40220336914062,1.690766663799182e+18,2.095182177734375,42.412252807617186,58.417727661132815,93.38070373535156,1.690766663801963e+18,2.09796318359375,-1.8425007684300383,0.6574919117787956,0.4361462660156489,-1.6536120364424907,-0.521299438339818,0.3242333809868965,-0.4149776419911018
2.15,1.690766663852072e+18,2.14807197265625,0.21114286015611144,-1.8373565312331912,0.3162358115750552,1.6907666638495677e+18,2.145567919921875,0.05047607421875,0.2917694091796875,-0.871484375,1.690766663852072e+18,2.14807197265625,0.24333636038519435,4.541517582269608,-8.687352306761742,1.690766663852072e+18,2.14807197265625,0.9286095857620239,0.4249697685241699,-0.6830240368843079,1.6907666638495677e+18,2.145567919921875,0.946540379524231,0.5775875359773636,-0.7087709128856658,,,,,,,,,,,,,1.690766663852072e+18,2.14807197265625,2.4766387939453125,38.50578384399414,-34.62987518310547,1.6907666638493745e+18,2.14537451171875,40.95684814453125,61.334432983398436,96.15340881347656,1.690766663852072e+18,2.14807197265625,-1.9046300262532783,0.6636126475590978,0.4525000196442731,-1.5987952788954196,-0.5318208836237833,0.26823075396943896,-0.4815339258807179
2.2,1.6907666639021809e+18,2.198180712890625,-4.1779571833920475,0.7464507612904907,-0.2591055773121118,1.6907666638996767e+18,2.1956767578125,-0.3552032470703125,0.559820556640625,-0.86268310546875,1.6907666639021809e+18,2.198180712890625,0.5643588363279403,5.133708165340126,-8.328955515805482,1.6907666639021809e+18,2.198180712890625,2.338575911521912,-0.8680559456348419,0.48971393406391145,1.6907666638996767e+18,2.1956767578125,2.21716468334198,-0.9456107288599014,0.4006078280508518,,,,,,,,,,,,,1.6907666639021809e+18,2.198180712890625,3.1792037963867186,40.350005340576175,-32.41173400878906,1.690766663899568e+18,2.195568115234375,41.88394470214844,63.16221618652344,98.39237365722657,1.6907666639021809e+18,2.198180712890625,-1.9202391859020593,0.6824348388816865,0.42403918416245706,-1.6386880805689663,-0.5395651805422308,0.250966072350838,-0.5513079074820031
2.25,1.6907666639522893e+18,2.248289453125,-3.064803516640663,2.594183900465965,-3.659747899237871,1.6907666639497856e+18,2.245785546875,-0.327655029296875,0.935089111328125,-1.123223876953125,1.6907666639522893e+18,2.248289453125,0.004325600807629515,6.450301811639666,-7.357949272415041,1.6907666639522893e+18,2.248289453125,3.9065056324005125,1.400068473815918,2.0877197265625,1.6907666639497856e+18,2.245785546875,3.8829324722290037,1.3750114679336547,2.04241406917572,,,,,,,,,,,,,1.6907666639522893e+18,2.248289453125,2.466780090332031,44.28239974975586,-26.998956298828126,1.6907666639497608e+18,2.245760693359375,40.761138916015625,67.30484924316406,104.16753540039062,1.6907666639522893e+18,2.248289453125,-1.8445775997523124,0.6779258095612135,0.37732360017537425,-1.5690387357385638,-0.5972836470698508,0.2004443377004515,-0.7192015710202386
2.3000000000000003,1.6907666640023985e+18,2.29839833984375,1.7675837606965004,1.6851194417256117,-2.680489492713213,1.6907666639998943e+18,2.295894287109375,0.0425140380859375,0.9287384033203125,-0.888775634765625,1.6907666640023985e+18,2.29839833984375,-1.1940527383930235,7.67351615713954,-5.961381516525149,1.6907666640023985e+18,2.29839833984375,3.565200424194336,0.35195723474025725,2.439463996887207,1.6907666639998943e+18,2.295894287109375,3.630555248260498,0.43122617453336715,2.448783206939697,1.690766664019525e+18,2.315525146484375,58.60882568359375,1.090000033378601,42.67444819834939,49.27501323171823,77.64739608764648,26.015625,4.460464895601471,4.0,-122.87240317102788,3.0999999046325684,1.6907666640023985e+18,2.29839833984375,-3.834738922119141,48.52991714477539,-18.140516662597655,1.690766663999955e+18,2.2959549804687502,34.19182434082031,71.4333282470703,113.19588317871094,1.6907666640023985e+18,2.29839833984375,-1.6520715971097144,0.6479404230419256,0.32576564224294813,-1.3697452241678219,-0.6738267717547799,0.137977192271432,-0.8998464979928725
2.35,1.6907666640525071e+18,2.348507177734375,4.653635252000093,1.4101246889817713,-3.7454455302676557,1.6907666640500032e+18,2.346003125,0.25260009765625,1.0249176025390625,-0.87742919921875,1.6907666640525071e+18,2.348507177734375,-2.0702616454924643,8.278132038923502,-4.819092648443282,1.6907666640525071e+18,2.348507177734375,2.1947943210601806,0.5417963981628418,1.3305464029312133,1.6907666640500032e+18,2.346003125,2.2291730403900147,0.5498019821941853,1.4043533086776734,,,,,,,,,,,,,1.6907666640525071e+18,2.348507177734375,-9.958977127075196,50.26758346557617,-9.850962829589843,1.6907666640501476e+18,2.34614755859375,28.193377685546874,72.96594848632813,121.29660339355469,1.6907666640525071e+18,2.348507177734375,-1.423947678799133,0.6196989632603596,0.27784802514708584,-1.1631268358661004,-0.7267501293841632,0.10124909780109537,-1.0053075303572752
2.4000000000000004,1.6907666641026158e+18,2.39861591796875,6.066249127449095,-7.849633888450265,-3.0213099442553517,1.690766664100112e+18,2.39611201171875,0.397064208984375,0.103369140625,-0.7430450439453125,1.6907666641026158e+18,2.39861591796875,-2.2664416585880516,8.60072499366641,-4.127536851257384,1.6907666641026158e+18,2.39861591796875,1.2806541681289674,-2.0130727171897886,0.13754663020372393,1.690766664100112e+18,2.39611201171875,1.3207211017608642,-1.8487989485263825,0.17798581570386887,,,,,,,,,,,,,1.6907666641026158e+18,2.39861591796875,-13.197780227661132,50.42867202758789,-4.424919128417969,1.6907666641003412e+18,2.3963411132812498,25.240145874023433,73.0723663330078,126.49017639160157,1.6907666641026158e+18,2.39861591796875,-1.2867542671488121,0.6137903593848066,0.2363403353030747,-1.0689353053256105,-0.747968815367473,0.0874820817236821,-1.0698362671205226
2.45,1.6907666641527247e+18,2.44872470703125,3.854851719856262,-9.75623218130946,-0.03403863855868576,1.6907666641502208e+18,2.446220703125,0.2289093017578125,-0.0943939208984375,-0.4245513916015625,1.6907666641527247e+18,2.44872470703125,-1.629979972114563,8.792206765943169,-4.020212611735462,1.6907666641527247e+18,2.44872470703125,0.5770330831408501,-4.202272224426269,0.22090333439409732,1.6907666641502208e+18,2.446220703125,0.6336634904146194,-4.149885845184326,0.19548385143280028,,,,,,,,,,,,,1.6907666641527247e+18,2.44872470703125,-13.384483337402344,50.57900619506836,-2.7660842895507813,1.6907666641505326e+18,2.4465326171874997,25.21959533691406,73.22669677734375,127.8480712890625,1.6907666641527247e+18,2.44872470703125,-1.2336922633687077,0.6312534001095418,0.1667195935750162,-1.186234672144543,-0.7448475052464022,0.13409168804409854,-1.1119804014991228
2.5,1.6907666642028334e+18,2.498833544921875,1.3494923721885308,-6.559099572393298,2.2892312318319084,1.6907666642003295e+18,2.4963294921875,0.0590728759765625,0.1950103759765625,-0.197705078125,1.6907666642028334e+18,2.498833544921875,-0.8963896641648187,8.842060404105782,-4.138751780493855,1.6907666642028334e+18,2.498833544921875,0.22869598418474207,0.12304739952087393,-1.9537310570478439,1.6907666642003295e+18,2.4963294921875,0.1552961096167565,-0.12515647411346437,-1.771291619539261,,,,,,,,,,,,,1.6907666642028334e+18,2.498833544921875,-12.830702209472657,50.68454208374023,-3.984513854980469,1.6907666642007255e+18,2.496725537109375,25.85787353515625,73.33895568847656,126.47789916992187,1.6907666642028334e+18,2.498833544921875,-1.2772007782417507,0.6495575825055476,0.12350709401895668,-1.3583707889009378,-0.7282386764320454,0.17944369441471686,-1.123617565970757
2.5500000000000003,1.6907666642529423e+18,2.5489423828124997,-6.439462788430452,4.671870698297023,-3.939220206561088,1.6907666642504384e+18,2.546438330078125,-0.626385498046875,1.3696136474609375,-0.6912841796875,1.6907666642529423e+18,2.5489423828124997,0.02099725012024866,9.238440596497654,-3.236172036823779,1.6907666642529423e+18,2.5489423828124997,3.8543532371520994,1.1681623697280883,-1.835997211933136,1.6907666642504384e+18,2.546438330078125,3.7007861614227293,1.1389949321746826,-1.9601324915885925,,,,,,,,,,,,,1.6907666642529423e+18,2.5489423828124997,-7.78965950012207,51.728728485107425,-1.9673019409179688,1.6907666642509169e+18,2.546916748046875,31.30780029296875,74.47161865234375,129.06249389648437,1.6907666642529423e+18,2.5489423828124997,-1.578494126495142,0.6968004854318662,0.11565509945739497,-1.5865433907864708,-0.6966794605282745,0.12119596700030832,-1.2333379309037211
2.6,1.6907666643030513e+18,2.59905126953125,-1.2093582614113763,5.810140803030729,-3.0126271638450026,1.6907666643005473e+18,2.596547216796875,-0.1700653076171875,1.5677093505859374,-0.453564453125,1.6907666643030513e+18,2.59905126953125,0.23548695109928022,9.717154788705109,-1.1870419243959336,1.6907666643030513e+18,2.59905126953125,3.5729742288589477,3.67108793258667,-0.1379428807646036,1.6907666643005473e+18,2.596547216796875,3.780519986152649,3.1963624238967894,-0.19722449481487273,,,,,,,,,,,,,1.6907666643030513e+18,2.59905126953125,-3.6767555236816407,51.57017440795899,8.3608154296875,1.6907666643011077e+18,2.5971077148437502,35.08285827636719,74.09677734375,139.9005340576172,1.6907666643030513e+18,2.59905126953125,-1.8797914970770677,0.714616736387373,0.07081659932868778,-1.7997560271187418,-0.6948992213300936,0.01433853268850802,-1.446558426980022
2.6500000000000004,1.6907666643531602e+18,2.6491601562500002,2.6501028884691,9.475212410735487,-4.922669576582611,1.690766664350656e+18,2.646656201171875,0.25657958984375,1.9267120361328125,-0.5713134765625,1.6907666643531602e+18,2.6491601562500002,-0.39623138499185906,9.733377258518338,-0.980623674302399,1.6907666643531602e+18,2.6491601562500002,-3.15152302980423,5.671976757049561,2.019347536563873,1.690766664350656e+18,2.646656201171875,-2.793159881234169,6.317986685037613,1.9309619903564452,,,,,,,,,,,,,1.6907666643531602e+18,2.6491601562500002,-0.5825286865234375,50.198229217529295,15.540728759765624,1.6907666643512983e+18,2.6472983886718753,38.27854614257812,72.81752319335938,146.24120178222657,1.6907666643531602e+18,2.6491601562500002,-1.6916572055759453,0.6840594288538568,0.18231347202283982,-1.2793206365789012,-0.6963146118541056,-0.10631250402217766,-1.4603227150675049
2.7,1.690766664403269e+18,2.69926904296875,3.4623432104920595,6.869039498694539,0.22482868763118988,1.690766664400765e+18,2.69676494140625,0.2747650146484375,1.74896240234375,-0.3408294677734375,1.690766664403269e+18,2.69926904296875,-0.9395428913733364,9.224095727898478,-3.1550022000297906,1.690766664403269e+18,2.69926904296875,-3.227960741519928,-2.307477569580078,-0.21454748511314387,1.690766664400765e+18,2.69676494140625,-3.5212684750556944,-2.36747784614563,-0.016159862279891968,,,,,,,,,,,,,1.690766664403269e+18,2.69926904296875,-1.5388298034667969,51.93284378051758,6.76458740234375,1.690766664401488e+18,2.697487939453125,36.787454223632814,74.726708984375,136.32309265136718,1.690766664403269e+18,2.69926904296875,-1.6984244057372657,0.6712623559385132,0.26788336112033184,-1.2715106670297747,-0.6899771647925681,-0.027254936316153063,-1.2269023068772302
2.75,1.6907666644533775e+18,2.74937763671875,-1.8632707246905564,-8.79970372679591,2.752769774478376,1.6907666644508736e+18,2.746873583984375,-0.1944976806640625,0.043914794921875,-0.1347259521484375,1.6907666644533775e+18,2.74937763671875,-0.2252211146216699,8.98369812437892,-3.9187757351386545,1.6907666644533775e+18,2.74937763671875,-1.2754515647888183,1.865690277889371,-1.786833918094635,1.6907666644508736e+18,2.746873583984375,-1.2435942053794862,1.6916072010993957,-1.903234851360321,,,,,,,,,,,,,1.6907666644533775e+18,2.74937763671875,-0.3423027038574219,52.628987884521486,-0.871044921875,1.6907666644516797e+18,2.747679833984375,38.56612854003906,75.2734130859375,129.4108123779297,1.6907666644533775e+18,2.74937763671875,-1.9358580985540594,0.6988761524098603,0.28833679393592193,-1.511827653224141,-0.6541665249814177,-0.00286346974146058,-1.1585168862261919
2.8000000000000003,1.6907666645034865e+18,2.79948642578125,-1.0612806223642826,-8.393420915262102,8.165558851284384,1.6907666645009823e+18,2.796982373046875,-0.2275970458984375,0.00615234375,0.363604736328125,1.6907666645034865e+18,2.79948642578125,-0.8572529827745445,8.658040521368383,-4.5048243960011,1.6907666645034865e+18,2.79948642578125,-1.1201146066188812,0.6407169789075852,2.5811423301696776,1.6907666645009823e+18,2.796982373046875,-1.1851060390472412,0.8214745908975601,2.5386492013931274,,,,,,,,,,,,,1.6907666645034865e+18,2.79948642578125,1.606658935546875,52.47060623168945,-4.566426086425781,1.69076666450187e+18,2.797870263671875,40.003134155273436,75.09011535644531,125.70892944335938,1.6907666645034865e+18,2.79948642578125,-1.896412297809388,0.6752591898970726,0.34314149592875215,-1.3862661789772095,-0.6525106647942586,-0.00307925097495218,-1.0824823398933567
2.85,1.6907666645535951e+18,2.8495951171875,2.3448488111226258,-6.2011962348163125,6.3736520533925285,1.6907666645510912e+18,2.847091162109375,0.09833984375,0.2291107177734375,0.183355712890625,1.6907666645535951e+18,2.8495951171875,-1.4296052838081121,8.483768827089667,-4.706389813849031,1.6907666645535951e+18,2.8495951171875,0.33041622205637394,-1.9731787323951722,0.8317247986793518,1.6907666645510912e+18,2.847091162109375,0.28564740270376204,-1.828696036338806,0.8862024664878845,,,,,,,,,,,,,1.6907666645535951e+18,2.8495951171875,-3.503033447265625,52.19633865356445,-7.004702758789063,1.6907666645520602e+18,2.84806015625,34.749383544921876,74.81837768554688,123.50335083007812,1.6907666645535951e+18,2.8495951171875,-1.730734589794667,0.6528062799320139,0.33714176910434573,-1.2759236863421708,-0.6775621561079888,0.02928741224302984,-1.045360240095757
2.9000000000000004,1.690766664603704e+18,2.899704052734375,0.6853820477609336,5.203807128317355,0.2961640897616745,1.6907666646011999e+18,2.89719990234375,0.025396728515625,1.2968292236328125,-0.43074951171875,1.690766664603704e+18,2.899704052734375,-0.617566340535935,8.439791036770938,-4.924844173368811,1.690766664603704e+18,2.899704052734375,-1.4719269186258317,-5.25632381439209,-0.7794241845607758,1.6907666646011999e+18,2.89719990234375,-1.2537723323795944,-5.1816342830657955,-0.6820710681378841,,,,,,,,,,,,,1.690766664603704e+18,2.899704052734375,-4.720913696289062,52.16529312133789,-7.229718017578125,1.6907666646022508e+18,2.898250537109375,33.912130737304686,74.79365234375,123.29728393554687,1.690766664603704e+18,2.899704052734375,-1.7085989169499984,0.6768544036547358,0.27655551153416696,-1.4426516276344938,-0.6741690112026191,0.09569923497340062,-1.0368718723641606
2.95,1.6907666646538125e+18,2.949812646484375,-5.193327352261543,13.83774068100691,3.7429060749179124,1.6907666646513085e+18,2.9473084960937497,-0.4710174560546875,2.20955810546875,-0.205780029296875,1.6907666646538125e+18,2.949812646484375,0.46528762211002406,7.990584444789886,-5.660690947701931,1.6907666646538125e+18,2.949812646484375,0.5423129558563232,0.8169982969760895,0.11765323877334592,1.6907666646513085e+18,2.9473084960937497,0.14429375231266023,0.44672536849975586,-0.014137810468673661,,,,,,,,,,,,,1.6907666646538125e+18,2.949812646484375,-0.9322708129882813,51.42535171508789,-11.890286254882813,1.6907666646524408e+18,2.948440869140625,37.95194702148437,73.98533630371094,118.24168701171875,1.6907666646538125e+18,2.949812646484375,-1.7757925529866285,0.7030265847101137,0.2544694745940362,-1.6521013026002678,-0.641462555784144,0.1711731381728563,-0.9526696219830825
3.0,1.6907666647039214e+18,2.9999213378906253,-4.50025179816246,10.109177954931258,-6.190131001635789,1.6907666647014175e+18,2.997417431640625,-0.517120361328125,1.977838134765625,-1.06207275390625,1.6907666647039214e+18,2.9999213378906253,-0.49937988872545763,8.713616745735406,-4.434198661896884,1.6907666647039214e+18,2.9999213378906253,3.6098289012908937,0.8111424461007118,2.083394193649292,1.6907666647014175e+18,2.997417431640625,3.6468393325805666,0.9491158559918403,2.0095606565475466,,,,,,,,,,,,,1.6907666647039214e+18,2.9999213378906253,-2.4160438537597657,51.93693313598633,-8.961404418945312,1.6907666647026327e+18,2.99863271484375,35.80605773925781,74.67689514160156,122.30492858886718,1.6907666647039214e+18,2.9999213378906253,-1.6456378991863354,0.6814320269090747,0.2322448133787028,-1.4514767213004403,-0.6863113292848715,0.09903476034743444,-1.0962133607889757
3.0500000000000003,1.69076666475403e+18,3.050030224609375,-2.516767717117071,5.435890492478013,-8.805418480406999,1.6907666647515261e+18,3.047526171875,-0.4290008544921875,1.4930419921875,-1.155267333984375,1.69076666475403e+18,3.050030224609375,-1.8574386575362083,9.208213800538182,-2.6942913404768705,1.69076666475403e+18,3.050030224609375,4.267758178710937,1.8233279645442964,4.041401147842407,1.6907666647515261e+18,3.047526171875,4.208788347244263,1.4950895667076112,3.817922830581665,,,,,,,,,,,,,1.69076666475403e+18,3.050030224609375,-8.578225326538085,52.0055549621582,0.5615875244140625,1.690766664752823e+18,3.048822998046875,29.425430297851562,74.55923461914062,131.92499084472655,1.69076666475403e+18,3.050030224609375,-1.1448345464767073,0.6346633641274775,0.1704185733334323,-0.955933822108155,-0.7515723691689726,0.03909541791574328,-1.2202365662160501
3.1,1.690766664804139e+18,3.100139013671875,21.628231475614903,-3.191610981337428,-14.813436075900793,1.690766664801635e+18,3.0976350585937498,1.865447998046875,0.6596282958984375,-1.6322479248046875,1.690766664804139e+18,3.100139013671875,-3.217359170578122,9.21614003426671,-0.8952804462008551,1.690766664804139e+18,3.100139013671875,2.2796056270599365,-0.1294950783252716,0.23932741582393646,1.690766664801635e+18,3.0976350585937498,2.443499207496643,0.11386303305625915,0.5513398468494415,,,,,,,,,,,,,1.690766664804139e+18,3.100139013671875,-16.40730438232422,49.023851776123045,11.319491577148437,1.690766664803012e+18,3.09901220703125,21.676895141601562,71.39315490722656,142.67693176269532,1.690766664804139e+18,3.100139013671875,-0.48911485017692413,0.5787334327431322,0.12167676617308212,-0.2698040029879214,-0.8056496343887956,-0.03073673286662972,-1.2220738378551002
3.1500000000000004,1.6907666648542477e+18,3.150247607421875,5.484026746876538,-8.651078047331572,-5.0376667764982574,1.6907666648517435e+18,3.14774365234375,0.21163330078125,0.1055206298828125,-0.5389556884765625,1.6907666648542477e+18,3.150247607421875,-2.9898370645314456,9.335250865433215,-0.06943462279687636,1.6907666648542477e+18,3.150247607421875,1.5947025299072266,-0.3610351786017418,-1.5593404293060302,1.6907666648517435e+18,3.14774365234375,1.6096378326416017,-0.37650386467576025,-1.4018113791942597,,,,,,,,,,,,,1.6907666648542477e+18,3.150247607421875,-17.644607162475587,47.21050033569336,16.987835693359376,1.6907666648532024e+18,3.149202294921875,20.9912841796875,69.76195678710937,147.8975036621094,1.6907666648542477e+18,3.150247607421875,-0.2191461548696131,0.5867768170793856,0.0832309294995659,-0.01905836245669618,-0.803326239295026,-0.05629272866881709,-1.2601970503572044
3.2,1.6907666649043564e+18,3.2003563476562498,2.2684292375956474,-11.81328559024334,-2.3815392209121584,1.6907666649018524e+18,3.197852392578125,0.103485107421875,-0.2338287353515625,-0.19703369140625,1.6907666649043564e+18,3.2003563476562498,-1.7662154241788386,9.615109191012383,0.6406554045297577,1.6907666649043564e+18,3.2003563476562498,1.443763542175293,0.07447910010814666,-2.816347074508667,1.6907666649018524e+18,3.197852392578125,1.4549580335617065,0.1405360668897629,-2.8644027709960938,,,,,,,,,,,,,1.6907666649043564e+18,3.2003563476562498,-13.532971572875976,47.158356475830075,20.524078369140625,1.6907666649033933e+18,3.1993934082031252,25.551446533203126,69.81994018554687,151.39370727539062,1.6907666649043564e+18,3.2003563476562498,0.19016515247893379,0.6348344998512531,0.04724487489799304,0.37364006337995753,-0.7665338029722041,-0.08167135180124162,-1.3750450960804217
