seconds_elapsed_rounded,accelerometer_time,accelerometer_seconds_elapsed,accelerometer_z,accelerometer_y,accelerometer_x,accelerometeruncalibrated_time,accelerometeruncalibrated_seconds_elapsed,accelerometeruncalibrated_z,accelerometeruncalibrated_y,accelerometeruncalibrated_x,gravity_time,gravity_seconds_elapsed,gravity_z,gravity_y,gravity_x,gyroscope_time,gyroscope_seconds_elapsed,gyroscope_z,gyroscope_y,gyroscope_x,gyroscopeuncalibrated_time,gyroscopeuncalibrated_seconds_elapsed,gyroscopeuncalibrated_z,gyroscopeuncalibrated_y,gyroscopeuncalibrated_x,location_time,location_seconds_elapsed,location_altitude,location_speedAccuracy,location_bearingAccuracy,location_latitude,location_altitudeAboveMeanSeaLevel,location_bearing,location_horizontalAccuracy,location_verticalAccuracy,location_longitude,location_speed,magnetometer_time,magnetometer_seconds_elapsed,magnetometer_z,magnetometer_y,magnetometer_x,magnetometeruncalibrated_time,magnetometeruncalibrated_seconds_elapsed,magnetometeruncalibrated_z,magnetometeruncalibrated_y,magnetometeruncalibrated_x,orientation_time,orientation_seconds_elapsed,orientation_yaw,orientation_qx,orientation_qz,orientation_roll,orientation_qw,orientation_qy,orientation_pitch
0.0,1.6907666766999278e+18,14.995927685546874,-0.5641077257241308,16.78197206175685,0.4408399210086464,1.6907666767074455e+18,15.0034455078125,0.1925140380859375,2.534112548828125,0.21392822265625,1.6907666766999278e+18,14.995927685546874,-1.5824734889065102,9.1223614465642,2.8925469615766404,1.6907666766999278e+18,14.995927685546874,4.281387186050415,-4.248731780052185,8.644678592681885,1.6907666767074455e+18,15.0034455078125,4.248989248275757,-0.7129526615142823,7.800906467437744,,,,,,,,,,,,,1.6907666766999278e+18,14.995927685546874,-15.305567932128906,41.79797973632813,28.78748474121094,1.690766676707281e+18,15.003280908203124,17.8552978515625,60.618734741210936,161.43490295410157,1.6907666766999278e+18,14.995927685546874,1.4545467092106628,0.6452421715924468,-0.2178286945556991,1.1568162605378496,-0.7281809193091932,-0.012232716688738,-1.2109323041576214
0.05,1.6907666767500365e+18,15.046036474609377,32.149650273701546,-0.5930473752564192,-14.282534717242717,1.6907666767575542e+18,15.053554150390624,2.6292755126953127,0.5661041259765625,-0.94833984375,1.6907666767500365e+18,15.046036474609377,-3.22048098508656,7.761556727259754,5.024845288847983,1.6907666767500365e+18,15.046036474609377,2.1211472034454344,5.51873812675476,0.3222009778022766,1.6907666767575542e+18,15.053554150390624,1.7774374961853028,3.219173014163971,-0.3752724006772041,,,,,,,,,,,,,1.6907666767500365e+18,15.046036474609377,-22.271722412109376,29.62363967895508,38.71527099609375,1.6907666767540772e+18,15.050077087402345,17.839092254638672,51.088890075683594,171.29399490356445,1.6907666767500365e+18,15.046036474609377,1.1312103616425222,0.5572372217263147,-0.2441859038274649,0.997786967494842,-0.7774474333017514,-0.1548159624011184,-0.913758819670632
0.1,1.690766676800145e+18,15.096144921875,5.522519208425879,-4.184983487219214,-10.558176807832718,1.6907666768076626e+18,15.103662646484375,0.2845458984375,0.281671142578125,-0.512664794921875,1.690766676800145e+18,15.096144921875,-2.153727747303992,7.642958872503638,5.742210240907669,1.690766676800145e+18,15.096144921875,0.1901113390922546,0.9698032855987548,-2.782036018371582,1.6907666768076626e+18,15.103662646484375,-0.1416545517742634,0.9615896940231324,-2.797366571426392,,,,,,,,,,,,,1.690766676800145e+18,15.096144921875,-16.8892822265625,27.72766494750977,43.09418640136719,1.6907666768008676e+18,15.09686748046875,22.65056457519531,50.60381164550781,173.8704376220703,1.690766676800145e+18,15.096144921875,1.295701028451891,0.5932136905009624,-0.2503506376739275,1.2127533298834436,-0.7395644761853467,-0.1950425594395296,-0.8937259361811905
0.15,1.6907666768502533e+18,15.146253466796876,-0.4184087035223096,-4.917192314215302,-11.802191364777087,1.6907666768577713e+18,15.1537712890625,-0.1597412109375,0.5593597412109375,-0.7564300537109375,1.6907666768502533e+18,15.146253466796876,-0.7053397754760669,8.16552506591916,5.350146976479888,1.6907666768502533e+18,15.146253466796876,-2.830462193489075,-0.0080941319465637,-3.948987293243408,1.6907666768577713e+18,15.1537712890625,-3.572875809669495,-0.4136407881975174,-4.357108020782471,,,,,,,,,,,,,1.6907666768502533e+18,15.146253466796876,-11.288658142089844,30.937699127197263,42.6267333984375,1.690766676852858e+18,15.148857861328125,29.136148071289064,55.61331481933594,172.04278259277345,1.6907666768502533e+18,15.146253466796876,1.5360685813659911,0.6585471049480345,-0.2332836739370985,1.4451097486377569,-0.6937348638541464,-0.1716750671366574,-0.985446967034262
0.2,1.6907666769003622e+18,15.196362158203124,-13.809682227449418,23.49713956321835,-8.71375337772712,1.6907666769078797e+18,15.203879638671877,-1.3679840087890625,3.7939697265625,-0.3569732666015625,1.6907666769003622e+18,15.196362158203124,1.0316189640873297,9.2643082620126,2.73130212671414,1.6907666769003622e+18,15.196362158203124,-7.74727144241333,8.987883687019348,-0.4751664876937866,1.6907666769078797e+18,15.203879638671877,-7.611317443847656,11.618892478942872,1.178278660774231,,,,,,,,,,,,,1.6907666769003622e+18,15.196362158203124,-2.6835304260253907,41.24248733520508,33.444610595703125,1.690766676904849e+18,15.200849023437502,39.34963684082031,67.44880981445313,159.1232116699219,1.6907666769003622e+18,15.196362158203124,2.0759161006047195,0.7378690631328054,-0.112067900702322,2.040089339086408,-0.6532244687131037,-0.087813245968767,-1.2541188873815097
0.25,1.690766676950471e+18,15.246470703125002,0.508824668310881,24.12895219639003,6.129482296310067,1.6907666769579884e+18,15.253988525390625,0.95203857421875,2.943524169921875,0.63707275390625,1.690766676950471e+18,15.246470703125002,-0.6281757014414294,9.715362761495708,-0.2877499848379194,1.690766676950471e+18,15.246470703125002,-0.990543934609741,6.2282190978527066,7.342846393585205,1.6907666769579884e+18,15.253988525390625,0.1016275703907012,3.855099028348923,6.714321827888488,,,,,,,,,,,,,1.690766676950471e+18,15.246470703125002,2.0154144287109377,50.33915634155274,17.579510498046876,1.6907666769568346e+18,15.252834716796874,37.26321716308594,73.47479858398438,146.72838439941407,1.690766676950471e+18,15.246470703125002,-0.5539332599180511,0.6626867725895126,0.1970691821176004,-0.0376546365399532,-0.7002030133757993,-0.1627361863892025,-1.45216810188813
0.3,1.690766677000579e+18,15.2965791015625,27.041783295034765,-3.8202235909718274,3.079469521566033,1.6907666770080968e+18,15.304096728515626,1.684375,0.45789794921875,0.1824645996093749,1.690766677000579e+18,15.2965791015625,-1.8850682473832368,9.607278351256252,-0.0033991765383026,1.690766677000579e+18,15.2965791015625,1.643741202354431,-6.368840026855469,-3.5438293755054473,1.6907666770080968e+18,15.304096728515626,1.5721262216567993,-7.95968222618103,-4.453102445602417,1.690766676999303e+18,15.295302978515624,54.37359771504998,1.110000014387588,16.56178976548085,49.27540868465164,73.41216811910272,26.71877022859639,4.582358153404835,3.581414634849345,-122.87198345165102,4.320000171660386,1.690766677000579e+18,15.2965791015625,-6.278838348388672,50.128014373779294,17.856356811523437,1.6907666770036255e+18,15.299625549316406,32.596622467041016,72.65077590942383,148.942138671875,1.690766677000579e+18,15.2965791015625,-0.4593339384030277,0.6177084147341956,0.1776201158024444,0.002907413375826,-0.7499904307301916,-0.1440542110388601,-1.3769598379480434
0.35,1.6907666770506875e+18,15.346687744140624,-5.49902984557569,-9.473677339348791,0.105149847318381,1.6907666770582054e+18,15.354205419921874,-0.6389556884765625,-0.131414794921875,0.061920166015625,1.6907666770506875e+18,15.346687744140624,0.6215025328606554,9.736800569417476,0.5068381524024717,1.6907666770506875e+18,15.346687744140624,1.9835052967071536,-5.859254646301269,-5.744181346893311,1.6907666770582054e+18,15.354205419921874,1.8286426424980164,-5.206932067871094,-5.452127933502197,,,,,,,,,,,,,1.6907666770506875e+18,15.346687744140624,-1.3745803833007812,49.39826278686523,20.60084838867187,1.690766677050414e+18,15.3464140625,37.78866271972656,71.92424011230469,151.5022979736328,1.6907666770506875e+18,15.346687744140624,1.8866972498209391,0.7273256003542751,0.0036761784205655,1.9475333427192667,-0.6824445518879669,-0.0393071399763645,-1.4697426895286734
0.4,1.6907666771007964e+18,15.396796484375,-9.740155841968654,-13.40635429097235,-1.941952324865386,1.690766677108314e+18,15.404314111328125,-0.639898681640625,-0.2844879150390625,-0.042596435546875,1.6907666771007964e+18,15.396796484375,2.2861679279646276,9.462924708474874,1.1737128525497018,1.6907666771007964e+18,15.396796484375,-1.402122336626053,-4.766723251342773,-1.4109038531780242,1.690766677108314e+18,15.404314111328125,-1.762435579299927,-4.264658498764038,-0.6640880465507507,,,,,,,,,,,,,1.6907666771007964e+18,15.396796484375,3.0169692993164063,48.48908157348633,22.73741455078125,1.6907666771024005e+18,15.398400341796876,41.54087524414062,71.30199279785157,152.90665588378906,1.6907666771007964e+18,15.396796484375,2.861831755726023,0.7838122307106852,-0.1024611070954185,2.666656064630621,-0.6102569023856821,0.0339955405387259,-1.305462873743888
0.45,1.6907666771509048e+18,15.446904833984377,-0.4784571194803709,-5.558702750058769,2.012067829812094,1.6907666771584228e+18,15.45442265625,0.072662353515625,0.64100341796875,0.2525970458984375,1.6907666771509048e+18,15.446904833984377,1.8135239663554727,9.61193664000392,0.4092183206496946,1.6907666771509048e+18,15.446904833984377,-2.4114277362823486,5.7760449051856995,2.403840255737305,1.6907666771584228e+18,15.45442265625,-3.062039422988891,6.809729573130608,2.3787216663360597,,,,,,,,,,,,,1.6907666771509048e+18,15.446904833984377,0.4250160217285157,49.93400192260742,19.183901977539065,1.6907666771543895e+18,15.4503896484375,38.544290161132814,73.13408508300782,148.113623046875,1.6907666771509048e+18,15.446904833984377,-0.5613696505742513,0.7653833322007872,-0.0905483699421718,1.7111714317746531,-0.6300639220094071,0.0781295345363452,-1.3754582718372752
0.5,1.6907666772010135e+18,15.49701357421875,-5.699387465842962,20.044319310287833,18.035271690466704,1.6907666772085317e+18,15.50453125,-0.3768402099609375,3.012921142578125,1.7617279052734376,1.6907666772010135e+18,15.49701357421875,0.770085049036704,9.568842296069263,-1.9143941051410884,1.6907666772010135e+18,15.49701357421875,-2.842045021057129,6.715905666351318,0.1279856516979634,1.6907666772085317e+18,15.50453125,-1.4139009475708009,6.146293258666992,-0.2721041291952134,,,,,,,,,,,,,1.6907666772010135e+18,15.49701357421875,0.9165641784667968,52.31872482299805,9.865444946289063,1.6907666772063775e+18,15.502377539062502,40.164825439453125,75.36725769042968,138.2407196044922,1.6907666772010135e+18,15.49701357421875,-2.1352872137169525,0.7338470179869176,0.1159219229946586,-1.99744016492226,-0.6668637554703601,0.0193517396783583,-1.3537651184875692
0.55,1.690766677251122e+18,15.5471220703125,-0.433748033825457,4.630005603896379,6.543655744189321,1.69076667725864e+18,15.5546396484375,0.03575439453125,1.497760009765625,0.4236663818359375,1.690766677251122e+18,15.5471220703125,1.09017801827047,9.633300798167586,-1.2018927953287029,1.690766677251122e+18,15.5471220703125,4.827949523925781,-1.1923866748809815,-3.314436173439026,1.69076667725864e+18,15.5546396484375,5.193564319610596,-2.9838735103607177,-3.544087266921997,,,,,,,,,,,,,1.690766677251122e+18,15.5471220703125,5.54376449584961,51.60730514526367,11.562081909179687,1.6907666772531686e+18,15.549168701171876,45.439552307128906,73.6872329711914,144.2184944152832,1.690766677251122e+18,15.5471220703125,-1.4133592092136318,0.7407665841779043,0.150872335397084,-2.344002060311431,-0.6484294959617294,-0.077596421164156,-1.3836856051411326
0.6,1.6907666773012303e+18,15.597230468750002,-5.16179987819314,15.673057230845092,-1.0807970191563665,1.6907666773087483e+18,15.604748291015625,-0.3490997314453125,2.7394073486328123,0.0718963623046875,1.6907666773012303e+18,15.597230468750002,1.807014555235356,9.34697789429724,2.047635241534114,1.6907666773012303e+18,15.597230468750002,5.400492382049561,-10.680532836914065,1.2041079998016355,1.6907666773087483e+18,15.604748291015625,5.165874385833741,-11.2229248046875,2.859835869073868,,,,,,,,,,,,,1.6907666773012303e+18,15.597230468750002,4.573066711425781,45.53217086791992,26.989813232421874,1.6907666772999572e+18,15.59595732421875,42.19754943847656,67.55986938476562,158.8332275390625,1.6907666773012303e+18,15.597230468750002,2.3280161017933203,0.7643518684008898,-0.0679193603529622,2.3527736836588873,-0.6294718125884803,-0.085548426376228,-1.267117105032659
0.65,1.6907666773513393e+18,15.64733916015625,12.1405830109632,14.33893955984056,-6.383730730527638,1.6907666773588567e+18,15.654856787109376,1.3292144775390624,1.9532806396484377,-0.3915802001953125,1.6907666773513393e+18,15.64733916015625,-2.1382963292303865,8.233204751247168,4.65026887353301,1.6907666773513393e+18,15.64733916015625,4.027397298812867,3.2851831912994385,8.882233572006225,1.6907666773588567e+18,15.654856787109376,3.881183004379273,5.894158363342285,8.29048948287964,,,,,,,,,,,,,1.6907666773513393e+18,15.64733916015625,-20.13834991455078,34.72900619506836,34.89144592285156,1.6907666773519483e+18,15.647948291015624,18.441497802734375,54.631805419921875,168.1191162109375,1.6907666773513393e+18,15.64733916015625,1.4609177728700031,0.6138027198031712,-0.2850385778456494,1.1657171289657884,-0.7251615624915454,-0.0850256459121087,-1.0072320924122735
0.7,1.690766677401448e+18,15.69744775390625,19.060724452767968,-2.301596441695094,-16.088898728840945,1.6907666774039547e+18,15.699954711914062,1.810272216796875,0.4056968688964844,-0.9322166442871094,1.690766677401448e+18,15.69744775390625,-2.2073100213748216,6.914564284646511,6.593285335111618,1.690766677401448e+18,15.69744775390625,1.1615148901939392,-0.4957891434431076,-1.0768081665039064,1.6907666774039547e+18,15.699954711914062,0.860390305519104,-1.1810109838843346,-1.8926334753632543,,,,,,,,,,,,,1.690766677401448e+18,15.69744775390625,-15.708252716064454,23.532197570800783,45.83221435546875,1.6907666774039383e+18,15.6999380859375,23.734918212890623,45.17129821777344,177.36654968261718,1.690766677401448e+18,15.69744775390625,1.235567709075118,0.5651116309532211,-0.2529151798572326,1.247661536057078,-0.7405300147435542,-0.2608199543238814,-0.782595815804205
0.75,1.6907666774515564e+18,15.747556298828124,1.7207402933613956,-6.164986038985252,-11.28477282183528,1.6907666774490524e+18,15.745052392578126,0.05560302734375,0.1148223876953125,-0.448590087890625,1.6907666774515564e+18,15.747556298828124,-1.3518237450520691,7.070832237105369,6.6408297610968345,1.6907666774515564e+18,15.747556298828124,-0.4196497708559036,1.5631979823112487,-3.089964437484741,1.6907666774490524e+18,15.745052392578126,-0.3032453134655952,1.331045150756836,-3.1364745140075683,,,,,,,,,,,,,1.6907666774515564e+18,15.747556298828124,-13.615906524658204,23.4670654296875,46.714202880859375,1.6907666774559247e+18,15.751924951171876,26.79136962890625,46.87419738769531,177.34580688476564,1.6907666774515564e+18,15.747556298828124,1.4401266045630785,0.6118983385015964,-0.2825133500033167,1.3709917201144215,-0.6991530439925454,-0.2371947408017009,-0.8053772373852223
0.8,1.6907666775016648e+18,15.79766474609375,-2.093388195605725,-3.220025642534494,-15.49725046517968,1.6907666774991608e+18,15.7951607421875,-0.17437744140625,0.3967437744140625,-0.9663970947265624,1.6907666775016648e+18,15.79766474609375,0.4482724858154542,7.861305270830392,5.785051779125034,1.6907666775016648e+18,15.79766474609375,-5.035780954360962,0.5993181228637695,-3.8404634475708006,1.6907666774991608e+18,15.7951607421875,-4.7221107006073,0.8773004412651064,-3.684340810775757,,,,,,,,,,,,,1.6907666775016648e+18,15.79766474609375,-4.976348495483398,29.000909423828126,44.94113464355469,1.6907666775079183e+18,15.803918505859375,35.831784057617185,54.825506591796874,173.36689147949218,1.6907666775016648e+18,15.79766474609375,1.6792038494583212,0.6902046514814222,-0.22735609224786,1.6565439600023104,-0.6518339213368796,-0.2120739312979869,-0.9329144862869312
0.85,1.6907666775517737e+18,15.847773583984374,-13.034173889335392,22.87871575464308,-6.144417926570102,1.6907666775492695e+18,15.845269482421877,-1.1279022216796877,3.114532470703125,-0.486395263671875,1.6907666775517737e+18,15.847773583984374,1.778044101399481,9.258083337696194,2.2766143926017355,1.6907666775517737e+18,15.847773583984374,-8.331200790405273,7.585971832275391,1.033438801765442,1.6907666775492695e+18,15.845269482421877,-8.540662670135498,6.838576889038086,0.5000867128372193,,,,,,,,,,,,,1.6907666775517737e+18,15.847773583984374,2.7727645874023437,42.891503143310544,30.84181823730469,1.69076667755471e+18,15.8507099609375,42.832767486572266,68.20742416381836,157.68901443481445,1.6907666775517737e+18,15.847773583984374,2.356595387999183,0.7635270564612189,-0.0820097659393422,2.3601627495730844,-0.6284668217414529,-0.0851089294156473,-1.253754204978948
0.9,1.690766677601882e+18,15.897881884765624,0.6950297276806829,27.056376585437057,4.889945556979924,1.690766677599378e+18,15.89537802734375,0.0129638671875,3.8999267578125,0.5016845703125,1.690766677601882e+18,15.897881884765624,-0.0643072552327346,9.76324246923685,-0.2435483463816437,1.690766677601882e+18,15.897881884765624,0.2713939517736435,3.695445060729981,6.241205787658691,1.690766677599378e+18,15.89537802734375,0.0004114151000976,4.734407043457031,6.079503345489502,,,,,,,,,,,,,1.690766677601882e+18,15.897881884765624,2.557936096191406,50.20254898071289,17.6467041015625,1.6907666776015007e+18,15.89750078125,40.42063903808594,73.00023498535157,147.87929077148436,1.690766677601882e+18,15.897881884765624,-0.7650513328728429,0.6886090708761181,0.1643261758922767,-1.580457521817955,-0.6889426606142008,-0.1446315848002744,-1.484770888146827
0.95,1.6907666776519905e+18,15.947990625,25.663119795339107,-6.930295054646135,3.6947146416530017,1.6907666776494866e+18,15.945486572265626,2.4803497314453127,0.3605499267578125,0.426275634765625,1.6907666776519905e+18,15.947990625,-1.3629904950717835,9.691707511333226,0.4182545591634488,1.6907666776519905e+18,15.947990625,2.348107933998108,-5.315066599845887,-2.958625939488411,1.6907666776494866e+18,15.945486572265626,2.3476950883865357,-5.024821698665619,-2.4104125022888185,,,,,,,,,,,,,1.6907666776519905e+18,15.947990625,-5.465694427490234,49.36899032592773,19.77684326171875,1.690766677653488e+18,15.949488281250002,32.54024963378906,71.53332824707032,151.5434356689453,1.6907666776519905e+18,15.947990625,0.0066320393625115,0.6433521670992898,0.1140579686381863,0.3490725464333828,-0.7447303769359352,-0.1258982725083233,-1.4207484729918507
1.0,1.6907666777020992e+18,15.998099169921876,-6.156552440256476,-11.008350549732446,-0.7698782378856093,1.690766677699595e+18,15.995595068359377,-0.4876739501953125,-0.1042205810546875,0.0444061279296875,1.6907666777020992e+18,15.998099169921876,0.693582780275382,9.695609779468771,1.1000088508178294,1.6907666777020992e+18,15.998099169921876,1.014848095178604,-5.271630764007568,-5.083606004714966,1.690766677699595e+18,15.995595068359377,1.1440360963344574,-5.400031566619873,-5.204589462280273,,,,,,,,,,,,,1.6907666777020992e+18,15.998099169921876,-2.8765113830566404,48.16008071899414,23.07468566894531,1.690766677705479e+18,16.00147880859375,37.434695434570315,70.561474609375,154.26781005859374,1.6907666777020992e+18,15.998099169921876,1.9867920574164049,0.7298746636897361,-0.0370438637109311,1.9919909923581696,-0.6792889217517643,-0.040792872090638,-1.4277591869963893
1.05,1.690766677752208e+18,16.04820771484375,-9.080190062693358,-9.930708224440812,0.111364863988757,1.690766677749704e+18,16.04570380859375,-0.767767333984375,-0.062030029296875,0.087738037109375,1.690766677752208e+18,16.04820771484375,1.854429626526385,9.574480477312802,0.9968213457744568,1.690766677752208e+18,16.04820771484375,-2.1991939544677734,-2.5704152256250383,-0.735049071162939,1.690766677749704e+18,16.04570380859375,-2.158521032333374,-2.8157215118408203,-0.8944222450256347,,,,,,,,,,,,,1.690766677752208e+18,16.04820771484375,0.3874374389648437,48.621306610107425,22.170535278320312,1.6907666777574646e+18,16.053464501953123,38.71220703125,71.89258422851563,151.3403747558594,1.690766677752208e+18,16.04820771484375,2.867552963875448,0.7692431256501389,-0.104076806723692,2.652658218338645,-0.6281544313145612,0.0466631224232119,-1.3529261582682877
1.1,1.6907666778023163e+18,16.09831640625,-7.917274878429174,-3.1914850753223902,5.03684090552032,1.6907666777998124e+18,16.095812353515626,-0.617852783203125,0.5422943115234375,0.4835357666015625,1.6907666778023163e+18,16.09831640625,1.626300699079931,9.66364087446928,0.0855536486753076,1.6907666778023163e+18,16.09831640625,-1.9614626884460449,2.1133145689964294,1.4193058848381042,1.6907666777998124e+18,16.095812353515626,-1.8912700891494751,1.9325549125671384,1.3277657747268676,,,,,,,,,,,,,1.6907666778023163e+18,16.09831640625,-0.7544586181640625,50.53546829223633,17.289532470703126,1.6907666778042583e+18,16.10025848388672,37.55878829956055,73.4271469116211,147.07147979736328,1.6907666778023163e+18,16.09831640625,-2.9446609350908015,0.7589322620843509,-0.0756930033216327,0.5994404729434495,-0.6410059470601827,0.0830249646810603,-1.4010737758094567
1.15,1.6907666778524247e+18,16.148424755859374,-4.499387173383235,16.240017861782313,15.419441483120917,1.6907666778499208e+18,16.145920800781248,-0.4510284423828125,2.69959716796875,1.524188232421875,1.6907666778524247e+18,16.148424755859374,0.5568253282440454,9.758856801498531,-0.682232399050761,1.6907666778524247e+18,16.148424755859374,1.3700401723384856,4.964341640472412,1.7449089109897613,1.6907666778499208e+18,16.145920800781248,0.9829543471336364,5.004208755493164,1.851895606517792,,,,,,,,,,,,,1.6907666778524247e+18,16.148424755859374,-2.979875183105469,51.35539016723633,14.170559692382811,1.6907666778510492e+18,16.14704912109375,35.455929565429685,73.96431274414063,144.84759521484375,1.6907666778524247e+18,16.148424755859374,-2.17178498382849,0.7250513269428358,0.0125177700455589,-2.2083623940721138,-0.6862387015004614,0.0382914475002029,-1.4790023212390222
1.2,1.6907666779025334e+18,16.198533496093752,0.3346799175735563,8.53856003855884,2.1117256701985,1.6907666779000294e+18,16.196029541015626,0.0937652587890625,1.7893218994140625,0.34697265625,1.6907666779025334e+18,16.198533496093752,0.4049785568815656,9.69876175530672,1.1866461336646412,1.6907666779025334e+18,16.198533496093752,5.01126070022583,-1.5604649424552917,-1.1321674585342407,1.6907666779000294e+18,16.196029541015626,4.983602619171142,-1.029330027103424,-1.1624350875616074,,,,,,,,,,,,,1.6907666779025334e+18,16.198533496093752,-1.9427268981933592,48.21315841674805,22.9251953125,1.6907666779030395e+18,16.199039550781247,36.60789794921875,69.83743286132812,155.43568115234376,1.6907666779025334e+18,16.198533496093752,1.8894565025994483,0.7174691296800152,-0.0128759141424957,1.976314225854645,-0.6913842380020417,-0.074141724204296,-1.4417188688967646
1.25,1.6907666779526418e+18,16.248641943359377,-0.5162140186837315,21.104549313007592,0.712659843108654,1.690766677950138e+18,16.24613798828125,-0.1883575439453125,3.1139801025390623,0.4281585693359375,1.6907666779526418e+18,16.248641943359377,-1.3924434498080238,8.973956248756647,3.406624202040434,1.6907666779526418e+18,16.248641943359377,4.743880939483643,-10.58975830078125,6.243639135360718,1.690766677950138e+18,16.24613798828125,4.778071117401123,-10.54401741027832,5.6668384075164795,,,,,,,,,,,,,1.6907666779526418e+18,16.248641943359377,-10.95606689453125,41.20997161865235,31.27565307617187,1.6907666779550316e+18,16.251031591796874,20.214047241210935,60.34427795410157,162.55276794433593,1.6907666779526418e+18,16.248641943359377,1.489387237664332,0.6504268113603869,-0.2159039164617764,1.2501502956796473,-0.7199686105575497,-0.0521984544784391,-1.1660898666448365
1.3,1.6907666780027507e+18,16.2987505859375,27.975802746811507,1.1350159544694425,-15.20114336630225,1.6907666780002463e+18,16.296246533203124,2.413751220703125,0.898846435546875,-0.9240570068359376,1.6907666780027507e+18,16.2987505859375,-3.642604106022119,7.0773652044576405,5.62197286070317,1.6907666780027507e+18,16.2987505859375,3.3452869176864626,8.276420736312867,2.94000107049942,1.6907666780002463e+18,16.296246533203124,3.494760823249817,7.860489296913147,3.704899513721466,1.690766677999366e+18,16.2953662109375,52.93902740254998,0.8299999834211382,13.411861907074597,49.275446154192544,71.97759780660272,26.015644734096576,4.582358296397907,3.581414451892172,-122.87195988046544,4.320000171660386,1.6907666780027507e+18,16.2987505859375,-25.688681411743165,26.120108795166015,38.52156982421875,1.6907666780070203e+18,16.303020263671876,15.230789184570312,45.36186218261719,173.1205322265625,1.6907666780027507e+18,16.2987505859375,1.191297311831845,0.5303453815438763,-0.3005852431117012,0.9865236984480976,-0.7712214509992452,-0.1657701318229731,-0.8082293914328782
1.35,1.6907666780528591e+18,16.348858984375,4.972542796228528,-2.453230538421273,-11.305237517715096,1.690766678050355e+18,16.346355029296877,0.2616424560546875,0.4560943603515625,-0.4707122802734375,1.6907666780528591e+18,16.348858984375,-2.8646276826810837,6.574579231789111,6.686193920433522,1.6907666780528591e+18,16.348858984375,0.6845798552036285,-0.5783115983009338,-2.540181875228882,1.690766678050355e+18,16.346355029296877,0.7749656498432159,-0.6883704185485839,-2.5166199922561647,,,,,,,,,,,,,1.6907666780528591e+18,16.348858984375,-20.299196243286133,20.180977630615235,45.67752990722656,1.6907666780538117e+18,16.34981170654297,18.284927368164062,42.796905517578125,176.33324432373047,1.6907666780528591e+18,16.348858984375,1.2966494023159574,0.5492054924638693,-0.3125798451166708,1.166159778189859,-0.7403324319206324,-0.2282992111508555,-0.7347960397680526
1.4,1.6907666781029678e+18,16.398967773437498,1.285864103062749,-7.647251367452741,-14.648052387667894,1.690766678100464e+18,16.39646376953125,-0.02911376953125,-0.060723876953125,-0.8164794921875,1.6907666781029678e+18,16.398967773437498,-1.758449554030746,7.010722928579449,6.6104181393158425,1.6907666781029678e+18,16.398967773437498,-2.08758682012558,2.0757150411605836,-1.7799098014831545,1.690766678100464e+18,16.39646376953125,-1.9012688398361208,2.1485610723495485,-1.7573272228240966,,,,,,,,,,,,,1.6907666781029678e+18,16.398967773437498,-15.745882415771485,22.7681526184082,46.13713073730469,1.6907666781006e+18,16.3966,23.391937255859375,45.782589721679685,176.724462890625,1.6907666781029678e+18,16.398967773437498,1.426523789153321,0.5999520333784605,-0.2983300510215504,1.312526042862434,-0.707330988659568,-0.2238480024844853,-0.7971098708341208
1.45,1.6907666781530762e+18,16.449076171875,-2.62153028945744,5.506023182368279,-13.690031531865596,1.6907666781505723e+18,16.44657216796875,-0.2359771728515625,1.2236480712890625,-0.8798828125,1.6907666781530762e+18,16.449076171875,-0.4469981331111304,8.311872629770637,5.091645385636388,1.6907666781530762e+18,16.449076171875,-6.059251403808593,-1.0629930019378662,-4.685297250747681,1.6907666781505723e+18,16.44657216796875,-5.822314739227295,-1.4361758351325988,-4.706668281555176,,,,,,,,,,,,,1.6907666781530762e+18,16.449076171875,-10.258911895751954,32.7344253540039,40.94846801757812,1.6907666781525906e+18,16.448590527343747,28.72021484375,56.4458984375,170.76192932128907,1.6907666781530762e+18,16.449076171875,1.643503808098583,0.6739490181109826,-0.2420872026439675,1.4956383068221832,-0.6810498497055967,-0.1413071381312242,-1.0180519701820472
1.5,1.6907666782031846e+18,16.499184765625,-10.83589695233941,41.15159798980713,1.3998551654496787,1.690766678200681e+18,16.49668076171875,-1.110540771484375,5.136572265625,0.206085205078125,1.6907666782031846e+18,16.499184765625,0.6687701895577367,9.60793184672892,1.464089057705365,1.6907666782031846e+18,16.499184765625,-5.974240326881409,14.55552043914795,4.114592117071152,1.690766678200681e+18,16.49668076171875,-6.370990252494812,14.561201286315915,3.537511777877808,,,,,,,,,,,,,1.6907666782031846e+18,16.499184765625,-0.7553489685058594,44.785326385498045,28.32860107421875,1.6907666782045793e+18,16.500579296875,40.212380981445314,69.7335693359375,155.06585388183595,1.6907666782031846e+18,16.499184765625,1.8564957069047023,0.7200426293199016,0.0079258693517967,2.0333839336296253,-0.6726419567402842,-0.1163485036434136,-1.4007829907854237
1.55,1.6907666782532933e+18,16.549293359375,31.234320456343067,4.391866125341058,5.850182598300874,1.6907666782507894e+18,16.546789404296874,3.0460418701171874,1.6190399169921874,0.6931976318359375,1.6907666782532933e+18,16.549293359375,-1.4313284689519554,9.68783470310092,0.373754018589016,1.6907666782532933e+18,16.549293359375,0.9964305020868778,-3.716850924491882,1.1453372478485109,1.6907666782507894e+18,16.546789404296874,0.9034653902053832,-2.7830662548542024,1.8906687259674069,,,,,,,,,,,,,1.6907666782532933e+18,16.549293359375,-1.6848762512207032,49.38074722290039,19.933563232421875,1.69076667825657e+18,16.552569873046874,34.72850036621094,71.94435119628906,150.70651550292968,1.6907666782532933e+18,16.549293359375,-0.248195509614637,0.6285848087285568,0.1772189654603125,0.2602260623240146,-0.7353986779752899,-0.1771802177700704,-1.4188806086266317
1.6,1.690766678303402e+18,16.599402099609375,-3.605612755137682,-6.2500019421350945,-0.7608519631867855,1.690766678300898e+18,16.596898046875,-0.2852142333984375,0.4126495361328125,-0.0313385009765625,1.690766678303402e+18,16.599402099609375,0.0398385332628991,9.7617569653064,0.5995726488393173,1.690766678303402e+18,16.599402099609375,1.5350235939025878,-9.561136817932129,-5.27677059173584,1.690766678300898e+18,16.596898046875,1.4688591361045835,-10.02039737701416,-5.219834232330323,,,,,,,,,,,,,1.690766678303402e+18,16.599402099609375,-4.400631713867187,48.91270523071289,20.837982177734375,1.690766678303357e+18,16.59935705566406,34.396419525146484,71.48727035522461,151.56560897827148,1.690766678303402e+18,16.599402099609375,1.4244276540473435,0.7058924392044017,-0.0047024582694409,1.4675269131570403,-0.7028334489568129,-0.0350784328992111,-1.4804562978972746
1.65,1.690766678353512e+18,16.649511914062497,-13.224223699886798,-13.55968922949314,-2.04754407073237,1.690766678351008e+18,16.64700791015625,-1.1378631591796875,-0.421234130859375,-0.049542236328125,1.690766678353512e+18,16.649511914062497,2.3017859729178247,9.409640160628555,1.4068558087658882,1.690766678353512e+18,16.649511914062497,-0.0778221607208251,-1.835920548439026,-4.316776180267334,1.690766678351008e+18,16.64700791015625,0.1775350272655487,-1.9262392282485965,-4.4620692253112795,,,,,,,,,,,,,1.690766678353512e+18,16.649511914062497,1.7632003784179688,47.77687149047851,23.539871215820312,1.6907666783501486e+18,16.64614853515625,41.01671752929688,70.3263916015625,154.29391479492188,1.690766678353512e+18,16.649511914062497,2.7959271571053064,0.7846254518696555,-0.1184428974371476,2.5751731666889435,-0.6065386369668653,0.0356611012190841,-1.290408180295866
1.7,1.6907666784036204e+18,16.69962041015625,-7.464972541615962,-8.986541005041598,0.3746674107601492,1.6907666784011164e+18,16.69711640625,-0.4922088623046875,0.017230224609375,0.107574462890625,1.6907666784036204e+18,16.69962041015625,2.856822474209815,9.332951707032322,0.8778591292984037,1.6907666784036204e+18,16.69962041015625,-2.3084611177444456,-2.0398069828748704,1.6464105010032657,1.6907666784011164e+18,16.69711640625,-2.3783382415771483,-2.1485730171203614,1.390792226791382,,,,,,,,,,,,,1.6907666784036204e+18,16.69962041015625,3.990535736083984,49.11437301635742,20.219134521484374,1.6907666784021363e+18,16.698136328125,42.250213623046875,71.94751586914063,150.3782165527344,1.6907666784036204e+18,16.69962041015625,-1.8287842818042632,0.7958994030059212,-0.1351319493877076,2.848111896882227,-0.5795951851021363,0.107886781512993,-1.2606294023422966
1.75,1.6907666784537288e+18,16.74972890625,-7.225282209582924,3.988307068908811,8.485973994370699,1.690766678451225e+18,16.74722490234375,-0.5288848876953125,1.1945098876953124,0.731494140625,1.6907666784537288e+18,16.74972890625,1.695215420708656,9.637364628153444,-0.2372310840463452,1.6907666784537288e+18,16.74972890625,-3.004997396469116,2.7990336060523986,1.9007879853248597,1.690766678451225e+18,16.74722490234375,-3.0230813026428223,2.435182458162308,2.0058931589126585,,,,,,,,,,,,,1.6907666784537288e+18,16.74972890625,-2.09990234375,51.12404098510742,14.896774291992188,1.6907666784541302e+18,16.750130029296876,36.07649536132813,74.14091186523437,144.17432861328126,1.6907666784537288e+18,16.74972890625,-2.616410075954914,0.7520039821529767,-0.1051138031976974,-0.4590884564663849,-0.6336596545142253,0.1441246251959675,-1.3860430310801628
1.8,1.6907666785038374e+18,16.799837451171875,-5.2745882867920395,10.594496659970284,14.387693010902405,1.6907666785013335e+18,16.797333544921877,-0.48243408203125,2.2253692626953123,1.501104736328125,1.6907666785038374e+18,16.799837451171875,1.0411010416492077,9.715695120642184,-0.6757710392832383,1.6907666785038374e+18,16.799837451171875,3.732439804077148,6.0614299297332765,-0.2644787788391113,1.6907666785013335e+18,16.797333544921877,3.40683449357748,6.354968023300171,-0.1398084109649062,,,,,,,,,,,,,1.6907666785038374e+18,16.799837451171875,-1.933274078369141,51.74416732788086,12.550946044921876,1.690766678506121e+18,16.80212099609375,37.713522338867186,73.72610778808594,145.3743896484375,1.6907666785038374e+18,16.799837451171875,-1.287121367817464,0.7400167508271597,-0.001720154193072,-1.365678710129736,-0.6683308382816717,0.053562331182136,-1.4369444646927747
1.85,1.690766678553946e+18,16.849946142578126,-3.3391552368536592,14.391324060881136,2.7852072322246433,1.6907666785514422e+18,16.8474421875,-0.1807464599609375,2.283929443359375,0.4526397705078125,1.690766678553946e+18,16.849946142578126,1.3306294197234512,9.523907409608364,1.7195730031476912,1.690766678553946e+18,16.849946142578126,5.358181190490723,-5.055769358575344,-0.3963162541389465,1.6907666785514422e+18,16.8474421875,5.359755802154541,-4.4658069014549255,-0.6370128944516182,,,,,,,,,,,,,1.690766678553946e+18,16.849946142578126,1.2282798767089844,47.38781967163086,24.164984130859377,1.6907666785581076e+18,16.854107666015626,38.37632751464844,68.056103515625,158.37187805175782,1.690766678553946e+18,16.849946142578126,2.325123348239075,0.7514688972970366,-0.0690170866353067,2.3052457680188363,-0.65152549359217,-0.0552673333571403,-1.338655274871692
1.9,1.6907666786040545e+18,16.90005458984375,-2.3994880469004807,20.732339334563015,-2.3378168082070347,1.6907666786015503e+18,16.89755048828125,-0.406561279296875,3.0885467529296875,0.194171142578125,1.6907666786040545e+18,16.90005458984375,-1.64542551735159,8.581906895949839,4.101565140846073,1.6907666786040545e+18,16.90005458984375,4.319414663314819,-6.7808245658874515,9.155518913269043,1.6907666786015503e+18,16.89755048828125,4.362462949752808,-8.506667518615723,8.77053542137146,,,,,,,,,,,,,1.6907666786040545e+18,16.90005458984375,-15.566648864746094,37.69034271240234,33.16121826171875,1.6907666786048986e+18,16.900898559570315,17.78194808959961,57.849552154541016,164.254150390625,1.6907666786040545e+18,16.90005458984375,1.6431565120728149,0.6409377155825442,-0.2976506268866059,1.250283634487954,-0.7003787622609903,-0.0315923061353484,-1.076360907132342
1.95,1.6907666786541632e+18,16.950163134765624,35.33255854243219,-0.2213100412118435,-17.800661496629118,1.690766678651659e+18,16.9476591796875,3.2595001220703126,0.741064453125,-1.144000244140625,1.6907666786541632e+18,16.950163134765624,-2.8109501315422354,6.871504193694591,6.376878146606087,1.6907666786541632e+18,16.950163134765624,1.1440614946186545,7.623577909916639,0.8402593970298767,1.690766678651659e+18,16.9476591796875,1.343286845088005,8.634391617774963,1.401003849506378,,,,,,,,,,,,,1.6907666786541632e+18,16.950163134765624,-20.366408920288087,23.128841400146484,43.56719970703125,1.690766678651688e+18,16.947687939453125,19.11078186035156,45.02274169921875,175.1938262939453,1.6907666786541632e+18,16.950163134765624,1.249570057821464,0.5520464317180707,-0.2863492443340613,1.1535350918552594,-0.7488420136031315,-0.2235476903730597,-0.7766616289109811
2.0,1.690766678704272e+18,17.000271777343748,2.284567448578477,-3.1978016526710986,-9.74159902651429,1.6907666787017677e+18,16.997767724609375,0.0360687255859375,0.42506103515625,-0.28326416015625,1.690766678704272e+18,17.000271777343748,-2.0039669555559754,7.020832468470334,6.5400422883194675,1.690766678704272e+18,17.000271777343748,-0.0993255361914634,-0.9262066781520844,-3.723900032043457,1.6907666787017677e+18,16.997767724609375,-0.0491001699119806,-1.0847262620925904,-3.7151647567749024,,,,,,,,,,,,,1.690766678704272e+18,17.000271777343748,-16.315790557861327,23.157776641845704,45.78553771972656,1.690766678703675e+18,16.999674755859374,22.4084228515625,46.02347717285157,176.3062286376953,1.690766678704272e+18,17.000271777343748,1.3996815797888136,0.5915892162162029,-0.2998461899644554,1.2740750313278446,-0.7154889438555692,-0.2175645623315938,-0.7980819219254685
2.05,1.6907666787543803e+18,17.050380126953122,-1.3907730396842957,-4.506508169756532,-16.036038894599674,1.690766678751876e+18,17.047876171874996,-0.2005615234375,0.2614776611328125,-1.0288482666015626,1.6907666787543803e+18,17.050380126953122,-0.5581371250552963,7.729523174139262,5.969408872540592,1.6907666787543803e+18,17.050380126953122,-3.5816776275634767,0.4908072829246521,-3.8123497486114504,1.690766678751876e+18,17.047876171874996,-3.3488263130187987,0.6595346227288246,-3.7122832775115966,,,,,,,,,,,,,1.6907666787543803e+18,17.050380126953122,-11.90774917602539,27.30964126586914,44.562643432617186,1.6907666787556708e+18,17.05167075195312,28.33457946777344,52.16724853515625,174.02708129882814,1.6907666787543803e+18,17.050380126953122,1.6507660612955708,0.6638721095714875,-0.2848331012546256,1.4827323500251852,-0.6685594409385114,-0.1725675368241443,-0.9098497036657582
2.1,1.6907666788044887e+18,17.1004888671875,-11.284786616551877,21.727961665198205,-9.739306414758564,1.690766678801985e+18,17.097984960937502,-1.014044189453125,2.9798858642578123,-0.7289306640625,1.6907666788044887e+18,17.1004888671875,1.022909156846106,9.117017513639926,3.175363406309038,1.6907666788044887e+18,17.1004888671875,-8.120805835723877,8.56473798751831,-0.1480368852615356,1.690766678801985e+18,17.097984960937502,-8.084168815612793,7.709376335144041,-0.5668564409017562,,,,,,,,,,,,,1.6907666788044887e+18,17.1004888671875,-3.955271530151367,39.108154296875,35.45322875976562,1.6907666788076654e+18,17.103665576171874,37.947442626953126,65.69285278320312,161.215234375,1.6907666788044887e+18,17.1004888671875,2.068567679010859,0.7385942277776826,-0.1512606385552926,1.9631859538279424,-0.645654941035824,-0.0790887961479888,-1.211895977732183
2.15,1.6907666788545974e+18,17.150597412109374,-0.1020125137537718,27.43890968807101,5.261136479962021,1.6907666788520934e+18,17.148093359375,-0.0740264892578125,3.925103759765625,0.5336883544921875,1.6907666788545974e+18,17.150597412109374,0.0731921066869795,9.759712307736276,-0.0502161823847982,1.6907666788545974e+18,17.150597412109374,-1.5914789080619811,5.749420601129532,6.269644117355346,1.6907666788520934e+18,17.148093359375,-1.9222998082637788,6.948116159439087,6.0159650325775145,,,,,,,,,,,,,1.6907666788545974e+18,17.150597412109374,3.926422119140625,49.19794692993164,19.4863037109375,1.6907666788544604e+18,17.150460327148437,42.196292877197266,72.65633773803711,148.20601272583008,1.6907666788545974e+18,17.150597412109374,0.1208822085067295,0.6920641458544016,0.1564616010756505,-0.6952787826362725,-0.6846304775521641,-0.1517893114562938,-1.481123954011099
2.2,1.6907666789047058e+18,17.20070595703125,24.240189488476368,-4.467288504524231,6.375091350867599,1.690766678902202e+18,17.198201904296873,2.397967529296875,0.6130401611328125,0.6529449462890625,1.6907666789047058e+18,17.20070595703125,-1.3298046154979617,9.704934189557433,-0.0638259446000299,1.6907666789047058e+18,17.20070595703125,1.499647569656372,-6.2774900674819945,-2.8140503406524657,1.690766678902202e+18,17.198201904296873,1.44148508310318,-6.106625747680664,-2.199749803543091,,,,,,,,,,,,,1.6907666789047058e+18,17.20070595703125,-5.0081932067871096,49.9627067565918,17.85503234863281,1.6907666789012536e+18,17.197253466796873,33.137533569335936,72.53447570800782,148.57803039550782,1.6907666789047058e+18,17.20070595703125,-0.3747541220983161,0.6471319384435134,0.133641395390733,-0.0256600682572835,-0.7403705987288515,-0.1109437633462847,-1.4341362164570923
2.25,1.6907666789548145e+18,17.250814501953123,-7.355013452771901,-11.962325695727468,1.7489762150711194,1.6907666789523103e+18,17.248310546875,-0.6008941650390625,-0.1760162353515625,0.2216156005859375,1.6907666789548145e+18,17.250814501953123,0.8692407778133452,9.734999891284108,0.3469976222467887,1.6907666789548145e+18,17.250814501953123,0.4657095909118652,-7.790692138671875,-5.052588558197021,1.6907666789523103e+18,17.248310546875,0.5795212626457215,-7.83327465057373,-5.1404201030731205,,,,,,,,,,,,,1.6907666789548145e+18,17.250814501953123,-2.0475318908691404,49.61482315063476,19.201251220703124,1.6907666789532485e+18,17.249248486328124,36.9229248046875,72.24898986816406,149.8544494628906,1.6907666789548145e+18,17.250814501953123,2.371468054280653,0.7365474746540976,-0.029586272645609,2.3164860082208465,-0.6724535498317435,0.0090335336467733,-1.4685888820047783
2.3,1.690766679004923e+18,17.30092294921875,-8.264935872741937,-10.184261779035923,-0.7410496694319322,1.690766679002419e+18,17.2984189453125,-0.6514862060546875,-0.106597900390625,-0.0350006103515625,1.690766679004923e+18,17.30092294921875,2.2055704257789253,9.542166704398394,0.478944417113494,1.690766679004923e+18,17.30092294921875,-2.199129581451416,-5.932973194122314,-0.6892462491989135,1.690766679002419e+18,17.2984189453125,-2.155556583404541,-6.235299491882325,-0.9313351154327392,1.6907666789994202e+18,17.295420166015624,53.45886363834143,0.949999988162982,15.36512183987438,49.275477883066245,72.49743404239416,27.773457057562663,4.582358426171543,3.581414285849027,-122.87193471625066,4.030000209807545,1.690766679004923e+18,17.30092294921875,-0.4390396118164062,50.39460220336914,17.013796997070312,1.690766679005241e+18,17.30124140625,37.817431640625,73.22764282226562,146.9478790283203,1.690766679004923e+18,17.30092294921875,-1.668483737503357,0.7670010625979633,-0.1497572496904118,2.9272807137269075,-0.603716188006828,0.1501298528174261,-1.3382123637503334
2.35,1.6907666790550316e+18,17.351031542968748,-5.961870995155573,-6.5387017458176615,3.2582104702132937,1.6907666790525276e+18,17.348527490234375,-0.431622314453125,0.2612274169921875,0.2652618408203125,1.6907666790550316e+18,17.351031542968748,1.636266738846898,9.650205755739211,-0.3783151597986183,1.6907666790550316e+18,17.351031542968748,-2.3901975631713865,3.247060716152191,1.7392709732055665,1.6907666790525276e+18,17.348527490234375,-2.323435640335083,2.7862782716751098,1.7599546670913695,,,,,,,,,,,,,1.6907666790550316e+18,17.351031542968748,-3.795710754394531,51.711673736572266,12.276104736328126,1.6907666790572324e+18,17.353232275390624,33.85282592773437,74.6357208251953,141.32437438964843,1.6907666790550316e+18,17.351031542968748,-2.3721270928229727,0.7345456990048476,-0.1518092803237563,-1.6340396538542106,-0.6265775717638213,0.2092023269021375,-1.3927844198383588
2.4,1.6907666791051402e+18,17.401140136718748,-8.196283776798248,18.467321220585102,19.72626610325336,1.6907666791026363e+18,17.398636181640626,-0.8196014404296875,2.8322113037109373,1.849981689453125,1.6907666791051402e+18,17.401140136718748,0.477766777009293,9.681157709555029,-1.4122692851819842,1.6907666791051402e+18,17.401140136718748,1.5287580728530883,9.66651496887207,0.974513803422451,1.6907666791026363e+18,17.398636181640626,1.0856430053710937,9.70710105895996,1.06611530482769,,,,,,,,,,,,,1.6907666791051402e+18,17.401140136718748,-5.2464759826660154,52.25519027709961,8.81043701171875,1.690766679104024e+18,17.400024047851563,33.42636489868164,74.85348892211914,139.60073852539062,1.6907666791051402e+18,17.401140136718748,-1.6965765631232042,0.7133306085770226,-0.0033578395552906,-1.8576653375588432,-0.6881561184744617,0.1096597090594079,-1.4142948880210524
2.45,1.6907666791552486e+18,17.451248730468752,0.4383986507233232,6.315808117902279,3.9327741576138138,1.690766679152745e+18,17.448744775390626,0.1023712158203125,1.62227783203125,0.4803070068359375,1.6907666791552486e+18,17.451248730468752,0.4110941788012045,9.751589557748437,0.5876582587900758,1.6907666791552486e+18,17.451248730468752,5.030954933166504,-1.1575846433639527,-1.8878278970718383,1.690766679152745e+18,17.448744775390626,5.0314452171325685,-0.4077921211719513,-1.8922371864318848,,,,,,,,,,,,,1.6907666791552486e+18,17.451248730468752,-1.612995147705078,49.34571151733398,19.522271728515623,1.6907666791508155e+18,17.44681572265625,37.324951171875,71.61641540527344,151.19208984375,1.6907666791552486e+18,17.451248730468752,1.3605979175389131,0.7187631776857499,0.0175920029659039,1.4727424818141277,-0.6910561506583364,-0.0615710881348809,-1.4815901564449114
2.5,1.690766679205357e+18,17.50135712890625,-3.8008725261962417,25.239154144502876,0.4487738704261182,1.6907666792028534e+18,17.498853173828124,-0.426861572265625,3.444073486328125,0.4066650390625,1.690766679205357e+18,17.50135712890625,-0.7044164660690911,9.12793474587798,3.2273433597497645,1.690766679205357e+18,17.50135712890625,5.949921607971191,-10.269107913970949,5.198943293094635,1.6907666792028534e+18,17.498853173828124,5.9330846786499025,-10.34489574432373,4.533003468811512,,,,,,,,,,,,,1.690766679205357e+18,17.50135712890625,-10.158313751220703,41.44547576904297,30.762750244140623,1.690766679202803e+18,17.498802832031252,26.740167236328126,63.187252807617185,162.00509033203124,1.690766679205357e+18,17.50135712890625,1.6659438930113262,0.6782264886420624,-0.2025698689179886,1.4354584891226911,-0.6984800677327871,-0.0441498944083812,-1.2096639599797734
2.55,1.690766679255466e+18,17.55146591796875,20.43303361500084,13.484195304830669,-16.645267355519533,1.6907666792529618e+18,17.5489619140625,1.490338134765625,2.2056488037109374,-0.9768218994140624,1.690766679255466e+18,17.55146591796875,-3.317753669289053,6.792029090441465,6.0670553000393515,1.690766679255466e+18,17.55146591796875,4.508824205398559,10.095535278320312,5.879342210292816,1.6907666792529618e+18,17.5489619140625,4.687767505645752,9.77641534805298,6.518753004074097,,,,,,,,,,,,,1.690766679255466e+18,17.55146591796875,-22.4222354888916,22.931751251220703,41.71980590820313,1.6907666792547927e+18,17.5507927734375,16.654443359375,44.02883605957031,173.57233276367188,1.690766679255466e+18,17.55146591796875,1.228247510094176,0.5313958527618733,-0.3078615218476446,1.0551595930083566,-0.7569999597129194,-0.1934255363011613,-0.769738331759703
2.6,1.690766679305574e+18,17.60157392578125,9.231331056753396,-1.7875635664427278,-18.38214983461261,1.69076667930307e+18,17.599069970703123,0.9477081298828124,0.4365570068359375,-1.1288055419921874,1.690766679305574e+18,17.60157392578125,-1.9739372311516103,5.625738058455586,7.783616583376526,1.690766679305574e+18,17.60157392578125,0.7542141571640968,0.4803285539150238,-2.0894402980804445,1.69076667930307e+18,17.599069970703123,0.9551249742507936,0.5707628533244133,-2.012921142578125,,,,,,,,,,,,,1.690766679305574e+18,17.60157392578125,-12.477953720092774,14.221209716796874,50.405084228515626,1.6907666793067835e+18,17.602783642578125,26.90822448730469,36.47664184570313,181.29232482910157,1.690766679305574e+18,17.60157392578125,1.2425588707193715,0.5339465259435088,-0.2877987720736448,1.3223964923338647,-0.7194562766416437,-0.3378699292231622,-0.6109904620477147
2.65,1.690766679355682e+18,17.651682080078125,-0.7252846975952385,-7.301190443360805,-18.071540280034544,1.690766679353178e+18,17.649178076171875,-0.147796630859375,-0.09593505859375,-1.1034515380859375,1.690766679355682e+18,17.651682080078125,-0.8469575685760006,6.357845061738491,7.388402862867712,1.690766679355682e+18,17.651682080078125,-3.891705799102783,1.6518289230763912,-1.9361616134643556,1.690766679353178e+18,17.649178076171875,-3.677116990089417,1.7838724434375763,-1.9016544818878176,,,,,,,,,,,,,1.690766679355682e+18,17.651682080078125,-7.989515686035157,16.9973388671875,50.23984375,1.6907666793535757e+18,17.649575744628905,31.796958923339844,41.07154846191406,180.5284118652344,1.690766679355682e+18,17.651682080078125,1.355681547608163,0.592191890438688,-0.2585066775838369,1.4588276286776751,-0.6897975533682364,-0.3248171599577795,-0.7068889238256291
2.7,1.6907666794057905e+18,17.7017904296875,-3.2017069603204726,1.4606575415802,-14.784081854218243,1.6907666794032865e+18,17.699286474609373,-0.2285308837890625,0.85068359375,-0.960504150390625,1.6907666794057905e+18,17.7017904296875,0.2926623241518391,8.144939140199423,5.348053978949487,1.6907666794057905e+18,17.7017904296875,-7.274997329711914,-3.040298652648926,-5.627035665512085,1.6907666794032865e+18,17.699286474609373,-7.103564643859864,-3.0674649119377135,-5.48514723777771,,,,,,,,,,,,,1.6907666794057905e+18,17.7017904296875,-4.161231994628906,29.853125762939452,43.959295654296874,1.6907666794003684e+18,17.696368310546877,34.57590026855469,53.72728576660156,173.7247314453125,1.6907666794057905e+18,17.7017904296875,1.6393373062298202,0.6853185325684323,-0.2016268713367353,1.6394469375871004,-0.666456434338344,-0.200931989221035,-0.98719661838136
2.75,1.6907666794558991e+18,17.75189912109375,-13.871398386650084,35.47697952213525,-0.9959105145398528,1.6907666794533952e+18,17.749395068359373,-1.3907196044921877,4.445773315429688,-0.0360595703125,1.6907666794558991e+18,17.75189912109375,1.1524114866500348,9.556637245203852,1.3588415404324792,1.6907666794558991e+18,17.75189912109375,-6.703642559051514,12.86935510635376,3.6328580498695375,1.6907666794533952e+18,17.749395068359373,-7.060813760757446,12.34014148712158,3.178869342803955,,,,,,,,,,,,,1.6907666794558991e+18,17.75189912109375,2.669659423828125,45.256089782714845,26.985186767578124,1.6907666794523566e+18,17.748356494140626,41.948385620117186,68.92106323242187,156.0131866455078,1.6907666794558991e+18,17.75189912109375,2.3847869739160346,0.7388066449849706,0.0054022804613146,1.290136150562986,-0.6550202598125311,-0.1085144668903522,-1.3755475793365692
2.8,1.6907666795060076e+18,17.80200771484375,27.22807663182296,13.92718866293311,7.999109871907533,1.690766679503504e+18,17.799503759765624,2.200546264648438,2.69014892578125,0.6720245361328125,1.6907666795060076e+18,17.80200771484375,-1.184669635503154,9.693825467948315,-0.464167996003162,1.6907666795060076e+18,17.80200771484375,0.0837725400924682,-2.7798130750656127,3.3449701249599455,1.690766679503504e+18,17.799503759765624,-0.1239310100674629,-1.9709881782531735,4.018579959869385,,,,,,,,,,,,,1.6907666795060076e+18,17.80200771484375,-0.4753753662109375,50.68099136352539,15.790524291992188,1.690766679504349e+18,17.800348974609374,37.23177795410156,73.427001953125,146.0259582519531,1.6907666795060076e+18,17.80200771484375,-1.1258046979849785,0.6429059236274453,0.2111727971144261,-0.5970377707933359,-0.7173757658846843,-0.1571535705342935,-1.4361860656817975
2.85,1.690766679556116e+18,17.852116113281248,4.594656642617583,-6.792459298552274,3.0243297231614217,1.6907666795536123e+18,17.849612060546875,0.9893890380859376,0.2980926513671875,0.4078948974609375,1.690766679556116e+18,17.852116113281248,-0.1925874575365521,9.7738391496706,-0.2026731870652583,1.690766679556116e+18,17.852116113281248,2.389063334465027,-7.817883014678955,-4.697983360290527,1.6907666795536123e+18,17.849612060546875,2.3496914148330688,-7.949995040893555,-4.6767377853393555,,,,,,,,,,,,,1.690766679556116e+18,17.852116113281248,-3.4770294189453126,50.40254287719726,16.882327270507812,1.6907666795563402e+18,17.852340234375,35.716067504882815,72.85506591796874,148.07532958984376,1.690766679556116e+18,17.852116113281248,0.6499206588007116,0.6977338640086208,0.062968215717516,-0.453800801370143,-0.7090864891338303,-0.0447598466316718,-1.4980171104919378
2.9,1.690766679606225e+18,17.902224853515627,-12.25359073217511,-12.426388028439284,-3.088549952217936,1.690766679603721e+18,17.8997208984375,-1.0533935546875,-0.2900970458984375,-0.207989501953125,1.690766679606225e+18,17.902224853515627,1.8238499839282032,9.582046645557282,0.9199719148498028,1.690766679606225e+18,17.902224853515627,0.5299196779727936,-2.7839670360088347,-3.098689270019531,1.690766679603721e+18,17.8997208984375,0.7335483253002166,-3.098631191253662,-3.269836902618408,,,,,,,,,,,,,1.690766679606225e+18,17.902224853515627,1.1725616455078125,48.86524429321289,21.3112548828125,1.690766679603136e+18,17.899135986328126,40.66983413696289,71.18257522583008,152.67715454101562,1.690766679606225e+18,17.902224853515627,2.7938364552820536,0.7697398927188088,-0.0719802541513693,2.6712246787125453,-0.6333988883849331,0.0140861499435837,-1.3605966170839687
2.95,1.6907666796563333e+18,17.952333203125,-7.945709764083624,-7.815183571124672,2.6149747741732745,1.6907666796538294e+18,17.949829345703126,-0.5285888671875,0.123095703125,0.282867431640625,1.6907666796563333e+18,17.952333203125,2.5569602605825663,9.449286643744705,0.529270498746708,1.6907666796563333e+18,17.952333203125,-1.5454618692398072,1.2710781693458555,0.1971042692661285,1.6907666796538294e+18,17.949829345703126,-1.4662094593048096,1.2258425116539002,-0.0105577051639556,,,,,,,,,,,,,1.6907666796563333e+18,17.952333203125,5.401844787597656,48.9918098449707,20.466220092773437,1.6907666796499328e+18,17.94593271484375,44.23196105957031,71.7189697265625,150.79171142578124,1.6907666796563333e+18,17.952333203125,1.8253908574714497,0.7930680957484191,-0.0625670041061251,2.939169613602469,-0.6045754670278622,0.0374319510692645,-1.3001436032118248
3.0,1.690766679706442e+18,18.0024419921875,-10.1098024581182,19.66556747975826,18.254821444007753,1.6907666797039378e+18,17.999937841796875,-0.915533447265625,2.9352691650390623,1.7511138916015625,1.690766679706442e+18,18.0024419921875,1.5006424482574314,9.643621116651891,-0.7334849935449007,1.690766679706442e+18,18.0024419921875,-1.4243381857872008,2.756737840175629,3.3940453052520754,1.6907666797039378e+18,17.999937841796875,-1.728195858746767,2.631094789505005,3.382819890975952,,,,,,,,,,,,,1.690766679706442e+18,18.0024419921875,2.5171188354492187,51.18064193725586,14.399240112304687,1.690766679701922e+18,17.997921923828123,40.56997985839844,73.99817504882813,144.479052734375,1.690766679706442e+18,18.0024419921875,-2.5535269530457563,0.7569960166669141,0.0023839348895569,-2.628966063457391,-0.6500761316059851,0.055444235852151,-1.391677895635345
3.05,1.6907666797565504e+18,18.052550341796874,0.59622004316926,0.4548018693178892,5.057269331816881,1.6907666797540462e+18,18.050046337890628,0.0675323486328125,1.0805267333984374,0.597637939453125,1.6907666797565504e+18,18.052550341796874,0.2799083350800909,9.774754160236714,0.2692010265721939,1.6907666797565504e+18,18.052550341796874,4.815311861038208,0.8027565777301788,0.3137134313583374,1.6907666797540462e+18,18.050046337890628,4.712035417556763,1.1071617037057877,0.5545898079872131,,,,,,,,,,,,,1.6907666797565504e+18,18.052550341796874,-2.4155349731445312,49.84114151000976,18.406109619140626,1.69076667975392e+18,18.04991982421875,36.00119323730469,72.163330078125,149.8529052734375,1.6907666797565504e+18,18.052550341796874,0.2072068042102174,0.7159415745190625,0.0086631247715763,0.2599222587474988,-0.6965780148788008,-0.0285763328721751,-1.4991678151292405
3.1,1.690766679806659e+18,18.10265908203125,-3.179813342229128,17.73370392964363,1.8698449885143336,1.6907666798041551e+18,18.100155078125,-0.26290283203125,2.6227386474609373,0.467205810546875,1.690766679806659e+18,18.10265908203125,0.3615985388331115,9.357316566768883,2.801242771937549,1.690766679806659e+18,18.10265908203125,5.170770835876465,-5.532032489776611,0.1304644823074341,1.6907666798041551e+18,18.100155078125,5.189666652679444,-5.1729613780975345,-0.2461458206176758,,,,,,,,,,,,,1.690766679806659e+18,18.10265908203125,-4.2202606201171875,43.522003936767575,30.315472412109376,1.6907666798059105e+18,18.10191015625,33.887149047851565,65.5573516845703,161.7675018310547,1.690766679806659e+18,18.10265908203125,1.7851238992586314,0.7154376039006818,-0.1235210429303057,1.7232020772971062,-0.6807988459535096,-0.0805770181609371,-1.275952440363347
3.15,1.6907666798567675e+18,18.152767578125,25.05447462881297,12.995175991708038,-11.23938721054524,1.6907666798542636e+18,18.150263525390624,1.9164489746093747,2.3080322265625,-0.5211151123046875,1.6907666798567675e+18,18.152767578125,-3.0040868606452644,7.928650258924364,4.7172231671959155,1.6907666798567675e+18,18.152767578125,3.424344682693482,0.3523445129394524,7.424575829505921,1.6907666798542636e+18,18.150263525390624,3.565833234786987,0.1136497497558593,7.476084470748901,,,,,,,,,,,,,1.6907666798567675e+18,18.152767578125,-21.208196258544923,33.32209243774414,35.17239074707031,1.6907666798579064e+18,18.1539064453125,14.374105834960938,52.101409912109375,167.6254913330078,1.6907666798567675e+18,18.152767578125,1.3474220241358883,0.5780913690108528,-0.3038763676118083,1.024738129438644,-0.747647423298262,-0.0878946488679806,-0.9502615024164508
3.2,1.690766679906876e+18,18.202876025390623,10.412167565250993,-0.8921448881214857,-12.370875400053858,1.6907666799043722e+18,18.2003720703125,1.0881866455078124,0.6195648193359375,-0.720953369140625,1.690766679906876e+18,18.202876025390623,-2.7479389933210614,6.9020397341161965,6.398360027478337,1.690766679906876e+18,18.202876025390623,0.7126949593424797,0.8591323725879192,-1.0970268726348875,1.6907666799043722e+18,18.2003720703125,0.8508305162191391,1.368639612197876,-0.8185369685292244,,,,,,,,,,,,,1.690766679906876e+18,18.202876025390623,-19.670626831054687,23.030165100097655,44.29534912109375,1.690766679904698e+18,18.20069793701172,20.27444839477539,45.01521682739258,175.9714317321777,1.690766679906876e+18,18.202876025390623,1.2385365733156382,0.5540983561225172,-0.2776617878170025,1.1650720035495914,-0.7502897146735684,-0.2297138115064151,-0.780778707568967
3.25,1.6907666799569843e+18,18.252984472656248,4.283265582273006,-6.8590335360825065,-9.404212290360928,1.6907666799544806e+18,18.25048056640625,0.2679412841796875,0.061395263671875,-0.318377685546875,1.6907666799569843e+18,18.252984472656248,-1.8463873067505656,7.304175129033922,6.262271641121506,1.6907666799569843e+18,18.252984472656248,-1.0619335293769836,0.3900802537798881,-3.370895767211914,1.6907666799544806e+18,18.25048056640625,-0.9950585007667542,0.2910734593868256,-3.3457450389862062,,,,,,,,,,,,,1.6907666799569843e+18,18.252984472656248,-16.01929588317871,24.69570388793945,44.830047607421875,1.6907666799514929e+18,18.247492919921875,22.870913696289065,47.65099182128906,175.33645629882812,1.6907666799569843e+18,18.252984472656248,1.4159837369025223,0.603543412253047,-0.2888024747347483,1.2857365802179932,-0.7145331746650857,-0.2028098036867237,-0.8406970136423693
