seconds_elapsed_rounded,accelerometer_time,accelerometer_seconds_elapsed,accelerometer_z,accelerometer_y,accelerometer_x,accelerometeruncalibrated_time,accelerometeruncalibrated_seconds_elapsed,accelerometeruncalibrated_z,accelerometeruncalibrated_y,accelerometeruncalibrated_x,gravity_time,gravity_seconds_elapsed,gravity_z,gravity_y,gravity_x,gyroscope_time,gyroscope_seconds_elapsed,gyroscope_z,gyroscope_y,gyroscope_x,gyroscopeuncalibrated_time,gyroscopeuncalibrated_seconds_elapsed,gyroscopeuncalibrated_z,gyroscopeuncalibrated_y,gyroscopeuncalibrated_x,location_time,location_seconds_elapsed,location_bearingAccuracy,location_speedAccuracy,location_verticalAccuracy,location_horizontalAccuracy,location_speed,location_bearing,location_altitude,location_longitude,location_latitude,magnetometer_time,magnetometer_seconds_elapsed,magnetometer_z,magnetometer_y,magnetometer_x,magnetometeruncalibrated_time,magnetometeruncalibrated_seconds_elapsed,magnetometeruncalibrated_z,magnetometeruncalibrated_y,magnetometeruncalibrated_x,orientation_time,orientation_seconds_elapsed,orientation_qz,orientation_qy,orientation_qx,orientation_qw,orientation_roll,orientation_pitch,orientation_yaw
0.0,,,,,,,,,,,,,,,,1.6893057725475507e+18,0.06055078125,0.0358883328735828,-0.0959058403968811,-0.0328340083360672,1.689305772560539e+18,0.073538818359375,0.0532979927957057,-0.0804814994335174,-0.0326812900602817,,,,,,,,,,,,1.6893057725573798e+18,0.0703798828125,-16.335800170898438,-45.07899856567383,-13.85919952392578,1.6893057725573798e+18,0.0703798828125,-284.6260070800781,47.811798095703125,-156.6602020263672,,,,,,,,,
0.05,1.6893057725951447e+18,0.108144775390625,-0.0699098110198974,-0.046112060546875,0.0060229897499084,1.689305772586494e+18,0.0994938151041666,2.295514504114786,9.45464038848877,-0.3230310579140981,1.6893057726037957e+18,0.11679541015625,2.3238275051116943,9.523056030273438,-0.3838314116001129,1.6893057725821714e+18,0.0951715494791666,0.0555887383719284,-0.0486146916324893,-0.0224492972095806,1.689305772586494e+18,0.099493896484375,0.0569631848484277,-0.0370337045751511,-0.019624046050012,,,,,,,,,,,,1.68930577258753e+18,0.100530029296875,-16.52855987548828,-45.36935806274414,-13.727439880371094,1.68930577258753e+18,0.100530029296875,-284.81875,47.52143859863281,-156.52843627929687,,,,,,,,,
0.1,1.689305772629747e+18,0.1427468261718749,-0.2097787857055663,-0.0402870178222655,-0.0319834351539611,1.6893057726383895e+18,0.1513895670572916,2.1122641563415527,9.469595273335775,-0.3511467278003692,1.6893057726383895e+18,0.1513895670572916,2.320263624191284,9.524242401123049,-0.375905434290568,1.6893057726340698e+18,0.14706982421875,0.0229074470698833,0.0016289740257586,0.0089084516124178,1.689305772629747e+18,0.1427468261718749,0.0238746497780084,0.0072285719991971,0.0121154940376678,,,,,,,,,,,,1.68930577263778e+18,0.150780029296875,-16.435839462280274,-45.28639907836914,-13.659119796752927,1.68930577263778e+18,0.150780029296875,-284.7260314941406,47.60439834594727,-156.46011962890626,1.689305772629747e+18,0.1427468261718749,-0.4672176837921142,-0.3477783699830373,0.5114693840344747,0.6317886312802633,0.1624146153529484,-1.3304580052693684,1.401039441426595
0.15,1.6893057726816474e+18,0.1946476236979166,-0.0706806182861328,0.0091896057128906,-0.0508964459101358,1.689305772690299e+18,0.203298828125,2.3140589396158853,9.53779125213623,-0.3591227928797404,1.689305772690299e+18,0.203298828125,2.333094517389933,9.521349906921388,-0.3696442246437072,1.6893057726859722e+18,0.1989720052083333,0.0049887328447463,-0.0098756548638144,-0.0424042294422785,1.6893057726816474e+18,0.1946476236979166,0.0058541251006923,-0.0054977870701501,-0.0375682115554809,,,,,,,,,,,,1.68930577268803e+18,0.201030029296875,-16.599319839477538,-45.36203994750976,-13.864079666137696,1.68930577268803e+18,0.201030029296875,-284.8895202636719,47.528759765625,-156.66507873535156,1.6893057726816474e+18,0.1946476236979166,-0.467237780491511,-0.3478589753309886,0.5109822750091553,0.6321234107017517,0.1586393664280573,-1.3296863635381062,1.3975070317586262
0.2,1.689305772733552e+18,0.2465518391927083,0.0400906403859456,-0.000369389851888,-0.0382508635520934,1.6893057727421983e+18,0.2551985677083333,2.3954149087270102,9.508678436279297,-0.3409772217273711,1.6893057727421983e+18,0.2551985677083333,2.3448847929636636,9.518554051717125,-0.3670942584673564,1.6893057727378778e+18,0.2508777669270833,0.0113519125588935,0.0152716313120132,-0.0083993971347808,1.689305772733552e+18,0.2465518391927083,0.0091629785796006,0.0175623759860172,-0.0094684112506608,,,,,,,,,,,,1.68930577273828e+18,0.251280029296875,-16.472439575195313,-45.35959930419922,-13.776239585876464,1.68930577273828e+18,0.251280029296875,-284.76262817382815,47.53119888305664,-156.57723693847657,1.689305772733552e+18,0.2465518391927083,-0.4674285153547923,-0.3475456237792969,0.5104440848032633,0.6325894991556803,0.1566579242547353,-1.3281629880269368,1.3954432010650637
0.25,1.6893057727854564e+18,0.298456298828125,-0.0151488780975341,0.0089015960693359,-0.0498003959655761,1.689305772794105e+18,0.3071050618489583,2.362114747365316,9.508678436279297,-0.3509473204612731,1.689305772794105e+18,0.3071050618489583,2.353801886240641,9.516552289326986,-0.3618387778600056,1.6893057727897807e+18,0.3027809244791666,0.009722938761115,-0.0115555338561534,-0.0343102642024556,1.6893057727854564e+18,0.298456298828125,0.0086030190189678,-0.0021889333244568,-0.0269798819596568,,,,,,,,,,,,1.68930577278853e+18,0.301530078125,-16.867719650268555,-45.05459976196289,-14.08367977142334,1.68930577278853e+18,0.301530078125,-285.1579162597656,47.83619918823242,-156.88468017578126,1.6893057727854564e+18,0.298456298828125,-0.46719890832901,-0.3473812242348988,0.5102564295132955,0.6330005725224813,0.154264266292254,-1.3276178042093914,1.3924073378245037
0.3,1.6893057728373527e+18,0.3503529459635416,-0.027440309524536,0.0139099756876627,-0.0370321472485859,1.689305772837357e+18,0.35035693359375,2.365305185317993,9.495916843414308,-0.3367897868156433,1.689305772837357e+18,0.35035693359375,2.3780715465545654,9.510851383209229,-0.3529414534568786,1.6893057728416827e+18,0.3546825358072916,0.0059050304504732,-0.0544179119169711,-0.0727947776516278,1.6893057728373527e+18,0.3503529459635416,0.0073812884705451,-0.0487165041267871,-0.0659225396811961,,,,,,,,,,,,1.68930577283878e+18,0.3517798828125,-16.652999496459962,-45.017999267578126,-14.108079719543458,1.68930577283878e+18,0.3517798828125,-284.9431945800781,47.87279815673829,-156.9090789794922,1.6893057728373527e+18,0.3503529459635416,-0.4680537184079487,-0.3474885026613871,0.5087794661521912,0.6334986488024393,0.1484354585409164,-1.324857195218404,1.3885047833124795
0.35,1.689305772889256e+18,0.402255859375,-0.1658700307210286,0.0120064417521159,-0.0391380389531453,1.6893057728806085e+18,0.3936088053385416,2.2981067498524985,9.524630546569824,-0.3258226811885833,1.6893057728806085e+18,0.3936088053385416,2.429956595102946,9.49783420562744,-0.349028209845225,1.6893057728935864e+18,0.4065863444010416,-0.0211766622960567,-0.1250746597846348,-0.2153299947579701,1.689305772889256e+18,0.402255859375,-0.0219402437408764,-0.1101593635976314,-0.1986839224894841,,,,,,,,,,,,1.68930577288903e+18,0.402029833984375,-17.489919662475586,-44.952118682861325,-14.432599639892578,1.68930577288903e+18,0.402029833984375,-285.7801147460938,47.93867874145508,-157.2335968017578,1.689305772889256e+18,0.402255859375,-0.4704815944035848,-0.3469962378342946,0.5056740442911783,0.6344534754753113,0.1423852096001306,-1.317801594734192,1.3864822785059612
0.4,1.6893057729411597e+18,0.4541597493489583,-0.4756093819936116,0.0852979024251301,0.0209929943084716,1.6893057729325115e+18,0.4455113932291667,2.2153549194335938,9.505288441975912,-0.2719841748476028,1.6893057729325115e+18,0.4455113932291667,2.58087690671285,9.458128929138184,-0.3384314974149067,1.6893057729368384e+18,0.4498385009765625,-0.0371864214539527,-0.2702315151691436,-0.4595233798027038,1.6893057729411597e+18,0.4541597493489583,-0.0543670058250426,-0.3081815193096796,-0.5331835448741913,,,,,,,,,,,,1.68930577293928e+18,0.4522798828125,-18.0974796295166,-44.9887191772461,-14.449679565429689,1.68930577293928e+18,0.4522798828125,-286.38767700195314,47.90207977294922,-157.25067749023438,1.6893057729411597e+18,0.4541597493489583,-0.4769708812236786,-0.3457064429918924,0.4974559247493744,0.6367889642715454,0.1281773621837297,-1.2992414236068726,1.3832010825475056
0.45,1.6893057729930655e+18,0.5060657552083333,-0.3697125116984049,-0.0478439331054687,-0.0279238720734914,1.689305772984418e+18,0.4974178873697916,2.534996191660563,9.313264528910318,-0.2775674313306808,1.689305772984418e+18,0.4974178873697916,3.0007196267445884,9.332711219787598,-0.3234175940354665,1.6893057729800824e+18,0.4930821940104167,-0.1356120854616165,-0.5365433096885681,-1.07395201921463,1.6893057729930655e+18,0.5060657552083333,-0.1315905551115671,-0.5258531669775645,-1.162680188814799,,,,,,,,,,,,1.68930577298953e+18,0.5025298828125,-19.624919509887697,-43.971240234375,-14.84007968902588,1.68930577298953e+18,0.5025298828125,-287.9151123046875,48.919560241699216,-157.64107666015624,1.6893057729930655e+18,0.5060657552083333,-0.4935126503308614,-0.3403172194957733,0.4765709241231282,0.6429787675539652,0.1041139264901478,-1.2495265007019043,1.3844419320424397
0.5,1.6893057730363172e+18,0.5493170166015625,-0.2787566184997558,0.0414247512817382,0.0860992744565009,1.689305773036319e+18,0.5493191731770833,3.2652058601379395,9.133802731831867,-0.2087737768888473,1.689305773036319e+18,0.5493191731770833,3.5726632277170816,9.129709561665852,-0.3051798442999522,1.689305773031989e+18,0.544989013671875,-0.0772744516531626,-0.2571233585476875,-1.1823296546936035,1.6893057730363172e+18,0.5493170166015625,-0.0746019184589386,-0.2106721475720405,-1.1572842001914978,,,,,,,,,,,,1.6893057730397798e+18,0.5527798828125,-22.001479721069337,-42.76587829589844,-14.766879844665528,1.6893057730397798e+18,0.5527798828125,-290.2916748046875,50.124918365478514,-157.5678741455078,1.6893057730363172e+18,0.5493170166015625,-0.507146567106247,-0.3320223093032837,0.4567747712135315,0.6510717868804932,0.0853080973029136,-1.1987306475639343,1.3818487524986267
0.55,1.6893057730795643e+18,0.5925646158854166,-0.6518674691518148,-0.0515069961547851,-0.2801932692527771,1.6893057730882204e+18,0.6012205403645833,3.707279841105143,8.73599624633789,-0.5569294691085815,1.6893057730882204e+18,0.6012205403645833,4.276586850484212,8.820083300272623,-0.3028747737407684,1.6893057730838958e+18,0.5968957519531249,0.0406734428058067,-0.018173241832604,-1.7019723653793335,1.6893057730795643e+18,0.5925646158854166,0.0250963804622491,-0.0029525142163038,-1.6640987396240234,,,,,,,,,,,,1.68930577309003e+18,0.603029931640625,-25.56387939453125,-40.87243881225586,-14.759559631347656,1.68930577309003e+18,0.603029931640625,-293.85407104492185,52.018358612060545,-157.56055603027343,1.6893057730795643e+18,0.5925646158854166,-0.5180961887041727,-0.3157698512077331,0.4356109201908111,0.6647986769676208,0.0750882923603057,-1.1349661747614543,1.3720080057779949
0.6,1.6893057731314683e+18,0.644468505859375,-0.1883476575215657,0.0014476776123047,-0.1110178927580515,1.6893057731401216e+18,0.6531217447916666,4.916652361551921,8.424331029256185,-0.2398804674545923,1.6893057731401216e+18,0.6531217447916666,5.002232551574707,8.433475176493326,-0.2322160452604293,1.6893057731358e+18,0.648800048828125,0.0719293827811876,-0.1740965942541757,-1.468927264213562,1.6893057731314683e+18,0.644468505859375,0.0696386384467283,-0.1816815038522084,-1.51158607006073,,,,,,,,,,,,1.6893057731402798e+18,0.653279931640625,-28.672439575195312,-38.7398796081543,-15.003559684753418,1.6893057731402798e+18,0.653279931640625,-296.96262817382814,54.150919342041014,-157.80455627441407,1.6893057731314683e+18,0.644468505859375,-0.5314740339914957,-0.2961719234784444,0.4041042327880859,0.6829414765040079,0.0503728414575258,-1.048880100250244,1.3518584569295249
0.65,1.6893057731833746e+18,0.69637451171875,0.418768564860026,-0.1246461868286132,-0.0403920362393061,1.689305773192022e+18,0.7050220540364583,5.952545166015625,8.036893367767334,-0.178464688360691,1.689305773192022e+18,0.7050220540364583,5.464529037475586,8.143681526184082,-0.2146750787893931,1.689305773187701e+18,0.7007010904947917,0.2439897606770197,0.4312708725531896,-0.8536332647005717,1.6893057731833746e+18,0.69637451171875,0.2296853313843409,0.3838269958893458,-0.9245445529619852,,,,,,,,,,,,1.6893057731905298e+18,0.7035299316406249,-31.190518951416017,-36.9147590637207,-14.9791597366333,1.6893057731905298e+18,0.7035299316406249,-299.480712890625,55.9760383605957,-157.78015747070313,1.6893057731833746e+18,0.69637451171875,-0.5367996493975321,-0.2793992757797241,0.3831609984238942,0.697794775168101,0.0390187328060467,-0.987664759159088,1.332482894261678
0.7,1.6893057732352727e+18,0.7482727864583333,0.4213088353474934,0.0617370605468749,0.0205513387918472,1.6893057732439278e+18,0.7569278971354167,5.966104507446289,8.15214729309082,-0.251246377825737,1.6893057732439278e+18,0.7569278971354167,5.516767819722493,8.106830914815268,-0.279566208521525,1.6893057732396042e+18,0.752604248046875,0.1530217478672663,0.473929613828659,0.1814778770009676,1.6893057732352727e+18,0.7482727864583333,0.1754201327761014,0.5159775018692017,0.1163189311822255,,,,,,,,,,,,1.68930577324078e+18,0.75377998046875,-32.164080429077146,-36.13151931762695,-14.969399642944335,1.68930577324078e+18,0.75377998046875,-300.4542724609375,56.75927886962891,-157.77039794921876,1.6893057732352727e+18,0.7482727864583333,-0.5292045871416727,-0.2673329412937164,0.3835287590821584,0.7080717086791992,0.0485498222211996,-0.9721419016520182,1.309313416481018
0.75,1.68930577328718e+18,0.8001800130208333,1.3157369295756025,-0.367368221282959,-0.1372462014357248,1.6893057732871777e+18,0.800177490234375,6.692126750946045,7.855038642883301,-0.3637090474367142,1.6893057732871777e+18,0.800177490234375,5.310033321380615,8.242042541503906,-0.3183143883943558,1.6893057732915036e+18,0.8045037434895833,0.0456621777266263,0.1815796966354051,1.0808242162068684,1.68930577328718e+18,0.8001800130208333,0.0333939660340547,0.177558163801829,0.9537133773167928,1.689305773311e+18,0.824,0.0,0.0,0.9506596922874452,21.415000915527344,0.0,0.0,40.900001525878906,-122.7531546,49.1904195,1.68930577329103e+18,0.80402998046875,-31.55163955688477,-37.04895935058594,-14.539959716796876,1.68930577329103e+18,0.80402998046875,-299.8418334960937,55.84183883666992,-157.34095764160156,1.68930577328718e+18,0.8001800130208333,-0.521758516629537,-0.2707890768845876,0.3969479799270629,0.7048529982566833,0.0603380799293517,-1.0013505220413208,1.3074934482574463
0.8,1.6893057733390817e+18,0.852081787109375,1.552334547042847,-0.4003361066182454,-0.0616187651952107,1.689305773330428e+18,0.8434278971354167,6.335795561472575,8.196613947550455,-0.3555335700511932,1.689305773330428e+18,0.8434278971354167,4.586490631103516,8.65619691212972,-0.3446293473243713,1.6893057733434094e+18,0.85640966796875,-0.0443895415713389,0.2398155083258946,3.002453565597534,1.6893057733390817e+18,0.852081787109375,-0.0073303803801537,0.259770448009173,2.877022663752238,,,,,,,,,,,,1.6893057733412795e+18,0.85427998046875,-28.06975975036621,-39.64511947631836,-14.337439918518069,1.6893057733412795e+18,0.85427998046875,-296.3599548339844,53.245679473876955,-157.13843994140626,1.6893057733390817e+18,0.852081787109375,-0.5025292932987213,-0.2943340043226878,0.4372787376244862,0.6849440534909567,0.0825421015421549,-1.1090066035588582,1.3174684047698977
0.85,1.689305773390982e+18,0.9039822591145832,0.6907586256663004,-0.7385737101236979,-0.1926121711730957,1.6893057733823365e+18,0.895336181640625,3.811566988627116,8.609575271606445,-0.5808577140172323,1.6893057733823365e+18,0.895336181640625,3.026101032892863,9.30507564544678,-0.4863536755243937,1.689305773386654e+18,0.899654052734375,-0.3977496325969696,0.2314415723085403,3.643963932991028,1.689305773390982e+18,0.9039822591145832,-0.3862195412317912,0.2488766858975092,3.5830300649007163,,,,,,,,,,,,1.68930577339153e+18,0.9045300292968752,-19.803039932250975,-44.17375946044922,-13.36143970489502,1.68930577339153e+18,0.9045300292968752,-288.0932373046875,48.71703948974609,-156.16243896484374,1.689305773390982e+18,0.9039822591145832,-0.4762606521447499,-0.3307495613892873,0.501566747824351,0.6415233810742696,0.1996874511241912,-1.283764362335205,1.4291633367538452
0.9,1.6893057734428884e+18,0.95588818359375,-0.0902182062466939,-0.2242094675699869,0.0530891021092732,1.689305773434234e+18,0.94723388671875,1.4632110198338826,9.34855842590332,-0.6576274236043295,1.689305773434234e+18,0.94723388671875,1.4126288890838623,9.674148241678871,-0.7132502992947897,1.689305773429913e+18,0.9429132486979168,-0.4109595914681752,0.2378301968177159,2.925128221511841,1.6893057734428884e+18,0.95588818359375,-0.4444044729073842,0.1875865384936332,2.587472438812256,,,,,,,,,,,,1.68930577344178e+18,0.954780029296875,-12.231719589233398,-47.45555877685547,-12.561119651794431,1.68930577344178e+18,0.954780029296875,-280.52191162109375,45.43523941040039,-155.36211853027345,1.6893057734428884e+18,0.95588818359375,-0.4518592158953349,-0.3583436210950215,0.5579349001248678,0.5964979728062948,0.5976223051548004,-1.4255150159200032,1.8215145270029705
0.95,1.6893057734861404e+18,0.9991402587890624,-0.4502242654561996,-0.1620545387268066,0.1521284282207489,1.6893057734861404e+18,0.999140380859375,-0.079561357696851,9.605388323465982,-0.7421738306681315,1.6893057734861404e+18,0.999140380859375,0.359523852666219,9.753717104593912,-0.9587471683820088,1.689305773481814e+18,0.99481396484375,-0.485332449277242,0.0543670058250427,1.7374025583267212,1.6893057734861404e+18,0.9991402587890624,-0.4812854528427124,0.0445168036967515,1.6522377729415894,,,,,,,,,,,,1.689305773487005e+18,1.0000050048828126,-7.2864497900009155,-48.528550148010254,-11.364299774169922,1.689305773487005e+18,1.0000050048828126,-275.57664489746094,44.362250328063965,-154.16529846191406,1.6893057734861404e+18,0.9991402587890624,-0.4411161094903946,-0.3705396503210068,0.5878350138664246,0.5679049789905548,1.234615445137024,-1.4660617113113403,2.4591275453567505
1.0,1.689305773529389e+18,1.0423890787760417,-0.7180631160736084,0.0581960678100586,0.319908062616984,1.6893057735380431e+18,1.0510432942708332,-1.115852971871694,9.813962936401367,-0.7631110151608785,1.6893057735380431e+18,1.0510432942708332,-0.3043677657842635,9.734378496805826,-1.1682117382685344,1.6893057735337193e+18,1.0467191569010417,-0.3566434979438782,0.245873267451922,1.0858129858970642,1.689305773529389e+18,1.0423890787760417,-0.3815362453460693,0.2102903624375661,1.1499029000600178,,,,,,,,,,,,1.68930577353223e+18,1.0452300292968748,-4.4456799030303955,-49.21723861694336,-10.62619972229004,1.68930577353223e+18,1.0452300292968748,-272.7358764648437,43.6735595703125,-153.4272003173828,1.689305773529389e+18,1.0423890787760417,-0.4341499308745066,-0.3762950201829274,0.6084503332773844,0.5473890701929728,1.7635664542516072,-1.450893759727478,2.9865928490956626
1.05,1.6893057735812956e+18,1.094295654296875,-1.447681744893392,0.0311660766601562,0.104975938796997,1.689305773589945e+18,1.1029453125000002,-2.0149560372034707,9.692527135213217,-1.1284152666727705,1.689305773589945e+18,1.1029453125000002,-0.5458807746569315,9.71857452392578,-1.2194122076034546,1.6893057735856225e+18,1.0986224772135416,-0.0219402421886721,0.3569489270448684,0.0663806895414988,1.6893057735812956e+18,1.094295654296875,-0.0453567467629909,0.4080070853233337,0.1621847301721573,,,,,,,,,,,,1.68930577358248e+18,1.095480078125,-3.106119918823242,-49.449038696289065,-9.911279678344728,1.68930577358248e+18,1.095480078125,-271.3963134765625,43.441759490966795,-152.7122772216797,1.6893057735812956e+18,1.094295654296875,-0.4241373538970947,-0.3744270205497741,0.6232494314511617,0.5398739377657572,2.0022117694218955,-1.433401107788086,-3.077664375305176
1.1,1.6893057736331948e+18,1.1461946614583332,-1.1945377190907795,0.1409460703531901,-0.0266107320785522,1.6893057736418424e+18,1.15484228515625,-1.365304708480835,9.88554827372233,-1.110469102859497,1.6893057736418424e+18,1.15484228515625,-0.2359370191891987,9.740688641866049,-1.1293110450108843,1.6893057736375237e+18,1.1505238444010415,0.2886847307284673,-0.0603229428331057,-0.9172141750653584,1.6893057736331948e+18,1.1461946614583332,0.256868839263916,-0.0763581581413746,-0.8413141369819641,,,,,,,,,,,,1.68930577363273e+18,1.1457299316406249,-4.3773599624633786,-49.42707901000976,-10.094279670715332,1.68930577363273e+18,1.1457299316406249,-272.66754760742185,43.46371917724609,-152.89527893066406,1.6893057736331948e+18,1.1461946614583332,-0.4259633223215739,-0.3707923591136932,0.616146465142568,0.5489844679832458,1.8483123381932576,-1.4472537438074748,0.9535030523935956
1.15,1.6893057736850967e+18,1.198096923828125,-1.1678545872370405,0.1487576166788736,-0.3124370773633321,1.689305773693749e+18,1.2067489420572917,-0.7403792142868042,9.839885075887045,-1.2029915650685628,1.689305773693749e+18,1.2067489420572917,0.4740875959396362,9.754459381103516,-0.8932723601659139,1.6893057736894216e+18,1.202421630859375,0.5272276202837626,0.2648100852966308,-1.6568701267242432,1.6893057736850967e+18,1.198096923828125,0.5154175659020742,0.2815070648988088,-1.5907949209213257,,,,,,,,,,,,1.68930577368298e+18,1.195979833984375,-7.254119777679444,-48.93663864135742,-10.99219970703125,1.68930577368298e+18,1.195979833984375,-275.5443054199219,43.954158782958984,-153.79319763183594,1.6893057736850967e+18,1.198096923828125,-0.4294508993625641,-0.3607544700304667,0.5948002338409424,0.5757504105567932,1.248546123504639,-1.4671222766240437,2.436143477757772
1.2,1.6893057737370048e+18,1.250004638671875,-1.3019132614135742,-0.4195836385091145,-0.2848599950472513,1.6893057737370043e+18,1.2500042724609377,0.1639083493500948,9.298807621002195,-0.8108677566051483,1.6893057737370043e+18,1.2500042724609377,1.411271572113037,9.684424877166748,-0.6292436122894287,1.6893057737413302e+18,1.2543301595052083,0.7262169520060221,-0.0785470902919769,-2.78228759765625,1.6893057737370048e+18,1.250004638671875,0.7074328660964966,-0.0632245534410079,-2.67452081044515,,,,,,,,,,,,1.68930577373323e+18,1.2462298828125,-12.404959869384763,-47.27743988037109,-12.224399757385251,1.68930577373323e+18,1.2462298828125,-280.6951599121094,45.61336059570313,-155.02539672851563,1.6893057737370048e+18,1.250004638671875,-0.4386553267637889,-0.3443910082181294,0.5561531980832418,0.6158336599667867,0.4501926104227702,-1.4106924533843994,1.6282298962275188
1.25,1.689305773788903e+18,1.3019029134114584,-1.3750730752944946,-0.5735028584798177,-0.2119974245627721,1.6893057737802547e+18,1.2932547200520832,1.3894323507944744,8.819545110066732,-0.4791627426942189,1.6893057737802547e+18,1.2932547200520832,2.7660487492879233,9.393019676208496,-0.3079919616381327,1.689305773793236e+18,1.3062360026041666,0.6363179485003153,-0.2750929767886798,-3.752036174138387,1.689305773788903e+18,1.3019029134114584,0.6667593916257223,-0.2217440803845723,-3.687793493270874,,,,,,,,,,,,1.6893057737834798e+18,1.2964798828125,-19.790839385986327,-44.1810791015625,-13.981199645996094,1.6893057737834798e+18,1.2964798828125,-288.08103637695314,48.70971908569336,-156.78219604492188,1.689305773788903e+18,1.3019029134114584,-0.4565636217594147,-0.3179428577423095,0.4929655989011128,0.6683706641197205,0.0879397590955098,-1.252867261568705,1.2642882267634077
1.3,1.689305773840809e+18,1.3538090006510417,-0.5280892054239908,-0.6529076894124349,0.2399175465106964,1.689305773832163e+18,1.3451630859375,3.822733561197917,7.953343709309896,0.21714864919583,1.689305773832163e+18,1.3451630859375,4.58496880531311,8.655641555786133,0.0188958620031674,1.6893057738364813e+18,1.3494813232421876,0.171424064785242,-0.8319221138954163,-3.887241005897522,1.689305773840809e+18,1.3538090006510417,0.1280271708965301,-0.8032368818918864,-3.76002836227417,,,,,,,,,,,,1.68930577383373e+18,1.3467298828124998,-27.89651985168457,-38.9277587890625,-15.757519721984863,1.68930577383373e+18,1.3467298828124998,-296.18671264648435,53.96303863525391,-158.5585174560547,1.689305773840809e+18,1.3538090006510417,-0.4874837001164753,-0.2861956059932709,0.41274360815684,0.7137044270833334,-0.0117071579831341,-1.0527936418851216,1.1920409202575684
1.35,1.6893057738927122e+18,1.4057119954427082,1.3653210004170735,-0.5149998664855957,0.6314012408256531,1.6893057738840614e+18,1.3970614420572918,7.000003337860107,7.272785027821858,0.8309076627095541,1.6893057738840614e+18,1.3970614420572918,5.916163603464763,7.817992210388184,0.1700121859709421,1.6893057738797366e+18,1.3927366536458334,-0.154803435007731,-0.4084652286643783,-2.4958935578664145,1.6893057738927122e+18,1.4057119954427082,-0.1911499152580896,-0.1166752576828002,-1.842522342999776,,,,,,,,,,,,1.68930577388398e+18,1.3969799316406248,-33.79643936157227,-34.059959411621094,-16.933600234985352,1.68930577388398e+18,1.3969799316406248,-302.0866333007813,58.83083877563477,-159.7345947265625,1.6893057738927122e+18,1.4057119954427082,-0.5145361423492432,-0.2589125136534372,0.3545012672742207,0.7364843090375265,-0.0271142106503247,-0.908711036046346,1.2062995433807373
1.4,1.6893057739446095e+18,1.4576094563802082,1.8861336708068848,-0.3139467239379882,0.2432786772648493,1.6893057739359642e+18,1.4489641927083332,7.987640698750813,7.201000372568767,0.4307080854972203,1.6893057739359642e+18,1.4489641927083332,6.161880334218343,7.632127443949382,0.0004397095181048,1.6893057739316406e+18,1.444640625,-0.2505056560039519,0.4345288177331288,0.3330233891805013,1.6893057739446095e+18,1.4576094563802082,-0.2670499235391616,0.4477133254210154,0.893186797698339,,,,,,,,,,,,1.68930577393423e+18,1.447229931640625,-36.11443939208984,-32.273878479003905,-16.326039505004882,1.68930577393423e+18,1.447229931640625,-304.4046325683594,60.61691818237305,-159.1270324707031,1.6893057739446095e+18,1.4576094563802082,-0.517201562722524,-0.2483110974232355,0.3577120204766591,0.7367558280626932,0.0068390724870065,-0.9010746677716572,1.2275494734446208
1.45,1.6893057739878666e+18,1.5008666992187498,1.483142614364624,-0.08266282081604,-0.1958299428224563,1.6893057739878597e+18,1.500860026041667,7.216354211171468,7.948557853698731,-0.3631108403205871,1.6893057739878597e+18,1.500860026041667,5.639771620432536,8.021522363026937,-0.2138186544179916,1.6893057739835423e+18,1.4965422363281249,-0.3889175355434418,0.0710130805770556,1.4367550611495972,1.6893057739878666e+18,1.5008666992187498,-0.4101960062980652,0.0112246498465538,1.4273629784584043,,,,,,,,,,,,1.68930577398448e+18,1.4974799316406249,-34.23075866699219,-34.423519897460935,-15.318319702148438,1.68930577398448e+18,1.4974799316406249,-302.5209533691406,58.46727981567383,-158.11932067871095,1.6893057739878666e+18,1.5008666992187498,-0.5130456984043121,-0.2568868994712829,0.3838478028774261,0.723473995923996,0.0387545302510261,-0.9597070515155792,1.253894329071045
1.5,1.689305774031119e+18,1.5441192220052085,1.5175806681315105,-0.3022872606913248,-0.4643577535947163,1.68930577403977e+18,1.5527696940104168,6.557929356892903,8.032107671101889,-0.692323366800944,1.68930577403977e+18,1.5527696940104168,5.054824988047282,8.399400393168131,-0.29960431655248,1.689305774035447e+18,1.5484471028645832,-0.4397720694541931,-0.5466734965642294,1.463327685991923,1.689305774031119e+18,1.5441192220052085,-0.459268848101298,-0.5348125100135803,1.4226542711257937,,,,,,,,,,,,1.68930577403473e+18,1.54772998046875,-30.751319122314452,-37.39787902832031,-14.935239601135256,1.68930577403473e+18,1.54772998046875,-299.0415100097656,55.49291839599609,-157.73623657226562,1.689305774031119e+18,1.5441192220052085,-0.5163015921910604,-0.2741964956124623,0.4028448164463043,0.7041569749514262,0.0570759872595468,-1.017067849636078,1.2972861131032307
1.55,1.689305774083017e+18,1.5960171712239584,1.0384892622629802,-0.4367650349934895,-0.2315763632456461,1.6893057740916705e+18,1.6046704915364582,5.021138827006022,8.422735850016275,-0.50907301902771,1.6893057740916705e+18,1.6046704915364582,4.109280665715535,8.89160442352295,-0.3834473590056101,1.689305774087344e+18,1.6003438313802083,-0.3207042614618937,0.0139989977081616,2.4865269660949707,1.689305774083017e+18,1.5960171712239584,-0.3163772920767465,-0.0638863195975621,2.393115480740865,,,,,,,,,,,,1.68930577408498e+18,1.59797998046875,-26.69359931945801,-40.62111968994141,-14.703439712524414,1.68930577408498e+18,1.59797998046875,-294.9837890625,52.26967926025391,-157.5044372558594,1.689305774083017e+18,1.5960171712239584,-0.5116391579310099,-0.3025932510693867,0.4351668457190196,0.6759982506434122,0.0837078640858331,-1.1157543261845906,1.348471204439799
1.6,1.689305774134926e+18,1.6479259440104166,0.1139649550120035,-0.6395562489827474,-0.1987496614456176,1.6893057741435717e+18,1.6565716959635417,2.6376881996790567,8.796016057332357,-0.7928219040234884,1.6893057741435717e+18,1.6565716959635417,2.6598192850748696,9.409297307332356,-0.6509053309758505,1.689305774139248e+18,1.652248046875,-0.3090469042460123,0.9352346857388816,3.1336878140767417,1.689305774134926e+18,1.6479259440104166,-0.3144428928693135,0.8988373080889384,3.126306533813477,,,,,,,,,,,,1.68930577413523e+18,1.64822998046875,-20.142199325561524,-44.11275939941406,-13.368759727478029,1.68930577413523e+18,1.64822998046875,-288.4323974609375,48.77803955078125,-156.1697570800781,1.689305774134926e+18,1.6479259440104166,-0.4866691529750824,-0.3272621929645538,0.4944863518079122,0.6410827040672302,0.2123335848251978,-1.2628549337387085,1.4561456839243572
1.65,1.68930577418683e+18,1.6998301595052083,-0.4750851392745971,-0.3015950520833333,-0.0095534722010294,1.6893057741868155e+18,1.6998157958984377,0.9038887321949004,9.347262382507324,-0.8087740540504456,1.6893057741868155e+18,1.6998157958984377,1.3951538801193235,9.668320178985596,-0.8698186874389648,1.6893057741911542e+18,1.704154052734375,-0.3627521495024363,0.8024733066558838,2.7156014442443848,1.68930577418683e+18,1.6998301595052083,-0.3551672299702962,0.8339328567186991,2.7809131940205893,,,,,,,,,,,,1.68930577418548e+18,1.69847998046875,-13.878719520568849,-46.99195861816406,-12.04139976501465,1.68930577418548e+18,1.69847998046875,-282.1689086914063,45.89883880615234,-154.84239807128907,1.68930577418683e+18,1.6998301595052083,-0.4530796706676482,-0.344299962123235,0.557192305723826,0.6044070323308309,0.5866985023021698,-1.4008734623591106,1.7898578643798828
1.7,1.689305774238723e+18,1.751723388671875,-0.7770625948905945,-0.108533223470052,0.1458869775136311,1.6893057742300787e+18,1.743079020182292,-0.3226322482029597,9.601998329162598,-0.8616155584653219,1.6893057742300787e+18,1.743079020182292,0.3763694074004888,9.739828745524088,-1.0683943231900532,1.6893057742430508e+18,1.7560506998697918,-0.3828597962856293,0.6200282176335653,1.8762216567993164,1.689305774238723e+18,1.751723388671875,-0.4051563739776611,0.6366743048032125,1.9587903420130413,,,,,,,,,,,,1.68930577423573e+18,1.748730029296875,-8.37895975112915,-48.856118774414064,-10.49199981689453,1.68930577423573e+18,1.748730029296875,-276.6691528320313,44.03467864990235,-153.29299926757812,1.689305774238723e+18,1.751723388671875,-0.4279035925865173,-0.3539243737856547,0.6040944854418436,0.5714023311932882,1.3981741269429524,-1.4530460437138877,2.572014013926188
1.75,1.6893057742906337e+18,1.8036336263020831,-1.2512327432632446,0.0779949824015299,0.2700386444727579,1.68930577428198e+18,1.794979736328125,-1.6103696425755818,9.774481137593588,-0.8891329964001974,1.68930577428198e+18,1.794979736328125,-0.4116882532835006,9.728148142496744,-1.188578963279724,1.6893057742863094e+18,1.7993092041015624,-0.0223729386925697,0.4847215861082077,0.8865182101726532,1.6893057742906337e+18,1.8036336263020831,-0.0180714284069836,0.4686863521734873,0.7825692892074585,,,,,,,,,,,,1.6893057742859802e+18,1.7989800292968752,-4.7018798828125,-49.356318664550784,-10.040599822998049,1.6893057742859802e+18,1.7989800292968752,-272.99207763671876,43.53447952270508,-152.8415985107422,1.6893057742906337e+18,1.8036336263020831,-0.40988556543986,-0.3575022121270497,0.6304990649223328,0.5537367860476176,1.965965231259664,-1.438945730527242,1.0215082168579102
1.8,1.689305774342536e+18,1.8555357259114584,-1.262897292772929,0.0925547281901041,0.2369095484415689,1.6893057743338852e+18,1.8468851725260416,-1.8225332498550415,9.811171213785808,-0.8342974980672201,1.6893057743338852e+18,1.8468851725260416,-0.5737351377805074,9.72626527150472,-1.1421750783920288,1.689305774329561e+18,1.8425613606770832,0.1351539343595504,0.3227913777033488,-0.103948896129926,1.689305774342536e+18,1.8555357259114584,0.2026545455058415,0.3219259877999623,-0.3711515460163355,,,,,,,,,,,,1.68930577433623e+18,1.849230029296875,-3.686839962005615,-49.461238861083984,-9.82343978881836,1.68930577433623e+18,1.849230029296875,-271.97703247070314,43.42955932617187,-152.6244354248047,1.689305774342536e+18,1.8555357259114584,-0.4017079571882884,-0.3550810217857361,0.6344250440597534,0.5568073590596517,2.033130645751953,-1.4425880114237468,-1.023716926574707
1.85,1.6893057743944338e+18,1.9074339192708332,-1.563067634900411,-0.0119536717732747,0.068994383017222,1.689305774385784e+18,1.898784261067708,-1.6426727374394734,9.797811190287272,-0.7694918910662333,1.689305774385784e+18,1.898784261067708,-0.162057730058829,9.758045514424644,-0.9738850990931196,1.6893057743814584e+18,1.89445849609375,0.3905974229176839,0.3841324249903361,-1.2451979120572407,1.6893057743944338e+18,1.9074339192708332,0.4306090871493022,0.3771583835283915,-1.565189520517985,,,,,,,,,,,,1.68930577438648e+18,1.899480078125,-6.387919902801514,-49.00983810424805,-10.291919898986816,1.68930577438648e+18,1.899480078125,-274.67811889648436,43.880958557128906,-153.09291381835936,1.6893057743944338e+18,1.9074339192708332,-0.4000367522239685,-0.3445978760719299,0.6193853815396627,0.5808848341306051,1.605538249015808,-1.4725175698598223,2.716092507044474
1.9,1.689305774437691e+18,1.9506907958984376,-1.5439609289169312,-0.2285113334655761,-0.2050625979900359,1.6893057744376904e+18,1.9506903483072917,-0.6927221566438675,9.448060035705566,-0.8681958119074503,1.6893057744376904e+18,1.9506903483072917,0.8922571937243143,9.734522183736166,-0.729919453461965,1.6893057744333678e+18,1.9463678385416667,0.5210680464903513,0.1591812980671723,-2.5259787241617837,1.689305774437691e+18,1.9506907958984376,0.5309946238994598,0.127441756427288,-2.6273313760757446,,,,,,,,,,,,1.68930577443673e+18,1.949729931640625,-11.326479721069337,-47.843519592285155,-11.494839477539063,1.68930577443673e+18,1.949729931640625,-279.61668090820314,45.04728012084961,-154.29583740234375,1.689305774437691e+18,1.9506907958984376,-0.4062535762786865,-0.3289089947938918,0.5896807610988617,0.6155558824539185,0.721112847328186,-1.4538604617118835,1.816553831100464
1.95,1.689305774480992e+18,1.9939920247395833,-1.4256056944529216,-0.7222023010253906,-0.1636250217755635,1.6893057744896182e+18,2.0026181640625,1.2520444691181185,8.672985076904297,-0.4969094892342885,1.6893057744896182e+18,2.0026181640625,2.53129510084788,9.451992988586426,-0.4585308730602264,1.6893057744881974e+18,2.0011974487304687,0.4557436555624008,-0.2840523347258568,-3.648125410079956,1.6893057744871158e+18,2.00011572265625,0.4550564289093017,-0.2694679340347647,-3.619987428188324,,,,,,,,,,,,1.68930577448698e+18,1.999979833984375,-18.917319679260252,-45.074119567871094,-12.361039924621585,1.68930577448698e+18,1.999979833984375,-287.2075134277344,47.81667861938477,-155.1620330810547,1.689305774480992e+18,1.9939920247395833,-0.4221627910931905,-0.3075630863507588,0.5405203104019165,0.659045934677124,0.2392552892367045,-1.3362609545389812,1.332296371459961
2.0,1.6893057745328456e+18,2.045845703125,-0.4632805188496907,-0.6972649892171224,0.2354082266489664,1.6893057745414966e+18,2.05449658203125,4.097708781560262,8.095516999562582,0.0789631456136703,1.6893057745414966e+18,2.05449658203125,4.316067059834798,8.79196580251058,-0.257716233531634,1.689305774537172e+18,2.0501721191406252,0.0125227347016334,-0.7325038015842438,-3.6620607376098633,1.689305774537172e+18,2.0501721191406252,0.0116064399480819,-0.7278459370136261,-3.659770011901855,,,,,,,,,,,,1.6893057745371684e+18,2.05016845703125,-26.910759353637697,-40.64063949584961,-13.705479621887209,1.6893057745371684e+18,2.05016845703125,-295.2009582519531,52.25015869140625,-156.50647583007813,1.6893057745328456e+18,2.045845703125,-0.4523906409740448,-0.2777607142925262,0.4659967422485351,0.7073515057563782,0.0714015712340672,-1.1461280981699626,1.184736927350362
2.05,1.689305774584745e+18,2.097744954427083,0.8989276885986328,-0.6565353075663248,0.2030362114310264,1.6893057745933983e+18,2.106398356119791,6.665606180826823,7.487740198771159,0.0173479634492347,1.6893057745933983e+18,2.106398356119791,5.586475849151611,8.055556456247965,-0.2266950954993565,1.689305774580426e+18,2.093426025390625,-0.1366301973660786,-0.2255619869877894,-2.675182580947876,1.689305774580426e+18,2.093426025390625,-0.1375464921196301,-0.2209296009192864,-2.672789971033732,,,,,,,,,,,,1.689305774587172e+18,2.100172119140625,-32.77895965576172,-35.6020393371582,-14.386239433288576,1.689305774587172e+18,2.100172119140625,-301.06915893554685,57.28875885009766,-157.18724060058594,1.689305774584745e+18,2.097744954427083,-0.4809971650441487,-0.2474621733029683,0.4030658900737762,0.7380064725875854,0.0406977074841657,-0.984920839468638,1.1770564317703247
2.1,1.689305774636647e+18,2.1496468098958332,1.7468900680541992,-0.1467137336730957,0.0942418773969014,1.6893057746366518e+18,2.1496517333984375,7.899305820465088,7.574779033660889,-0.0658026218879967,1.6893057746366518e+18,2.1496517333984375,6.039095401763916,7.726202964782715,-0.2635283172130584,1.6893057746323284e+18,2.1453284505208337,-0.0727947751681009,0.0851647953192392,-0.7991135468085607,1.6893057746323284e+18,2.1453284505208337,-0.0737110724051792,0.0897971925636132,-0.7967718889315923,,,,,,,,,,,,1.6893057746371732e+18,2.150173291015625,-36.119319152832034,-32.75699920654297,-14.313039779663086,1.6893057746371732e+18,2.150173291015625,-304.4095153808594,60.13379821777344,-157.1140350341797,1.689305774636647e+18,2.1496468098958332,-0.4911853770414988,-0.2280537039041519,0.376378466685613,0.751700739065806,0.0438398135205109,-0.9106319149335226,1.179025610287984
2.15,1.689305774688555e+18,2.2015552571614583,1.8325713475545249,-0.0683975219726562,-0.4985659122467041,1.6893057746799022e+18,2.192902262369792,7.849654674530029,7.690332571665446,-0.6833502749602,1.6893057746799022e+18,2.192902262369792,5.984776655832927,7.766234397888184,-0.31373197833697,1.68930577468423e+18,2.197230061848958,0.0705549347524841,0.137495582923293,0.5250895718733469,1.68930577468423e+18,2.197230061848958,0.06963863906761,0.1422297917306423,0.5274821519851685,,,,,,,,,,,,1.6893057746871718e+18,2.200171923828125,-36.42431869506836,-32.87900009155273,-13.944599723815918,1.6893057746871718e+18,2.200171923828125,-304.7145141601562,60.01179962158203,-156.74559631347657,1.689305774688555e+18,2.2015552571614583,-0.4882911543051402,-0.2271993656953175,0.3820045888423919,0.7510025103886923,0.0525177381932734,-0.9201086362202964,1.17903467019399
2.2,1.689305774740453e+18,2.2534530436197913,2.3218329747517905,-0.2435995737711588,-0.2204285661379496,1.6893057747318026e+18,2.244802734375,7.925626913706462,7.865806261698405,-0.4325026869773865,1.6893057747318026e+18,2.244802734375,5.589587847391765,8.054598331451416,-0.247606207927068,1.689305774736131e+18,2.249131022135417,-0.0443386361779024,-0.426893005768458,1.694183886051178,1.689305774736131e+18,2.249131022135417,-0.0452549344239135,-0.4221587926149368,1.696525474389394,,,,,,,,,,,,1.689305774737174e+18,2.25017412109375,-34.34056015014649,-34.45035858154297,-14.525319862365723,1.689305774737174e+18,2.25017412109375,-302.63075561523436,58.44043807983398,-157.3263153076172,1.689305774740453e+18,2.2534530436197913,-0.4824922382831573,-0.2467925896247227,0.4016741911570231,0.738051970799764,0.0420656688511371,-0.9813688198725382,1.180479566256205
2.25,1.68930577479236e+18,2.3053597005208335,1.3002667427062988,-0.9410614967346193,-0.4250781337420146,1.6893057747837092e+18,2.2967090657552083,5.947958946228027,7.952944914499919,-0.5445665419101715,1.6893057747837092e+18,2.2967090657552083,4.440001408259074,8.732964515686035,-0.2157001892725626,1.6893057747880366e+18,2.3010365397135417,-0.6229298313458761,-0.9690359036127726,3.3191362222035727,1.6893057747880366e+18,2.3010365397135417,-0.6238970359166464,-0.9643526077270508,3.3214779694875083,,,,,,,,,,,,1.689305774787176e+18,2.30017587890625,-28.279599761962892,-39.07903900146484,-14.65463981628418,1.689305774787176e+18,2.30017587890625,-296.5697998046875,53.81175842285156,-157.45563659667968,1.68930577479236e+18,2.3053597005208335,-0.4797646005948384,-0.2932691673437754,0.4482923746109009,0.6944004893302917,0.0559614747762679,-1.130334456761678,1.2454333702723186
2.3,1.6893057748442586e+18,2.3572587890625,0.642326831817627,-1.1482316652933755,-0.1761448184649149,1.6893057748356042e+18,2.3486043294270833,3.5537404219309487,8.13818915685018,-0.5898307859897614,1.6893057748356042e+18,2.3486043294270833,2.7667845090230307,9.389828999837238,-0.373232752084732,1.689305774839934e+18,2.3529340006510417,-0.7298312584559122,-0.687579741080602,3.7506616910298662,1.689305774839934e+18,2.3529340006510417,-0.7307984630266825,-0.6828455229600271,3.7529524167378745,,,,,,,,,,,,1.6893057748371725e+18,2.3501724609375,-19.29063949584961,-43.97611923217774,-14.308159446716308,1.6893057748371725e+18,2.3501724609375,-287.5808349609375,48.91467895507813,-157.10915832519532,1.6893057748442586e+18,2.3572587890625,-0.4723516801993052,-0.3441156943639119,0.5063248078028361,0.6335213383038839,0.1825812036792437,-1.3139002323150637,1.4257066647211711
2.35,1.6893057748875146e+18,2.4005146484375,-0.7115912735462189,-0.557673454284668,0.0711857080459594,1.6893057748875154e+18,2.400515380859375,0.3579263687133789,9.092327117919922,-0.5682953794797262,1.6893057748875154e+18,2.400515380859375,1.0159596006075542,9.722351710001629,-0.6995324492454529,1.6893057748918385e+18,2.404838460286458,-0.7302894194920858,0.0049887332133949,3.0757064819335938,1.6893057748918385e+18,2.404838460286458,-0.7312057216962179,0.0096720324363559,3.0780481497446694,,,,,,,,,,,,1.689305774887174e+18,2.4001742675781252,-11.014159965515136,-47.206678771972655,-13.124759674072266,1.689305774887174e+18,2.4001742675781252,-279.3043579101562,45.684119415283206,-155.9257568359375,1.6893057748875146e+18,2.4005146484375,-0.4563634991645812,-0.3736560642719269,0.5568000078201294,0.5847228467464447,0.6405715346336365,-1.445536494255066,1.8979589939117432
2.4,1.6893057749307668e+18,2.4437669270833333,-1.1377684672673545,-0.5110244750976562,0.0762340227762857,1.6893057749394138e+18,2.4524139811197916,-1.3824532826741536,9.279366175333658,-0.9098708033561708,1.6893057749394138e+18,2.4524139811197916,-0.2540408720572789,9.739943186442057,-1.100404222806295,1.689305774943744e+18,2.456743977864583,-0.8127562006314596,-0.3132720639308293,2.0928752024968467,1.689305774943744e+18,2.456743977864583,-0.8137234052022299,-0.3086905628442764,2.0952168703079224,,,,,,,,,,,,1.689305774937172e+18,2.45017197265625,-3.9308398723602296,-48.83171844482422,-11.067840003967286,1.689305774937172e+18,2.45017197265625,-272.2210327148438,44.059078979492185,-153.86883544921875,1.6893057749307668e+18,2.4437669270833333,-0.4467543760935465,-0.390765905380249,0.5931164026260376,0.5437271992365519,1.6234628359476726,-1.460963765780131,0.7989483674367267
2.45,1.6893057749826696e+18,2.4956695149739585,-1.6867833932240803,-0.0235942204793294,0.500402053197225,1.6893057749913203e+18,2.5043203125,-2.923431078592936,9.650253931681316,-0.8707880179087321,1.6893057749913203e+18,2.5043203125,-1.095670481522878,9.641834259033203,-1.4281343221664429,1.6893057749869965e+18,2.4999964599609372,-0.5580254048109055,0.4169155210256576,1.3211487531661987,1.6893057749869965e+18,2.4999964599609372,-0.5589417070150375,0.4214970171451568,1.323439598083496,,,,,,,,,,,,1.6893057749871724e+18,2.5001725097656253,0.5563199624419213,-49.661319732666016,-9.518439865112304,1.6893057749871724e+18,2.5001725097656253,-267.7338806152344,43.229479217529295,-152.3194366455078,1.6893057749826696e+18,2.4956695149739585,-0.4387762943903605,-0.4012716015179952,0.6245222091674805,0.5062761008739471,2.189114570617676,-1.3947581847508748,-2.816217025121053
2.5,1.6893057750345708e+18,2.54757080078125,-1.9788831075032551,-0.0411074956258137,0.0009145339330037,1.6893057750432233e+18,2.55622314453125,-3.294119199117025,9.527621587117514,-1.5379867553710938,1.6893057750432233e+18,2.55622314453125,-1.3964107433954875,9.5874605178833,-1.53831946849823,1.6893057750302474e+18,2.543247477213542,-0.2405281861623127,0.5550219813982645,0.3044145181775093,1.6893057750302474e+18,2.543247477213542,-0.2414444883664448,0.5597052971522013,0.3067052488525708,,,,,,,,,,,,1.689305775037172e+18,2.550171923828125,2.1057199239730835,-50.085879516601565,-8.798639869689941,1.689305775037172e+18,2.550171923828125,-266.18447265625,42.80491943359375,-151.59963684082032,1.6893057750345708e+18,2.54757080078125,-0.4266155461470286,-0.3960626820723216,0.6439326405525208,0.4964574376742045,2.312321186065674,-1.3573999404907229,-2.7209761142730713
2.55,1.6893057750864753e+18,2.5994750976562497,-1.5850871404012044,0.1990057627360025,0.0218422015508015,1.6893057750864753e+18,2.59947509765625,-2.7490540742874146,9.8267240524292,-1.376471221446991,1.6893057750864753e+18,2.59947509765625,-1.2185821533203125,9.618680477142334,-1.4920064806938171,1.6893057750821522e+18,2.5951523437499997,0.1870774825414022,0.2765183349450429,-0.7655159831047058,1.6893057750821522e+18,2.5951523437499997,0.1861611815790335,0.2812016407648722,-0.7631742854913076,,,,,,,,,,,,1.689305775087175e+18,2.60017490234375,1.002839982509613,-50.03219909667969,-8.66443977355957,1.689305775087175e+18,2.60017490234375,-267.287353515625,42.85859909057617,-151.46543884277344,1.6893057750864753e+18,2.5994750976562497,-0.4249340097109477,-0.3881318171819051,0.6415269176165262,0.5071251193682352,2.2561915715535483,-1.373263955116272,-2.7950499057769775
2.6,1.689305775138375e+18,2.65137451171875,-1.6787818670272827,-0.04164187113444,-0.2739001909891764,1.6893057751297275e+18,2.642727620442708,-2.3513470888137817,9.710074424743652,-1.476969798405965,1.6893057751297275e+18,2.642727620442708,-0.5988356967767079,9.69770590464274,-1.3213587999343872,1.6893057751340485e+18,2.64704833984375,0.4307618041833241,0.1262454887231191,-2.0819305976231894,1.6893057751340485e+18,2.64704833984375,0.4298455119132995,0.130928782125314,-2.0796398321787515,,,,,,,,,,,,1.6893057751371748e+18,2.650174853515625,-2.4497599422931673,-49.55883865356445,-9.48427963256836,1.6893057751371748e+18,2.650174853515625,-270.7399597167969,43.3319595336914,-152.2852752685547,1.689305775138375e+18,2.65137451171875,-0.4316006898880005,-0.3731783231099446,0.6184922059377035,0.5400427977244059,1.870811978975932,-1.429234306017558,0.9906731446584066
2.65,1.6893057751902802e+18,2.7032801106770834,-1.160498778025309,-0.5080207188924154,-0.2544308106104533,1.6893057751816315e+18,2.6946318359375,-0.3844468295574188,9.322436968485514,-1.291924794514974,1.6893057751816315e+18,2.6946318359375,0.7561164597670236,9.71026865641276,-1.0833334525426228,1.6893057751859569e+18,2.6989568684895833,0.563879519701004,0.1364774781589706,-3.228168328603109,1.6893057751859569e+18,2.6989568684895833,0.5629632373650869,0.141211682309707,-3.225877602895101,,,,,,,,,,,,1.6893057751871762e+18,2.700176318359375,-9.472079753875732,-48.36324005126953,-10.482239723205566,1.6893057751871762e+18,2.700176318359375,-277.76227416992185,44.52755966186523,-153.28323669433593,1.6893057751902802e+18,2.7032801106770834,-0.450264036655426,-0.3469987114270528,0.5722074707349142,0.5906237562497457,0.8400289614995321,-1.4168548583984375,2.0420448780059814
2.7,1.6893057752421847e+18,2.7551845703124997,-1.0156424442927043,-0.9912131627400717,-0.0922192335128783,1.689305775233537e+18,2.746537109375,1.4841482241948445,8.475378036499023,-0.8687940239906311,1.689305775233537e+18,2.746537109375,2.5566778977711997,9.42015266418457,-0.8111788034439087,1.6893057752378593e+18,2.7508594563802085,0.4056145151456196,-0.0749328037103017,-3.959272146224976,1.6893057752378593e+18,2.7508594563802085,0.4046982228755951,-0.0702495028575261,-3.956981420516968,,,,,,,,,,,,1.689305775237172e+18,2.7501720703125,-18.62451934814453,-45.20099792480469,-11.934039688110351,1.689305775237172e+18,2.7501720703125,-286.9147155761719,47.689798736572264,-154.73503723144532,1.6893057752421847e+18,2.7551845703124997,-0.4730047186215718,-0.308751493692398,0.5079167683919271,0.649718443552653,0.2760159770647685,-1.2619486252466838,1.463931679725647
2.75,1.689305775294083e+18,2.8070831705729167,-0.2879159450531006,-0.9761576652526855,0.0744079152743022,1.6893057752854362e+18,2.7984359537760413,3.953940073649088,7.642675399780273,-0.6352944175402323,1.6893057752854362e+18,2.7984359537760413,4.485395193099976,8.681242942810059,-0.6660637656847636,1.6893057752897628e+18,2.8027627766927083,0.1978694349527358,-0.1099048381050427,-3.9800416628519697,1.6893057752897628e+18,2.8027627766927083,0.1969531327486038,-0.105221539735794,-3.9776999950408936,,,,,,,,,,,,1.6893057752871752e+18,2.800175244140625,-29.11651954650879,-39.537759399414064,-12.69287986755371,1.6893057752871752e+18,2.800175244140625,-297.4067138671875,53.35303955078125,-155.4938751220703,1.689305775294083e+18,2.8070831705729167,-0.5010582109292349,-0.2625316679477691,0.4332137703895568,0.7011383771896362,0.1370453884204228,-1.05759201447169,1.3219915231068928
2.8,1.689305775337339e+18,2.8503388671875003,1.269829511642456,-0.2871406078338623,0.4072573333978653,1.689305775337339e+18,2.8503388671875,7.065008163452148,7.4329047203063965,-0.2504487770299117,1.689305775337339e+18,2.8503388671875,5.872201919555664,7.824491818745931,-0.6632434725761414,1.6893057753416653e+18,2.854665364583333,-0.0656171093384424,0.3228931874036788,-2.187253952026367,1.6893057753416653e+18,2.854665364583333,-0.0665843123570084,0.3275764932235082,-2.184861342112223,,,,,,,,,,,,1.6893057753371738e+18,2.850173779296875,-35.436119079589844,-34.47719879150391,-12.561119842529298,1.6893057753371738e+18,2.850173779296875,-303.7263122558594,58.41359786987304,-155.36211853027345,1.689305775337339e+18,2.8503388671875003,-0.5159137845039368,-0.2262689992785453,0.3856111615896225,0.7306501269340515,0.1115789115428924,-0.922372430562973,1.2850996255874634
2.85,1.6893057753805814e+18,2.8935813802083334,1.7701651255289714,-0.4801945686340332,-0.1930071910222371,1.6893057753892383e+18,2.902238444010417,8.237690607706705,7.014758904774983,-0.9836495320002238,1.6893057753892383e+18,2.902238444010417,6.334002176920573,7.449850082397461,-0.7827259500821432,1.689305775393568e+18,2.906568196614584,0.1477275757739941,0.43575053413709,-0.4542801280816396,1.689305775393568e+18,2.906568196614584,0.146760373065869,0.440484752257665,-0.4519893676042557,,,,,,,,,,,,1.6893057753871724e+18,2.900172216796875,-37.58331985473633,-31.99571876525879,-12.380559921264648,1.6893057753871724e+18,2.900172216796875,-305.8735107421875,60.89507904052734,-155.18155822753906,1.6893057753805814e+18,2.8935813802083334,-0.5196741819381714,-0.2063757280508676,0.3697926799456278,0.7420068184534708,0.1211634601155916,-0.8683998584747314,1.2781736850738523
2.9,1.6893057754324938e+18,2.945493977864583,2.228119214375814,-0.260965347290039,-0.2974994579950968,1.689305775441144e+18,2.9541442057291665,8.831908226013184,7.147161642710368,-0.9633105198542276,1.689305775441144e+18,2.9541442057291665,6.357932408650716,7.429129600524902,-0.7864590088526408,1.68930577543682e+18,2.949820068359375,0.3155882507562637,0.1214094646275043,0.0911716353148222,1.68930577543682e+18,2.949820068359375,0.3146719634532928,0.1261436771601439,0.0935387387871742,,,,,,,,,,,,1.68930577543718e+18,2.950179931640625,-38.447078704833984,-31.57115936279297,-11.558279609680175,1.68930577543718e+18,2.950179931640625,-306.7372741699219,61.31963882446289,-154.35927734375,1.6893057754324938e+18,2.945493977864583,-0.5124468207359314,-0.1982966264088947,0.3694981535275777,0.7493605216344198,0.12505471209685,-0.8587221503257751,1.2569130261739094
2.95,1.6893057754843917e+18,2.9973916015624997,2.8710691134134927,-0.5928030014038086,-0.2790249387423197,1.6893057754930514e+18,3.0060514322916667,8.709874471028646,7.109275499979655,-0.9740782181421916,1.6893057754930514e+18,3.0060514322916667,5.920465151468913,7.789573033650716,-0.6467675566673279,1.689305775480068e+18,2.993068033854166,0.0158824953250587,-0.44862961769104,1.451517601807912,1.689305775480068e+18,2.993068033854166,0.0149152946347992,-0.4439463118712107,1.45380832751592,,,,,,,,,,,,1.6893057754871752e+18,3.0001751953125,-36.55119934082031,-32.964400100708005,-12.590399742126465,1.6893057754871752e+18,3.0001751953125,-304.8414001464844,59.92639923095703,-155.39139709472656,1.6893057754843917e+18,2.9973916015624997,-0.5078370372454325,-0.2153862416744232,0.3817315896352132,0.741490105787913,0.11056516567866,-0.9027129411697388,1.2546518643697102
3.0,1.6893057755362993e+18,3.049299397786458,1.9461216926574707,-0.7508107821146647,-0.6005078554153442,1.6893057755362995e+18,3.049299682617187,6.990332126617432,7.643273591995239,-1.067198932170868,1.6893057755362995e+18,3.049299682617187,5.017714977264404,8.409874439239502,-0.5146282315254211,1.6893057755319736e+18,3.044973551432292,0.0022907443344593,-0.6094908118247986,2.950173775355021,1.6893057755319736e+18,3.044973551432292,0.0013744470973809,-0.6048583984375,2.952464501063029,,,,,,,,,,,,1.689305775537172e+18,3.05017216796875,-31.639479064941405,-37.205118560791014,-13.4443998336792,1.689305775537172e+18,3.05017216796875,-299.92966918945314,55.68567810058594,-156.24539489746093,1.6893057755362993e+18,3.049299397786458,-0.4987797538439433,-0.2593262741963069,0.421914517879486,0.7109564145406088,0.102380593617757,-1.0334081848462422,1.2818177541097004
3.05,1.6893057755882025e+18,3.101202392578125,0.8745399316151937,-1.0048303604125977,-0.3937333524227142,1.6893057755795515e+18,3.092551676432292,4.746961196263631,8.145766258239746,-0.7838488221168518,1.6893057755795515e+18,3.092551676432292,3.6373303731282554,9.083950996398926,-0.411561648050944,1.6893057755838733e+18,3.0968733723958333,-0.1223257649689912,-0.5245296259721121,4.0539054075876875,1.6893057755838733e+18,3.0968733723958333,-0.1232929676771163,-0.5198972423871359,4.056246995925903,,,,,,,,,,,,1.689305775587173e+18,3.100173095703125,-23.367879486083982,-42.182718658447264,-14.249599838256836,1.689305775587173e+18,3.100173095703125,-291.6580810546875,50.70807876586914,-157.05059814453125,1.6893057755882025e+18,3.101202392578125,-0.4788121779759725,-0.3162818749745686,0.4807251095771789,0.6623660524686178,0.1264652361472447,-1.224106987317403,1.3419121106465657
3.1,1.6893057756401037e+18,3.153103597005208,-0.4515270193417867,-1.0351139704386394,-0.1794940531253814,1.6893057756314545e+18,3.1444545084635416,1.38863472143809,8.587641080220541,-0.6516453623771667,1.6893057756314545e+18,3.1444545084635416,1.6775589783986409,9.63930606842041,-0.4832955797513326,1.6893057756357809e+18,3.148780924479167,-0.307316114505132,-0.0117082508901755,3.7684786319732666,1.6893057756357809e+18,3.148780924479167,-0.3082324167092641,-0.0070758548875649,3.7707694371541343,1.689305775637155e+18,3.150155029296875,0.0,0.554973304271698,0.9738572239875792,15.201000213623049,0.6968829035758972,189.61477661132812,40.900001525878906,-122.7531712,49.1903554,1.6893057756371758e+18,3.15017587890625,-14.37891960144043,-46.26239929199219,-13.998279571533203,1.6893057756371758e+18,3.15017587890625,-282.6691101074219,46.62839813232422,-156.79927673339844,1.6893057756401037e+18,3.153103597005208,-0.4492092231909434,-0.3625622093677521,0.5469179352124532,0.605785588423411,0.4131183127562205,-1.4204637209574382,1.640236775080363
3.15,1.6893057756920046e+18,3.2050045572916672,-0.8372363448143005,-0.9147739410400392,0.3045576214790343,1.6893057756833574e+18,3.196357340494792,-0.7613163975377878,8.789834340413412,-0.452642281850179,1.6893057756833574e+18,3.196357340494792,-0.0561108589172363,9.771972020467125,-0.7353224754333496,1.6893057756876844e+18,3.2006843261718747,-0.6735807458559672,-0.1237511119494835,3.162805716196696,1.6893057756876844e+18,3.2006843261718747,-0.6745479305585226,-0.1190169130762418,3.16519824663798,,,,,,,,,,,,1.6893057756871724e+18,3.2001722656250005,-5.546120047569275,-48.5218391418457,-13.01251964569092,1.6893057756871724e+18,3.2001722656250005,-273.83631591796876,44.3689582824707,-155.81351623535156,1.6893057756920046e+18,3.2050045572916672,-0.426728755235672,-0.3941493332386017,0.6011539896329244,0.548325757185618,1.8635441064834597,-1.4750781853993733,-1.0849529107411704
3.2,1.6893057757439078e+18,3.2569076334635416,-1.6259843111038208,-0.4125296274820964,0.6622909903526306,1.6893057757352604e+18,3.248260416666666,-2.9593234062194824,9.10927645365397,-0.3936193287372589,1.6893057757352604e+18,3.248260416666666,-1.4612940947214763,9.633882522583008,-1.086524168650309,1.6893057757395868e+18,3.252586995442708,-0.7045312523841858,0.2415972054004668,2.242231806119283,1.6893057757395868e+18,3.252586995442708,-0.7054475545883179,0.2462805112202962,2.244624296824137,,,,,,,,,,,,1.6893057757371717e+18,3.250171435546875,1.676279938220978,-49.58811874389649,-11.087359809875489,1.6893057757371717e+18,3.250171435546875,-266.6139221191406,43.30267868041992,-153.88835754394532,1.6893057757439078e+18,3.2569076334635416,-0.4069247643152872,-0.4092971881230672,0.64557417233785,0.4998855690161387,2.5324159463246665,-1.3641446431477864,-2.5125479698181152
3.25,1.689305775787155e+18,3.3001550292968753,-1.9976180791854856,0.072509765625,0.5542629957199097,1.689305775787163e+18,3.3001630045572914,-4.2281174659729,9.476973533630373,-0.7070790926615397,1.689305775787163e+18,3.3001630045572914,-2.2580756346384683,9.452165285746256,-1.3329318364461262,1.689305775791488e+18,3.3044880371093748,-0.3978259861469269,0.45677450299263,0.8253298699855804,1.689305775791488e+18,3.3044880371093748,-0.3987422833840052,0.4614577790101369,0.8276205956935883,,,,,,,,,,,,1.6893057757871703e+18,3.3001702636718746,6.23907995223999,-49.571038818359376,-9.44523983001709,1.6893057757871703e+18,3.3001702636718746,-262.0511108398438,43.31975936889648,-152.246240234375,1.689305775787155e+18,3.3001550292968753,-0.394223541021347,-0.4100105464458465,0.6696803867816925,0.4774811118841171,2.611986756324768,-1.29721337556839,-2.4483211040496826
3.3,1.6893057758304164e+18,3.3434163411458333,-1.99142591158549,0.0735607147216796,0.1781351963678995,1.689305775839068e+18,3.35206787109375,-4.3393839200337725,9.450054168701172,-1.1952149470647175,1.689305775839068e+18,3.35206787109375,-2.3853342533111572,9.419463157653809,-1.3480734825134275,1.6893057758433925e+18,3.356392496744791,0.0543161022166411,0.4339688618977864,-0.3900374559064706,1.6893057758433925e+18,3.356392496744791,0.0533998012542724,0.4386521478494008,-0.3877467140555382,,,,,,,,,,,,1.6893057758371722e+18,3.3501720703125004,6.602639770507812,-49.56127853393555,-9.362279891967772,1.6893057758371722e+18,3.3501720703125004,-261.687548828125,43.32951889038086,-152.16327514648438,1.6893057758304164e+18,3.3434163411458333,-0.3866221408049266,-0.404459148645401,0.6779359181722006,0.4767860074838002,2.6293713251749673,-1.2842308680216472,-2.4525234699249268
