seconds_elapsed_rounded,accelerometer_time,accelerometer_seconds_elapsed,accelerometer_z,accelerometer_y,accelerometer_x,accelerometeruncalibrated_time,accelerometeruncalibrated_seconds_elapsed,accelerometeruncalibrated_z,accelerometeruncalibrated_y,accelerometeruncalibrated_x,gravity_time,gravity_seconds_elapsed,gravity_z,gravity_y,gravity_x,gyroscope_time,gyroscope_seconds_elapsed,gyroscope_z,gyroscope_y,gyroscope_x,gyroscopeuncalibrated_time,gyroscopeuncalibrated_seconds_elapsed,gyroscopeuncalibrated_z,gyroscopeuncalibrated_y,gyroscopeuncalibrated_x,location_time,location_seconds_elapsed,location_bearingAccuracy,location_speedAccuracy,location_verticalAccuracy,location_horizontalAccuracy,location_speed,location_bearing,location_altitude,location_longitude,location_latitude,magnetometer_time,magnetometer_seconds_elapsed,magnetometer_z,magnetometer_y,magnetometer_x,magnetometeruncalibrated_time,magnetometeruncalibrated_seconds_elapsed,magnetometeruncalibrated_z,magnetometeruncalibrated_y,magnetometeruncalibrated_x,orientation_time,orientation_seconds_elapsed,orientation_qz,orientation_qy,orientation_qx,orientation_qw,orientation_roll,orientation_pitch,orientation_yaw
0.0,1.6893057874912653e+18,15.004264973958334,-2.7668623129526773,-0.8139444986979166,0.5966152350107828,1.6893057874826143e+18,14.9956142578125,-3.9748772780100503,8.805188496907553,-0.3282155046860377,1.6893057874826143e+18,14.9956142578125,-1.3366042574246724,9.664948145548502,-0.960175613562266,1.6893057874869404e+18,14.999940511067708,-0.3255911767482757,0.9060149788856506,2.3532565434773765,1.6893057874869404e+18,14.999940511067708,-0.3266601959864298,0.9107491572697958,2.3556491136550903,,,,,,,,,,,,1.6893057874871757e+18,15.000175634765624,-1.4566799521446228,-49.40023956298828,-10.877519798278808,1.6893057874871757e+18,15.000175634765624,-269.746875,43.49055938720703,-153.678515625,1.6893057874912653e+18,15.004264973958334,-0.3650332391262054,-0.3621622224648793,0.6685278415679932,0.5370126962661743,2.565471808115641,-1.3838947614034016,-2.632175842920939
0.05,1.6893057875431675e+18,15.056167643229168,-3.390364090601603,-0.416226069132487,0.3999215165774027,1.689305787534514e+18,15.047513834635415,-5.5473605791727705,9.049455960591636,-0.4893322189648946,1.689305787534514e+18,15.047513834635415,-2.2151469389597573,9.511237780253092,-0.9187681674957277,1.6893057875388403e+18,15.05184041341146,0.0570140893881518,0.535117964570721,0.9091711242993672,1.6893057875388403e+18,15.05184041341146,0.0559450760483741,0.5398521587873498,0.9114618599414824,,,,,,,,,,,,1.6893057875371725e+18,15.050172607421874,2.47903995513916,-49.51979904174805,-10.62619972229004,1.6893057875371725e+18,15.050172607421874,-265.8111572265625,43.37099838256836,-153.4272003173828,1.6893057875431675e+18,15.056167643229168,-0.337216983238856,-0.363276054461797,0.6961444616317749,0.5192957520484924,2.764317750930786,-1.3172578016916912,-2.47320548693339
0.1,1.6893057875864202e+18,15.09942041015625,-2.639808654785156,-0.040381908416748,0.6169555485248566,1.6893057875864166e+18,15.099416748046876,-4.998407204945882,9.425926526387531,-0.2205384870370228,1.6893057875864166e+18,15.099416748046876,-2.290583531061808,9.50287119547526,-0.8210884730021158,1.689305787590747e+18,15.103746907552084,0.3186171154181162,0.221693180501461,-0.6754133303960165,1.689305787590747e+18,15.103746907552084,0.3175990184148152,0.2264273936549822,-0.6730207751194636,,,,,,,,,,,,1.6893057875871736e+18,15.1001736328125,3.1158799648284914,-49.33435974121094,-11.053199577331544,1.6893057875871736e+18,15.1001736328125,-265.17431640625,43.55643920898437,-153.85419311523438,1.6893057875864202e+18,15.09942041015625,-0.3338511288166045,-0.3649934530258178,0.6959278583526611,0.5205734074115753,2.796008586883545,-1.318253993988037,-2.444303035736084
0.15,1.6893057876296727e+18,15.1426728515625,-2.78654138247172,-0.0402787526448567,-0.0632853905359904,1.68930578763832e+18,15.151320231119792,-4.300899267196655,9.62153975168864,-0.6127619942029318,1.68930578763832e+18,15.151320231119792,-1.6078261931737263,9.657686551411947,-0.5287073155244192,1.68930578764265e+18,15.155650065104169,0.6438519755999247,-0.0760527203480402,-2.2246693770090737,1.68930578764265e+18,15.155650065104169,0.642782966295878,-0.0713185121615727,-2.222327709197998,,,,,,,,,,,,1.6893057876371748e+18,15.150174951171874,-0.5978000044822693,-49.10743942260742,-12.28539981842041,1.6893057876371748e+18,15.150174951171874,-268.88800048828125,43.78335952758789,-155.08639831542968,1.6893057876296727e+18,15.1426728515625,-0.3332194685935973,-0.3600769639015198,0.6789446075757345,0.546021044254303,2.825993458429972,-1.3786986668904622,-2.427144924799601
0.2,1.6893057876815729e+18,15.194572998046874,-2.4415855407714844,-0.3659159342447917,-0.4919656415780385,1.6893057876902254e+18,15.203225423177082,-2.360918323198954,9.276574770609535,-0.6253243088722229,1.6893057876902254e+18,15.203225423177082,-0.0380917911728223,9.791789690653482,-0.1450025786956151,1.689305787694549e+18,15.207549072265628,0.9854783614476522,-0.5521712799866995,-4.0400590896606445,1.689305787694549e+18,15.207549072265628,0.9844602147738138,-0.5474370618661245,-4.037615776062012,,,,,,,,,,,,1.6893057876871777e+18,15.200177880859377,-8.05443983078003,-47.75811920166016,-13.876279830932615,1.6893057876871777e+18,15.200177880859377,-276.3446350097656,45.1326789855957,-156.67727661132812,1.6893057876815729e+18,15.194572998046874,-0.3527367909749348,-0.3518000741799672,0.6281358003616333,0.5970849990844727,1.8692671656608584,-1.5091854333877563,-1.2758150498072307
0.25,1.6893057877334753e+18,15.246475260416666,-1.7375038067499795,-0.956596851348877,-0.3888968328634898,1.6893057877421292e+18,15.255129231770832,0.6313063576817513,8.381858189900717,0.1202393372853597,1.6893057877421292e+18,15.255129231770832,2.3161484400431314,9.49701245625814,0.3792466223239898,1.6893057877378043e+18,15.250804199218749,0.7980954349040985,-1.0236574411392212,-5.110193252563477,1.6893057877378043e+18,15.250804199218749,0.7970264256000519,-1.0189232528209686,-5.107826232910156,1.689305787737031e+18,15.250031005859377,0.0,0.2382444441318512,0.987359881401062,9.08199977874756,0.2460275590419769,29.488862991333008,41.10000228881836,-122.7530918,49.1903858,1.6893057877371735e+18,15.2501736328125,-18.148719787597656,-43.79799880981445,-16.743279647827148,1.6893057877371735e+18,15.2501736328125,-286.43890991210935,49.09279937744141,-159.54427795410157,1.6893057877334753e+18,15.246475260416666,-0.387955367565155,-0.335278183221817,0.5387125015258789,0.6674539645512899,-0.1473956704139709,-1.3736144701639812,0.9329293171564738
0.3,1.689305787785381e+18,15.298381103515624,-0.8380381266276041,-2.028796672821045,-0.0392999450365702,1.689305787794033e+18,15.307033040364582,4.373282114664714,6.382056713104248,1.1369895935058594,1.689305787794033e+18,15.307033040364582,4.8446000417073565,8.433682123819986,1.008529543876648,1.6893057877810552e+18,15.294055338541668,0.746019184589386,-1.6236798365910847,-5.618840376536052,1.6893057877810552e+18,15.294055338541668,0.7449501752853394,-1.618945598602295,-5.616498788197835,,,,,,,,,,,,1.6893057877871744e+18,15.300174511718753,-27.91847915649414,-36.482879638671875,-19.744479751586915,1.6893057877871744e+18,15.300174511718753,-296.20867309570315,56.40791931152344,-162.54547729492188,1.689305787785381e+18,15.298381103515624,-0.4388168255488078,-0.3125293850898742,0.417821596066157,0.7303593357404073,-0.1950914164384205,-1.089044491449992,0.964037537574768
0.35,1.689305787837287e+18,15.350286865234375,1.431982199350993,-1.0396091143290205,1.250460942586263,1.6893057878372833e+18,15.350283447265625,7.945666551589966,6.233602285385132,2.937488913536072,1.6893057878372833e+18,15.350283447265625,6.508633375167847,7.172675132751465,1.5187546610832214,1.689305787832957e+18,15.34595703125,0.5871433069308599,-0.6935356656710306,-4.462574243545532,1.689305787832957e+18,15.34595703125,0.5860742926597595,-0.6888014674186707,-4.460232655207316,,,,,,,,,,,,1.689305787837175e+18,15.350175097656251,-35.76063919067383,-27.47195930480957,-22.70663948059082,1.689305787837175e+18,15.350175097656251,-304.05083618164065,65.41883926391601,-165.50763549804688,1.689305787837287e+18,15.350286865234375,-0.4732349912325541,-0.2806901534398396,0.3004752794901529,0.7785397370656332,-0.2274492730696995,-0.8244176308314005,0.9923906922340392
0.4,1.6893057878891848e+18,15.402184733072916,2.8857115109761557,-1.554399490356445,1.0670557419459026,1.689305787880537e+18,15.393537434895832,9.977073351542154,4.933402061462402,2.8181468645731607,1.689305787880537e+18,15.393537434895832,7.303771495819092,6.375721295674642,1.4801042874654131,1.6893057878848584e+18,15.3978583984375,-0.3714569807052612,0.4672101040681203,-1.4700981080532074,1.6893057878848584e+18,15.3978583984375,-0.3725259900093078,0.4719443172216415,-1.4677055676778157,,,,,,,,,,,,1.689305787887172e+18,15.400172167968751,-39.674398803710936,-22.294279861450196,-22.76275978088379,1.689305787887172e+18,15.400172167968751,-307.964599609375,70.59651947021484,-165.56375427246093,1.6893057878891848e+18,15.402184733072916,-0.4927528401215871,-0.2466581612825393,0.2509784152110417,0.7957900365193685,-0.1909009168545404,-0.6978038549423218,1.039069374402364
0.45,1.6893057879410903e+18,15.454090250651042,2.5935705502827964,-1.541530927022298,0.2007499933242797,1.6893057879324385e+18,15.445438232421871,10.229715665181478,4.546163558959961,1.424726486206055,1.6893057879324385e+18,15.445438232421871,7.44800345102946,6.29184627532959,1.07559468348821,1.689305787936767e+18,15.44976700846354,0.0152207240462302,1.0808751185735066,0.5974771082401276,1.689305787936767e+18,15.44976700846354,0.0141517122586568,1.0856093565622966,0.5998696684837341,,,,,,,,,,,,1.68930578793718e+18,15.450179833984375,-41.18231887817383,-22.252799606323244,-21.062079620361327,1.68930578793718e+18,15.450179833984375,-309.47251586914064,70.63799896240235,-163.8630798339844,1.6893057879410903e+18,15.454090250651042,-0.4896490971247355,-0.2266818434000015,0.2648549179236094,0.7991388638814291,-0.1351398453116416,-0.7015120983123779,1.0499874353408811
0.5,1.6893057879929938e+18,15.505993815104167,1.9699689547220869,-0.687324047088623,0.3718061049779256,1.6893057879843433e+18,15.497343261718749,9.177870750427246,5.801398595174153,1.1399805943171184,1.6893057879843433e+18,15.497343261718749,7.287913322448731,6.516249497731526,0.8091150124867758,1.6893057879886697e+18,15.501669921875,-0.0911207298437754,0.2221513216694196,0.6442083120346069,1.6893057879886697e+18,15.501669921875,-0.0921388467152913,0.2269364347060521,0.6466008623441061,,,,,,,,,,,,1.689305787987174e+18,15.50017373046875,-41.13351898193359,-23.619199371337892,-19.617599487304688,1.689305787987174e+18,15.50017373046875,-309.42371826171876,69.27159729003907,-162.41859741210936,1.6893057879929938e+18,15.505993815104167,-0.4813375572363536,-0.2221847871939341,0.2847066322962442,0.7986648082733154,-0.1088943630456924,-0.7324292063713074,1.0429860750834148
0.55,1.689305788036245e+18,15.549244995117188,2.127500295639038,-0.8982641696929932,0.6105067729949951,1.6893057880362465e+18,15.549246500651044,8.949356079101562,6.048457304636638,1.307876984278361,1.6893057880362465e+18,15.549246500651044,6.851282437642415,6.986196358998616,0.6229268312454224,1.689305788040573e+18,15.553572672526045,-0.717003067334493,0.3158173362414042,2.1475985844930015,1.689305788040573e+18,15.553572672526045,-0.7180211941401163,0.3206024418274562,2.149889349937439,,,,,,,,,,,,1.6893057880371784e+18,15.5501783203125,-39.78419876098633,-26.171439361572265,-18.709920120239257,1.6893057880371784e+18,15.5501783203125,-308.07439575195315,66.7193588256836,-161.51091918945312,1.689305788036245e+18,15.549244995117188,-0.4812878966331481,-0.2311282753944396,0.3105370849370956,0.7863897681236267,-0.0918361246585845,-0.7908390164375305,1.0601680278778076
0.6,1.6893057880795e+18,15.592499918619792,1.909348964691162,-1.6047099431355794,0.406780074040095,1.6893057880881492e+18,15.601149332682292,7.747560660044352,6.232904116312663,0.425124816596508,1.6893057880881492e+18,15.601149332682292,5.6671366691589355,7.9858504931132,0.1007591237624486,1.6893057880924762e+18,15.60547607421875,-1.1633419195810957,0.4635958075523376,4.0382773876190186,1.6893057880924762e+18,15.60547607421875,-1.164360086123149,0.4683300157388051,4.040568113327026,,,,,,,,,,,,1.6893057880871754e+18,15.600175439453125,-35.848479461669925,-32.10307922363281,-17.033639907836914,1.6893057880871754e+18,15.600175439453125,-304.1386779785156,60.78771896362305,-159.8346374511719,1.6893057880795e+18,15.592499918619792,-0.4788853824138641,-0.2471549014250437,0.3689932525157928,0.7567631999651591,-0.0322613754154493,-0.9201225837071736,1.1133652130762737
0.65,1.6893057881313997e+18,15.644399658203126,1.465159893035889,-1.536692460378011,-0.6881335576375326,1.6893057881400512e+18,15.653051269531252,4.500899473826091,7.786643664042155,-1.1485548615455627,1.6893057881400512e+18,15.653051269531252,3.5849881172180176,9.09307861328125,-0.4899652202924092,1.689305788144375e+18,15.657375162760417,-0.6138686736424763,0.9177741408348083,4.750546296437581,1.689305788144375e+18,15.657375162760417,-0.6148867805798849,0.9225083390871684,4.752887884775798,,,,,,,,,,,,1.689305788137178e+18,15.650177734375,-26.98883934020996,-40.09163970947266,-14.025119590759278,1.689305788137178e+18,15.650177734375,-295.27903442382814,52.79916000366211,-156.82611694335938,1.6893057881313997e+18,15.644399658203126,-0.459600418806076,-0.2779621879259745,0.468930850426356,0.7002280751864115,0.1107269835968811,-1.1510858138402302,1.2363912264506025
0.7,1.689305788183305e+18,15.696304931640626,-0.7338812748591105,-0.7615321477254232,-0.3902768890062968,1.6893057881919506e+18,15.70495068359375,0.9575278759002686,8.842476526896158,-1.155733346939087,1.6893057881919506e+18,15.70495068359375,1.5859618186950684,9.633153915405272,-0.8249533772468567,1.689305788187631e+18,15.700631225585935,-0.5432119071483612,-0.01458440721035,3.5960110425949097,1.689305788187631e+18,15.700631225585935,-0.5442809164524078,-0.0098502039909362,3.5983017683029175,,,,,,,,,,,,1.6893057881871757e+18,15.70017568359375,-16.533439445495606,-45.937879943847655,-11.81935977935791,1.6893057881871757e+18,15.70017568359375,-284.8236328125,46.95291976928711,-154.62035522460937,1.689305788183305e+18,15.696304931640626,-0.4285341501235962,-0.309014360109965,0.5549877087275187,0.6420215169588724,0.4166965981324513,-1.3594786723454793,1.5211237668991089
0.75,1.689305788235208e+18,15.748207926432292,-0.5439109404881796,-0.7382599512736002,-0.5665052135785421,1.689305788243855e+18,15.75685506184896,-1.0241280943155289,9.159326235453287,-1.4963117440541585,1.689305788243855e+18,15.75685506184896,-0.1607532203197479,9.732177734375,-1.1369744539260864,1.6893057882308795e+18,15.743879475911458,-0.6448191702365875,-0.619977335135142,3.517005761464437,1.6893057882308795e+18,15.743879475911458,-0.6458881894747416,-0.615243117014567,3.519398291905721,,,,,,,,,,,,1.689305788237174e+18,15.750173925781253,-7.151639747619629,-48.78047866821289,-10.428559684753418,1.689305788237174e+18,15.750173925781253,-275.44183959960935,44.11031951904297,-153.22955932617188,1.689305788235208e+18,15.748207926432292,-0.4166746139526367,-0.3453670839468637,0.6120021343231201,0.5761307875315348,1.4596212307612102,-1.4477672576904297,2.60020120938619
0.8,1.6893057882871078e+18,15.80010750325521,-2.1530025800069175,-0.3782288233439128,0.3383866548538208,1.6893057882871127e+18,15.800112548828125,-3.5850465297698975,9.180662155151367,-0.7097710072994232,1.6893057882871127e+18,15.800112548828125,-1.2902488708496094,9.657180309295654,-1.131453812122345,1.689305788282785e+18,15.795785074869793,0.0415897431472937,0.7641415099302927,2.204052686691284,1.689305788282785e+18,15.795785074869793,0.0405716324845949,0.7689266304175059,2.206445296605428,,,,,,,,,,,,1.6893057882871752e+18,15.800174951171874,-0.0829599916934967,-49.675958251953126,-10.29435977935791,1.6893057882871752e+18,15.800174951171874,-268.37315063476564,43.21483917236328,-153.0953582763672,1.6893057882871078e+18,15.80010750325521,-0.3879126111666361,-0.3682539065678914,0.6553885539372762,0.5330449938774109,2.4020937283833823,-1.3941212097803752,-2.747774680455526
0.85,1.6893057883390103e+18,15.85201025390625,-1.5959567228953044,-0.6524184544881185,0.3910415172576904,1.6893057883303578e+18,15.84335782877604,-3.6721851030985513,8.768299420674643,-0.684147854646047,1.6893057883303578e+18,15.84335782877604,-2.1263718207677207,9.50531037648519,-1.1308716138203938,1.6893057883346865e+18,15.8476865234375,-0.2752966036399205,0.9862419565518696,1.9387335379918416,1.6893057883346865e+18,15.8476865234375,-0.276314710577329,0.9909761349360148,1.9411261081695557,,,,,,,,,,,,1.689305788337174e+18,15.850173828125,4.106519937515259,-49.524679565429686,-9.85271987915039,1.689305788337174e+18,15.850173828125,-264.1836791992188,43.366119384765625,-152.65372314453126,1.6893057883390103e+18,15.85201025390625,-0.3546037375926971,-0.3705861568450928,0.6926913062731425,0.5067950785160065,2.6792285442352295,-1.3058979908625286,-2.5164144039154053
0.9,1.689305788390918e+18,15.903917724609377,-2.6921295324961343,-0.0036894480387369,0.5859245856602987,1.6893057883822666e+18,15.895266601562502,-5.556533177693685,9.198807716369627,-0.407178650299708,1.6893057883822666e+18,15.895266601562502,-3.0577335357666016,9.262435913085938,-1.0270827809969585,1.6893057883865894e+18,15.899589518229169,0.1276199296116828,0.9071858127911886,1.1762210329373677,1.6893057883865894e+18,15.899589518229169,0.1265509190658727,0.9119199911753336,1.1786135733127594,1.689305788399e+18,15.912,0.0,0.2382444441318512,0.9383211135864258,9.80500030517578,0.2410356253385543,29.522979736328125,40.900001525878906,-122.7530908,49.1903869,1.689305788387176e+18,15.900175830078126,7.607919788360595,-49.38803939819336,-10.14795970916748,1.689305788387176e+18,15.900175830078126,-260.68226928710936,43.502759552001955,-152.94895629882814,1.689305788390918e+18,15.903917724609377,-0.3206274807453155,-0.3722261587778727,0.7224602699279785,0.4864370127518971,2.835597197214762,-1.2273350556691487,-2.4067450364430747
0.95,1.6893057884428155e+18,15.955815755208333,-2.5930234591166177,0.1198418935139973,0.4376313090324402,1.68930578843417e+18,15.947170166015624,-5.769893169403076,9.369695027669271,-0.3260220885276794,1.68930578843417e+18,15.947170166015624,-3.107222636540731,9.261444409688314,-0.8825540145238241,1.6893057884384924e+18,15.951492513020831,0.162999207774798,0.0359901435052355,-1.1852312684059143,1.6893057884384924e+18,15.951492513020831,0.1619301935036977,0.0407243475007514,-1.1829405426979065,,,,,,,,,,,,1.6893057884371738e+18,15.950173681640626,7.280959701538086,-49.35143890380859,-10.418799591064452,1.6893057884371738e+18,15.950173681640626,-261.009228515625,43.53935928344727,-153.21979370117188,1.6893057884428155e+18,15.955815755208333,-0.3161190946896871,-0.3684100806713104,0.7190495729446411,0.4971746305624644,2.859684626261393,-1.2469708919525146,-2.3982189496358237
1.0,1.6893057884860723e+18,15.999072387695314,-2.588416576385498,-0.3182816505432129,-0.2648906409740447,1.689305788486069e+18,15.999068847656252,-4.545764764149983,9.247262318929035,-0.8879366119702657,1.689305788486069e+18,15.999068847656252,-1.988582690556844,9.567824999491371,-0.7236373027165731,1.6893057884903985e+18,16.003398274739585,0.5634722808996836,-0.5896885941425959,-3.2873204549153647,1.6893057884903985e+18,16.003398274739585,0.562403271595637,-0.5849543809890747,-3.2849278450012207,,,,,,,,,,,,1.6893057884871757e+18,16.000175830078128,2.1959999203681946,-49.36607818603515,-11.219119644165035,1.6893057884871757e+18,16.000175830078128,-266.0941955566406,43.52471923828125,-154.0201171875,1.6893057884860723e+18,15.999072387695314,-0.3339945375919342,-0.3604044467210769,0.6874197721481323,0.5346001386642456,2.792853832244873,-1.3509449362754822,-2.4568618535995483
1.05,1.68930578852932e+18,16.04231982421875,-2.0039945046106973,-0.7054424285888672,-0.3898371756076813,1.689305788537974e+18,16.05097403971354,-1.7882361213366191,8.961320241292318,-0.7006982266902924,1.689305788537974e+18,16.05097403971354,0.0891598065694173,9.77457841237386,-0.4729691247145335,1.6893057885423012e+18,16.05530118815104,0.5927938222885132,-1.5567391713460286,-4.83606751759847,1.6893057885423012e+18,16.05530118815104,0.5917248129844666,-1.5520049730936687,-4.833725929260254,,,,,,,,,,,,1.6893057885371717e+18,16.050171435546876,-7.219960021972656,-48.36811904907226,-12.514759826660155,1.6893057885371717e+18,16.050171435546876,-275.51015014648436,44.52267913818359,-155.3157531738281,1.68930578852932e+18,16.04231982421875,-0.372873455286026,-0.3518719375133514,0.6257721781730652,0.5868537227312723,1.8353135983149211,-1.4851893186569214,-1.2760850588480632
1.1,1.6893057885812252e+18,16.094224934895834,-1.110299587249756,-1.7344722747802734,-0.1428162455558776,1.6893057885898783e+18,16.102878255208335,1.9517455995082855,7.654440244038899,0.0057826588551203,1.6893057885898783e+18,16.102878255208335,2.8025094668070474,9.366618156433104,0.0054558427073061,1.689305788594204e+18,16.10720377604167,0.8586729168891907,-1.5473216772079468,-5.605299631754558,1.689305788594204e+18,16.10720377604167,0.8576548099517822,-1.542587478955587,-5.60300890604655,,,,,,,,,,,,1.6893057885871775e+18,16.100177392578125,-18.91975936889649,-44.07859878540039,-15.525719451904298,1.6893057885871775e+18,16.100177392578125,-287.2099548339844,48.812198638916016,-158.32671508789062,1.6893057885812252e+18,16.094224934895834,-0.4320219159126282,-0.3326528370380401,0.5184841950734457,0.6573289235432943,0.0739534348249435,-1.3277204831441245,1.2272769212722778
1.15,1.689305788633131e+18,16.14613126627604,0.4665056864420573,-1.3508227666219077,0.5380858580271403,1.689305788641779e+18,16.154778889973958,5.783452192942302,6.902894496917725,1.2077772219975789,1.689305788641779e+18,16.154778889973958,5.120526154836019,8.32529322306315,0.5847625136375427,1.6893057886374523e+18,16.150452392578124,0.6027712523937225,-0.8797986805438995,-4.563239812850952,1.6893057886374523e+18,16.150452392578124,0.6017022430896759,-0.8750644624233246,-4.560949087142944,,,,,,,,,,,,1.689305788637174e+18,16.1501740234375,-28.65779914855957,-36.94159927368164,-18.685519790649415,1.689305788637174e+18,16.1501740234375,-296.947998046875,55.94919815063477,-161.48651733398438,1.689305788633131e+18,16.14613126627604,-0.4778633713722229,-0.3040896455446879,0.4026000599066416,0.71832275390625,-0.104806159933408,-1.0551457603772485,1.1135185559590657
1.2,1.6893057886850304e+18,16.198030436197914,1.407121976216634,-1.259139855702718,0.5433982014656067,1.6893057886936845e+18,16.206684488932293,8.230711778004965,6.090930143992106,1.4394822120666504,1.6893057886936845e+18,16.206684488932293,6.485868612925212,7.313951174418132,0.7571384509404501,1.6893057886807094e+18,16.193709309895834,0.4389575819174449,0.2441424746066332,-2.99003267288208,1.6893057886807094e+18,16.193709309895834,0.4378885726133982,0.2488766883810361,-2.987640142440796,,,,,,,,,,,,1.6893057886871757e+18,16.20017568359375,-35.836279296875,-30.643959045410156,-19.93235969543457,1.6893057886871757e+18,16.20017568359375,-304.12647705078126,62.246839141845705,-162.73335876464844,1.6893057886850304e+18,16.198030436197914,-0.4971758226553599,-0.2650833030541737,0.3271691004435221,0.7583802143732706,-0.1184392074743906,-0.8634731769561768,1.1059059699376423
1.25,1.6893057887369372e+18,16.249937255859376,3.2465264002482095,-1.030989646911621,0.7153360843658447,1.6893057887369318e+18,16.249931640625,10.226624965667725,5.887240886688232,1.5335001945495603,1.6893057887369318e+18,16.249931640625,6.922889947891235,6.915290594100952,0.6975680291652679,1.689305788732614e+18,16.245613850911457,0.2015855262676874,0.6003278295199076,-0.6741916090250015,1.689305788732614e+18,16.245613850911457,0.200516511996587,0.6051129202047983,-0.6717990736166636,1.689305788737068e+18,16.250068115234374,0.0,0.2342181205749511,0.9423106908798218,9.64799976348877,0.0837955176830291,0.0,40.900001525878906,-122.7530934,49.1903829,1.689305788737176e+18,16.250175927734375,-39.010719299316406,-26.86439971923828,-19.52975921630859,1.689305788737176e+18,16.250175927734375,-307.30091552734376,66.02639770507812,-162.33075561523438,1.6893057887369372e+18,16.249937255859376,-0.4973563452561696,-0.2385675062735875,0.3020414809385934,0.7774697343508402,-0.0998830248912175,-0.7852354447046915,1.0968104600906372
1.3,1.689305788788838e+18,16.301837972005206,2.8456522623697915,-1.0135095914204917,0.2795183757940928,1.6893057887801894e+18,16.293189290364584,9.859824816385904,6.087141513824463,0.8775676886240641,1.6893057887801894e+18,16.293189290364584,6.792391141255696,7.061716238657634,0.4513403673966725,1.6893057887845148e+18,16.29751472981771,-0.2154318032165367,0.7606799403826395,1.0310387015342712,1.6893057887845148e+18,16.29751472981771,-0.2163481041789054,0.7654650608698527,1.0334312717119851,,,,,,,,,,,,1.689305788787176e+18,16.300175927734376,-39.48895950317383,-27.723279571533205,-18.177999114990236,1.689305788787176e+18,16.300175927734376,-307.779150390625,65.16751861572266,-160.97899780273437,1.689305788788838e+18,16.301837972005206,-0.4890711208184559,-0.2291945517063141,0.3231635590394338,0.777013341585795,-0.0581810399889945,-0.8131330013275146,1.0986186663309734
1.35,1.6893057888407432e+18,16.35374324544271,2.151106039683024,-1.2439934412638347,-0.1113312368591626,1.689305788832089e+18,16.345089518229166,8.463214238484701,6.266204357147217,0.1645065521200497,1.689305788832089e+18,16.345089518229166,6.26702086130778,7.541299661000569,0.1620088095466295,1.6893057888364196e+18,16.349419433593752,-0.2972877571980158,0.1912517224748928,1.8266397714614868,1.6893057888364196e+18,16.349419433593752,-0.2983567665020624,0.1959859331448872,1.8289814790089924,,,,,,,,,,,,1.6893057888371758e+18,16.350175976562504,-37.10263900756836,-31.031919479370117,-16.545639419555663,1.6893057888371758e+18,16.350175976562504,-305.39283447265626,61.85887832641602,-159.3466339111328,1.6893057888407432e+18,16.35374324544271,-0.4832255939642588,-0.2379736602306365,0.3605837325255076,0.7613525390625,-0.0219811120380957,-0.8933748404184977,1.1206400791803997
1.4,1.689305788892646e+18,16.40564599609375,1.5712436040242512,-0.3064030011494954,-0.1775762488444645,1.6893057888839956e+18,16.396995686848957,7.1246293385823565,7.766503969828288,-0.1012961591283479,1.6893057888839956e+18,16.396995686848957,5.370798110961914,8.200976689656576,0.045244782231748,1.6893057888883223e+18,16.40132234700521,-0.245160587131977,0.0609847120940685,2.637512524922689,1.6893057888883223e+18,16.40132234700521,-0.2461786965529123,0.0657189215222994,2.6398541927337646,,,,,,,,,,,,1.689305788887176e+18,16.400176074218752,-32.82043952941895,-34.93835983276367,-16.082039833068848,1.689305788887176e+18,16.400176074218752,-301.1106384277344,57.95243911743164,-158.8830352783203,1.689305788892646e+18,16.40564599609375,-0.4708756605784098,-0.2627398471037547,0.4083800514539082,0.7362646063168844,-0.0037998397213717,-1.0142871141433716,1.1361127297083535
1.45,1.689305788944544e+18,16.45754402669271,1.324085712432861,-1.2433017094930012,-0.074538325270017,1.689305788935899e+18,16.44889884440104,5.285346508026123,8.041080633799234,-0.1395813170820474,1.689305788935899e+18,16.44889884440104,4.004361073176066,8.939863522847494,-0.1746357729037602,1.6893057889402217e+18,16.453221842447917,-0.8481863935788473,-0.3461060672998428,3.591633160909017,1.6893057889402217e+18,16.453221842447917,-0.8492045005162557,-0.3413209617137908,3.5940256913503013,,,,,,,,,,,,1.6893057889371758e+18,16.450175830078127,-26.554519653320312,-39.93059921264648,-15.232919692993164,1.6893057889371758e+18,16.450175830078127,-294.8447204589844,52.960198974609376,-158.0339141845703,1.689305788944544e+18,16.45754402669271,-0.4621501962343852,-0.2981722752253214,0.470191220442454,0.6896911462148031,0.0666645355522632,-1.180415948232015,1.2271069685618083
1.5,1.6893057889878016e+18,16.50080163574219,1.0626596808433533,-1.6913402080535889,-0.0923457741737365,1.6893057889878016e+18,16.5008017578125,3.18026073773702,7.80997371673584,-0.559122900168101,1.6893057889878016e+18,16.5008017578125,2.016532222429911,9.564990361531576,-0.517753521601359,1.6893057889921303e+18,16.50513028971354,-0.4157447069883346,0.8874853750069936,4.558378219604492,1.6893057889921303e+18,16.50513028971354,-0.4167628188927968,0.8922196129957835,4.560719807942708,,,,,,,,,,,,1.6893057889871736e+18,16.500173779296876,-17.482599639892577,-45.24979934692383,-13.678639793395996,1.6893057889871736e+18,16.500173779296876,-285.7727966308594,47.64099960327148,-156.479638671875,1.6893057889878016e+18,16.50080163574219,-0.4417003542184829,-0.3292489498853683,0.5367318391799927,0.6387499272823334,0.2650561109185219,-1.3551562428474426,1.4260358214378357
1.55,1.6893057890311826e+18,16.54418269856771,0.235059214135011,-1.2612673441569011,-0.2013236085573831,1.689305789039705e+18,16.552705322265624,-1.0576276083787282,8.52542781829834,-0.6971089979633688,1.689305789039705e+18,16.552705322265624,-0.3458061019579569,9.756662686665852,-0.7195413510004679,1.6893057890450163e+18,16.55801619466146,-0.3004948000113169,1.7204001347223918,4.426889578501384,1.6893057890450163e+18,16.55801619466146,-0.3015129069487254,1.7251343727111816,4.429180304209392,,,,,,,,,,,,1.689305789037174e+18,16.5501740234375,-7.422479867935181,-48.072879028320315,-12.204879760742188,1.689305789037174e+18,16.5501740234375,-275.7126770019531,44.817918395996095,-155.00587463378906,1.6893057890311826e+18,16.54418269856771,-0.3925284544626872,-0.3478208780288696,0.6135652263959249,0.5892947316169739,1.517390787601471,-1.4749985535939534,0.5264600118001302
1.6,1.689305789082957e+18,16.59595719401042,-2.72537891070048,-0.7887849807739258,0.3876303533713023,1.6893057890916078e+18,16.604608154296873,-4.938985347747803,8.787441889444986,-0.4410769790410995,1.6893057890916078e+18,16.604608154296873,-2.2564266125361123,9.51054032643636,-0.7441013852755228,1.6893057890872837e+18,16.600283935546877,-0.0387135837227105,0.6046802252531052,3.053868055343628,1.6893057890872837e+18,16.600283935546877,-0.0397825990803539,0.6094907894730568,3.056235194206238,,,,,,,,,,,,1.6893057890871762e+18,16.600176074218748,1.3493199571967125,-49.37583999633789,-11.343559837341306,1.6893057890871762e+18,16.600176074218748,-266.940869140625,43.51495895385742,-154.14455871582032,1.689305789082957e+18,16.59595719401042,-0.3366707364718119,-0.36231725414594,0.6864543159802755,0.532598614692688,2.7720324993133545,-1.349113504091899,-2.4699270725250244
1.65,1.6893057891348603e+18,16.647860432942707,-2.493251164754232,-0.0882094701131185,0.5530036489168803,1.689305789143513e+18,16.656513346354163,-5.5160543123881025,9.353144963582356,-0.0963111083644132,1.689305789143513e+18,16.656513346354163,-3.0255072911580405,9.295438130696615,-0.818936308224996,1.6893057891305362e+18,16.643536458333333,-0.0076358156899611,-0.7076873977979025,1.2264646887779236,1.6893057891305362e+18,16.643536458333333,-0.0086539243347942,-0.7029022773106893,1.2288572192192078,,,,,,,,,,,,1.689305789137174e+18,16.650173974609373,7.327319812774658,-48.968359375,-11.270359802246094,1.689305789137174e+18,16.650173974609373,-260.96287841796874,43.92243881225586,-154.07135620117188,1.6893057891348603e+18,16.647860432942707,-0.3231304585933685,-0.3824093441168467,0.7107719580332438,0.4940398335456848,2.8785990873972573,-1.2516697645187378,-2.345043659210205
1.7,1.6893057891867635e+18,16.69976342773438,-2.243499437967936,-0.0858802795410156,0.2569202979405721,1.6893057891867633e+18,16.699763427734375,-5.260321617126465,9.26500940322876,-0.5353940650820732,1.6893057891867633e+18,16.699763427734375,-2.9765658378601074,9.306612968444824,-0.8719697296619415,1.6893057891824394e+18,16.695439615885416,0.0211766622184465,-0.3356704612572987,-0.4394666527708371,1.6893057891824394e+18,16.695439615885416,0.0201585530303418,-0.3309362431367238,-0.4371758823593457,,,,,,,,,,,,1.6893057891871762e+18,16.700176269531248,8.039799976348878,-49.10255889892578,-11.18007984161377,1.6893057891871762e+18,16.700176269531248,-260.25038452148436,43.788239288330075,-153.9810791015625,1.6893057891867635e+18,16.69976342773438,-0.3318971594174703,-0.3896973828474681,0.7069266637166342,0.4880736569563547,2.8563878536224365,-1.2492851813634236,-2.340316216150919
1.75,1.6893057892386662e+18,16.75166634114583,-1.4134167830149331,-0.5058221817016602,-0.2448108394940694,1.6893057892300155e+18,16.743015869140624,-4.234099706013997,8.761519432067871,-1.152343511581421,1.6893057892300155e+18,16.743015869140624,-2.7836176554361978,9.364941914876304,-0.8850855628649393,1.689305789234343e+18,16.747342529296876,0.1442660068472226,-0.4111632108688354,-0.3561853468418121,1.689305789234343e+18,16.747342529296876,0.143196997543176,-0.4063271979490916,-0.3538436988989512,,,,,,,,,,,,1.6893057892371758e+18,16.75017607421875,6.871039772033692,-49.15623931884765,-11.321599769592284,1.6893057892371758e+18,16.75017607421875,-261.4191528320313,43.7345588684082,-154.12259826660156,1.6893057892386662e+18,16.75166634114583,-0.3414334654808044,-0.3921110928058624,0.6976396441459656,0.4929054280122121,2.832056999206543,-1.2714025576909382,-2.3467229207356772
1.8,1.6893057892905697e+18,16.803569580078122,-1.614195982615153,0.3529545466105143,-0.0060318311055501,1.6893057892819151e+18,16.79491512044271,-4.019942045211792,9.7627166112264,-0.6277171572049459,1.6893057892819151e+18,16.79491512044271,-2.5183491706848145,9.450138409932457,-0.7507112820943197,1.689305789286245e+18,16.7992451171875,0.5033529698848724,0.1554652005434036,-1.0350602467854817,1.689305789286245e+18,16.7992451171875,0.502334862947464,0.1601994161804517,-1.032718578974406,,,,,,,,,,,,1.6893057892871736e+18,16.800173486328127,5.780359935760498,-48.9049186706543,-11.97551975250244,1.6893057892871736e+18,16.800173486328127,-262.5098388671875,43.98587875366211,-154.77651672363282,1.6893057892905697e+18,16.803569580078122,-0.3444975415865579,-0.3939640124638875,0.6844054857889811,0.5075461467107137,2.8605058987935386,-1.3103140989939372,-2.3133488496144614
1.85,1.6893057893424722e+18,16.855472330729167,-1.4690056244532268,-0.1618722279866536,-0.3323786358038584,1.6893057893338222e+18,16.84682218424479,-3.1144580841064453,9.62851905822754,-0.6835496624310812,1.6893057893338222e+18,16.84682218424479,-1.5993775129318235,9.660781224568684,-0.439702441294988,1.689305789338145e+18,16.851145263671874,0.727387805779775,0.1510873362421989,-2.757700284322103,1.689305789338145e+18,16.851145263671874,0.7263696988423666,0.1558724492788314,-2.755307674407959,,,,,,,,,,,,1.6893057893371745e+18,16.85017412109375,1.7787599921226502,-48.77071914672852,-13.207719802856444,1.6893057893371745e+18,16.85017412109375,-266.5114318847656,44.120079803466794,-156.00871887207032,1.6893057893424722e+18,16.855472330729167,-0.3546120226383209,-0.3830497860908508,0.6498147249221802,0.552056610584259,2.8741701443990073,-1.4266552925109863,-2.308058977127075
1.9,1.6893057893943726e+18,16.90737255859375,-0.4493485689163208,-0.8374630610148112,0.0619073112805684,1.6893057893857242e+18,16.89872428385417,-0.4424727857112884,8.982257525126139,-0.0087736832598845,1.6893057893857242e+18,16.89872428385417,0.1686101158459981,9.790979067484535,0.0775742356975873,1.689305789390051e+18,16.903050944010417,1.179886261622111,0.6048583984375,-3.968078851699829,1.689305789390051e+18,16.903050944010417,1.178868095080058,0.609592616558075,-3.965737263361613,,,,,,,,,,,,1.6893057893871734e+18,16.90017353515625,-8.620519828796386,-46.97732009887695,-15.691639709472655,1.6893057893871734e+18,16.90017353515625,-276.9107177734375,45.91348037719727,-158.49263610839844,1.6893057893943726e+18,16.90737255859375,-0.3665357331434886,-0.3588286638259887,0.5874107281366984,0.6252578894297282,0.7834461232026418,-1.5040011803309123,-0.2328354120254516
1.95,1.689305789437628e+18,16.950627807617188,-0.517484188079834,-1.124105453491211,0.1853740513324737,1.6893057894376282e+18,16.950628092447918,1.6155540545781453,8.438887278238932,0.7525426944096884,1.6893057894376282e+18,16.950628092447918,2.10934317111969,9.555315335591636,0.4801427721977234,1.689305789441951e+18,16.954951009114584,0.3589342422783375,0.3284418831268946,-3.6344446341196694,1.689305789441951e+18,16.954951009114584,0.3578652113986512,0.3331760962804158,-3.6321029663085938,,,,,,,,,,,,1.6893057894371756e+18,16.950175634765625,-19.368719482421874,-43.08063888549805,-17.23859977722168,1.6893057894371756e+18,16.950175634765625,-287.65891723632814,49.810159301757814,-160.0395965576172,1.689305789437628e+18,16.950627807617188,-0.3757413178682327,-0.3296179622411728,0.5323586463928223,0.6830229461193085,-0.2317025288939475,-1.3474240899086,0.8199995756149292
2.0,1.6893057894808732e+18,16.993873453776043,0.4637975692749023,-1.4718891779581706,-0.1808525423208872,1.689305789489531e+18,17.002531087239586,4.462614297866821,7.659624735514323,0.4823531781633695,1.689305789489531e+18,17.002531087239586,3.833962599436442,8.99888261159261,0.5625110467274984,1.6893057894938583e+18,17.006858235677083,0.3044145132104556,0.1466585596402486,-3.455155611038208,1.6893057894938583e+18,17.006858235677083,0.3033964062730471,0.151443675160408,-3.4528648853302,,,,,,,,,,,,1.689305789487174e+18,17.000174072265626,-27.213319778442383,-38.87895965576172,-17.55091972351074,1.689305789487174e+18,17.000174072265626,-295.503515625,54.01183929443359,-160.35191650390624,1.6893057894808732e+18,16.993873453776043,-0.3980262577533722,-0.301192045211792,0.4770141144593556,0.7229623794555664,-0.1542443732420603,-1.194620927174886,0.900952696800232
2.05,1.689305789532784e+18,17.045783854166668,0.853895346323649,0.1054112116495767,0.2514670093854268,1.6893057895414344e+18,17.054434326171876,6.162515322367351,8.468199094136557,0.8584251205126444,1.6893057895414344e+18,17.054434326171876,5.17954683303833,8.300846099853516,0.6342922449111938,1.6893057895371105e+18,17.050110229492187,0.1526399487629533,0.1940260715782642,-2.52065908908844,1.6893057895371105e+18,17.050110229492187,0.1515709371306002,0.1987602822482585,-2.518368363380432,,,,,,,,,,,,1.689305789537179e+18,17.050178759765625,-33.29379997253418,-34.045319366455075,-17.658279418945312,1.689305789537179e+18,17.050178759765625,-301.58399658203126,58.84547882080078,-160.45927734375,1.689305789532784e+18,17.045783854166668,-0.4122893114884694,-0.2668268879254659,0.4166902601718902,0.7647671699523926,-0.1261965533097584,-1.0306500593821208,0.9171802401542664
2.1,1.689305789584683e+18,17.097683024088543,1.7542980511983235,-0.8845837910970052,-0.2930159469445546,1.6893057895933325e+18,17.10633235677083,8.151748498280844,6.748557408650716,0.4446662167708079,1.6893057895933325e+18,17.10633235677083,6.000616391499837,7.731166044871013,0.6361532211303711,1.6893057895803569e+18,17.09335709635417,-0.1757255680859088,-0.2896010229984919,-1.8754581212997437,1.6893057895803569e+18,17.09335709635417,-0.1767945786317189,-0.2848668297131856,-1.8730655908584597,,,,,,,,,,,,1.689305789587174e+18,17.100173828125,-36.97331924438477,-30.517079162597657,-17.872999572753905,1.689305789587174e+18,17.100173828125,-305.2635192871094,62.37371826171875,-160.6739959716797,1.689305789584683e+18,17.097683024088543,-0.4298369983832041,-0.2456487864255905,0.373415450255076,0.7843991120656332,-0.1070175195733705,-0.9225240349769592,0.9492778182029724
2.15,1.6893057896365898e+18,17.149589925130208,3.211498578389486,-0.4830926259358724,0.5324926575024923,1.6893057896365896e+18,17.14958947753906,9.498010158538818,7.13330340385437,1.2658032178878784,1.6893057896365896e+18,17.14958947753906,6.235242605209351,7.547037124633789,0.629668116569519,1.6893057896322665e+18,17.145266438802082,-0.1269581615924835,0.0644971874232093,0.1078177243471145,1.6893057896322665e+18,17.145266438802082,-0.128027173380057,0.0692313940574725,0.1101593598723412,,,,,,,,,,,,1.6893057896371758e+18,17.150175878906246,-38.27383880615234,-28.96523933410645,-17.75099983215332,1.6893057896371758e+18,17.150175878906246,-306.5640380859375,63.925558471679686,-160.5519989013672,1.6893057896365898e+18,17.149589925130208,-0.436972439289093,-0.2373575766881306,0.3570301135381062,0.7907059987386068,-0.0997706701358159,-0.882091224193573,0.9626313050587972
2.2,1.6893057896884928e+18,17.201492757161457,2.9173269271850586,-1.2406786282857258,0.1735189656416575,1.6893057896798464e+18,17.192846354166665,8.663413683573404,6.949754079182942,0.7668996353944143,1.6893057896798464e+18,17.192846354166665,5.562649567921956,8.059384187062582,0.3998452027638753,1.6893057896841687e+18,17.197168782552083,-0.9383908112843832,0.0009162984788417,2.8719828923543296,1.6893057896841687e+18,17.197168782552083,-0.9394089380900064,0.0056505029400189,2.874375502268473,,,,,,,,,,,,1.6893057896871703e+18,17.200170263671875,-35.13843994140625,-32.986359405517575,-16.98239936828613,1.6893057896871703e+18,17.200170263671875,-303.4286315917969,59.904439544677736,-159.7833984375,1.6893057896884928e+18,17.201492757161457,-0.4371431867281595,-0.2533510625362396,0.4031442205111186,0.762666642665863,-0.0606578290462493,-0.991447945435842,1.008779525756836
2.25,1.6893057897403948e+18,17.253394938151043,1.983595609664917,-1.1820022265116374,-0.3860417405764262,1.6893057897317396e+18,17.244739420572916,6.022136370340983,7.690532207489014,-0.2586242457230885,1.6893057897317396e+18,17.244739420572916,4.104354778925578,8.894890785217285,0.049084260147841,1.689305789736072e+18,17.24907194010417,-0.5989024639129639,-0.399404061337312,3.785684665044149,1.689305789736072e+18,17.24907194010417,-0.5999714732170105,-0.3946189433336258,3.7880262533823648,1.689305789737064e+18,17.25006396484375,0.0,0.2221157550811767,0.9529942870140076,9.39900016784668,0.1024089306592941,123.11548614501952,40.900001525878906,-122.7530911,49.1903794,1.6893057897371738e+18,17.250173779296876,-28.345479583740236,-38.854559326171874,-15.601359748840332,1.6893057897371738e+18,17.250173779296876,-296.63567504882815,54.03623886108399,-158.40235900878906,1.6893057897403948e+18,17.253394938151043,-0.4294728934764862,-0.2862077951431274,0.4729079703489938,0.7135685483614603,-0.0038706536870449,-1.1718785762786863,1.0816070238749187
2.3,1.6893057897922998e+18,17.305299560546874,1.4470503131548564,-1.8710360527038576,-0.0632882118225097,1.6893057897836485e+18,17.296648274739585,3.958127498626709,7.780462265014648,-0.2767698218425115,1.6893057897836485e+18,17.296648274739585,2.04143504301707,9.570631663004557,-0.220173799743255,1.689305789787975e+18,17.300974934895834,-0.9648107290267944,0.0499891339180369,4.581438382466634,1.689305789787975e+18,17.300974934895834,-0.9658288558324178,0.0547742502142985,4.583780129750569,,,,,,,,,,,,1.689305789787175e+18,17.3001748046875,-18.34147968292236,-44.60075988769531,-14.72295970916748,1.689305789787175e+18,17.3001748046875,-286.6316772460938,48.29003982543945,-157.52395629882812,1.6893057897922998e+18,17.305299560546874,-0.4122858842213948,-0.330009122689565,0.5528274575869242,0.6437549392382304,0.2393687106668948,-1.394764502843221,1.3498700857162476
2.35,1.6893057898442012e+18,17.357201090494794,-1.569466193517049,-1.159585952758789,-0.1881917715072631,1.6893057898355515e+18,17.348551432291668,-1.4147563750545185,8.559724807739258,-0.6719843645890554,1.6893057898355515e+18,17.348551432291668,-0.1083906168739,9.774798075358072,-0.6167598565419515,1.6893057898398774e+18,17.352877604166668,-0.403781920671463,0.5804238170385361,3.8525235652923584,1.6893057898398774e+18,17.352877604166668,-0.4048000375429789,0.5851579904556274,3.854814291000366,,,,,,,,,,,,1.689305789837177e+18,17.350177197265626,-8.591239929199219,-48.23391952514648,-12.587959671020508,1.689305789837177e+18,17.350177197265626,-276.8814331054688,44.65687866210938,-155.3889587402344,1.6893057898442012e+18,17.357201090494794,-0.3749944070974986,-0.3507651686668396,0.6314546664555868,0.5804141561190287,1.9863797426223757,-1.4786729017893474,-1.1232248942057292
2.4,1.6893057898874545e+18,17.400454467773436,-1.4042887687683103,-0.3879218101501465,0.1533530652523041,1.6893057898874545e+18,17.40045458984375,-3.2815568447113037,9.122835795084637,-0.6510471552610397,1.6893057898874545e+18,17.40045458984375,-1.769944190979004,9.60374355316162,-0.8646005392074585,1.6893057898917788e+18,17.404778889973958,-0.4580471217632293,-0.9763153592745464,2.528422196706136,1.6893057898917788e+18,17.404778889973958,-0.4590652287006378,-0.9715811808904012,2.5308146874109902,,,,,,,,,,,,1.6893057898871762e+18,17.400176123046876,0.2952400088310242,-49.449038696289065,-11.636359596252442,1.6893057898871762e+18,17.400176123046876,-267.9949584960938,43.441758728027345,-154.4373565673828,1.6893057898874545e+18,17.400454467773436,-0.3635895401239395,-0.3789989948272705,0.6691640019416809,0.525580108165741,2.6898038387298584,-1.3661423325538635,-2.481147050857544
2.45,1.689305789930707e+18,17.443706949869792,-1.743385950724284,-0.3010543187459309,0.4699299335479736,1.6893057899393585e+18,17.452358479817708,-4.366303126017253,8.984051704406738,-0.7174479862054189,1.6893057899393585e+18,17.452358479817708,-2.6251999537150064,9.378368695576986,-1.1627902189890544,1.6893057899436805e+18,17.45668025716146,-0.5084943970044454,-0.4103996356328328,1.2962051630020142,1.6893057899436805e+18,17.45668025716146,-0.5095125039418539,-0.4056654274463653,1.2985977331797285,,,,,,,,,,,,1.689305789937172e+18,17.450172021484374,6.612399959564209,-49.17087936401367,-9.92347984313965,1.689305789937172e+18,17.450172021484374,-261.67779541015625,43.71991958618164,-152.72447509765624,1.689305789930707e+18,17.443706949869792,-0.3623601297537486,-0.3931334614753723,0.6883227825164795,0.4901404182116191,2.725375016530355,-1.2861894766489663,-2.4176390171051025
2.5,1.6893057899826084e+18,17.4956083984375,-1.556305170059204,-0.0917434692382812,0.2137854894002278,1.6893057899912614e+18,17.504261555989583,-4.7587259610493975,9.316255569458008,-1.1044870416323345,1.6893057899912614e+18,17.504261555989583,-3.124325752258301,9.190087954203287,-1.4159606297810872,1.6893057899869368e+18,17.49993701171875,-0.3389538526535034,-0.2910009324550628,0.8817076086997986,1.6893057899869368e+18,17.49993701171875,-0.34002286195755,-0.2861903607845306,0.8840747475624084,,,,,,,,,,,,1.689305789987178e+18,17.500178222656253,10.27971954345703,-49.31971893310547,-9.023119735717774,1.689305789987178e+18,17.500178222656253,-258.0104736328125,43.57107849121094,-151.8241180419922,1.6893057899826084e+18,17.4956083984375,-0.362979531288147,-0.4007829924424489,0.7038603822390238,0.4605963031450907,2.7152137756347656,-1.220848560333252,-2.406949043273926
2.55,1.6893057900345096e+18,17.547509521484375,-2.7419535319010415,0.3846817016601562,-0.0224663019180298,1.6893057900431708e+18,17.5561708984375,-6.013562043507894,9.318449020385744,-1.458624800046285,1.6893057900431708e+18,17.5561708984375,-3.199749310811361,9.174631436665852,-1.3473846515019734,1.6893057900301883e+18,17.543188232421873,0.0821613756318887,0.5414302249749502,-0.1489493002494176,1.6893057900301883e+18,17.543188232421873,0.0810923638443152,0.5461644232273102,-0.1466076572736104,,,,,,,,,,,,1.6893057900371743e+18,17.550174462890624,9.83563995361328,-49.370958709716795,-9.003599929809571,1.6893057900371743e+18,17.550174462890624,-258.4545532226563,43.51983871459961,-151.80459594726562,1.6893057900345096e+18,17.547509521484375,-0.3552167812983195,-0.3993137379487355,0.7108729283014933,0.4571665525436401,2.7401857376098633,-1.204573631286621,-2.395906686782837
2.6,1.6893057900864164e+18,17.599416178385415,-2.504209518432617,-0.2844969431559245,-0.2208805481592814,1.689305790086416e+18,17.599416137695314,-5.195416212081909,8.973982334136963,-1.427617847919464,1.689305790086416e+18,17.599416137695314,-2.762216329574585,9.331355094909668,-1.229498028755188,1.689305790082093e+18,17.59509318033854,0.3561853369077046,-0.0212275677671035,-1.477835734685262,1.689305790082093e+18,17.59509318033854,0.3551672299702962,-0.0164933611328402,-1.475443164507548,,,,,,,,,,,,1.689305790087172e+18,17.60017216796875,7.505439758300781,-49.3685188293457,-9.708759880065918,1.689305790087172e+18,17.60017216796875,-260.7847595214844,43.52227935791016,-152.50975952148437,1.6893057900864164e+18,17.599416178385415,-0.3592002689838409,-0.3920452495416005,0.6974595387776693,0.4802955289681752,2.7230002085367837,-1.2588802973429365,-2.424595594406128
2.65,1.6893057901383155e+18,17.65131559244792,-2.515263557434082,-0.4078648885091145,0.0113424460093179,1.689305790129667e+18,17.642667154947915,-4.43170690536499,9.300901412963867,-0.8085746367772421,1.689305790129667e+18,17.642667154947915,-1.923515558242798,9.566787719726562,-0.943384051322937,1.6893057901339955e+18,17.646995442708334,0.6952664653460184,0.5410229861736298,-2.465910275777181,1.6893057901339955e+18,17.646995442708334,0.694197436173757,0.5457571744918823,-2.463568607966105,,,,,,,,,,,,1.689305790137176e+18,17.650176220703123,1.6103999197483063,-49.46855926513672,-11.182519721984864,1.689305790137176e+18,17.650176220703123,-266.67979736328124,43.42223892211914,-153.98351440429687,1.6893057901383155e+18,17.65131559244792,-0.3664155503114064,-0.3787423372268677,0.666495660940806,0.5269812345504761,2.664837121963501,-1.372238318125407,-2.5020549297332764
2.7,1.6893057901902213e+18,17.703221516927083,-1.3875929911931355,-0.8846527735392252,-0.0634823044141133,1.6893057901815675e+18,17.69456795247396,-2.102892279624939,8.824530283610025,-0.642472892999649,1.6893057901815675e+18,17.69456795247396,-0.5973535304268202,9.765110969543455,-0.6005290448665619,1.689305790185898e+18,17.69889794921875,0.5913684566815695,0.4638503491878509,-2.9166270097096763,1.689305790185898e+18,17.69889794921875,0.5902994473775228,0.468584547440211,-2.9142853418986,,,,,,,,,,,,1.689305790187174e+18,17.700174169921873,-5.721799850463867,-48.673118591308594,-12.453759956359864,1.689305790187174e+18,17.700174169921873,-274.0119934082031,44.21767883300781,-155.2547607421875,1.6893057901902213e+18,17.703221516927083,-0.3758900463581084,-0.3553597529729207,0.6256668965021769,0.5835228363672892,1.9590864578882856,-1.496338129043579,-1.141900618871053
2.75,1.6893057902421258e+18,17.7551259765625,-1.2553865909576416,-1.3784850438435872,-0.2970419923464457,1.6893057902334748e+18,17.746474853515625,-0.254038006067276,8.4646102587382,-0.488135814666748,1.6893057902334748e+18,17.746474853515625,1.069548676411311,9.7320769627889,-0.29275577267011,1.6893057902378015e+18,17.750801513671874,0.5262095034122467,0.3445788979685555,-3.8959967295328775,1.6893057902378015e+18,17.750801513671874,0.5251404941082001,0.3493640074351181,-3.8937060038248696,,,,,,,,,,,,1.6893057902371763e+18,17.750176220703125,-14.032439804077148,-46.2965591430664,-13.624959564208984,1.6893057902371763e+18,17.750176220703125,-282.3226379394531,46.59423904418945,-156.42595520019532,1.6893057902421258e+18,17.7551259765625,-0.3894246518611908,-0.3224099973837534,0.5692487557729086,0.6476906140645345,0.2293664813041686,-1.4235739310582478,1.2879021962483723
2.8,1.6893057902940283e+18,17.80702840169271,-0.0607057412465413,-1.1155673662821453,-0.0887391666571299,1.6893057902853778e+18,17.798377766927086,2.8787649869918823,8.131608804066977,-0.0895314464966455,1.6893057902853778e+18,17.798377766927086,3.1882543563842773,9.256849606831867,-0.0920119856794675,1.6893057902897042e+18,17.802704508463542,0.3273728688557942,-0.3582724630832672,-4.3570982615153,1.6893057902897042e+18,17.802704508463542,0.3263038496176401,-0.3534873525301615,-4.354705810546875,,,,,,,,,,,,1.689305790287173e+18,17.8001732421875,-23.89491958618164,-41.68007888793945,-14.510679817199708,1.689305790287173e+18,17.8001732421875,-292.18511352539065,51.21071929931641,-157.31167907714843,1.6893057902940283e+18,17.80702840169271,-0.4203036228815713,-0.2851884265740712,0.4878713687260945,0.7092743515968323,0.0185666801407933,-1.2016587257385254,1.0836363633473711
2.85,1.689305790337281e+18,17.850281005859372,0.9719972610473632,-1.1437013149261477,-0.2217906564474105,1.689305790337281e+18,17.850281005859376,6.012963930765788,7.266005198160808,0.0133599266409874,1.689305790337281e+18,17.850281005859376,5.028458595275879,8.407204945882162,0.1369989017645517,1.6893057903416044e+18,17.854604248046876,0.4141157269477844,-0.0470366217195987,-3.553454081217448,1.6893057903416044e+18,17.854604248046876,0.4130467176437378,-0.0422515099247296,-3.551112413406372,,,,,,,,,,,,1.6893057903371738e+18,17.850173681640626,-32.08355941772461,-35.97291946411133,-15.772159576416016,1.6893057903371738e+18,17.850173681640626,-300.3737487792969,56.91787872314453,-158.57315979003906,1.689305790337281e+18,17.850281005859372,-0.4395359754562378,-0.2562092393636703,0.4210287779569626,0.750768631696701,-0.0281024845317005,-1.0306326746940613,1.0435059666633606
2.9,1.6893057903805338e+18,17.89353377278646,2.5549392700195312,-0.98226531346639,0.1841613451639811,1.6893057903891804e+18,17.902180257161458,9.371689319610596,6.61216672261556,0.611166775226593,1.6893057903891804e+18,17.902180257161458,6.216766198476155,7.579482078552246,0.2707848697900772,1.68930579039351e+18,17.906509684244792,0.1758782801528771,-0.0800742528711756,-1.739998737970988,1.68930579039351e+18,17.906509684244792,0.1748092683653036,-0.0752891432493925,-1.737606167793274,,,,,,,,,,,,1.689305790387172e+18,17.9001720703125,-38.03471908569336,-30.363359451293945,-16.45779972076416,1.689305790387172e+18,17.9001720703125,-306.3249206542969,62.52743911743164,-159.25879516601563,1.6893057903805338e+18,17.89353377278646,-0.4493607680002848,-0.2298206438620884,0.3700015644232432,0.7798026005427042,-0.041567925363779,-0.9007710814476012,1.0255285501480105
2.95,1.6893057904324375e+18,17.945437581380208,5.161389032999675,-1.4872589111328125,0.7042032678922018,1.6893057904410798e+18,17.95407975260417,11.50628630320231,5.84008264541626,0.9324032266934712,1.6893057904410798e+18,17.95407975260417,6.2785383860270185,7.530936400095622,0.2339964161316553,1.6893057904367631e+18,17.949763061523438,-0.345597006380558,0.0910189226269722,1.0473284423351288,1.6893057904367631e+18,17.949763061523438,-0.3466660156846046,0.0957531183958053,1.0496191680431366,,,,,,,,,,,,1.689305790437176e+18,17.950176171875,-38.90092010498047,-29.028679656982423,-16.521239852905275,1.689305790437176e+18,17.950176171875,-307.19111328125,63.86211929321289,-159.3222412109375,1.6893057904324375e+18,17.945437581380208,-0.4540656308333079,-0.2231634060541788,0.3555156886577606,0.7858564456303915,-0.0429094433784484,-0.8655723730723063,1.0281169811884563
3.0,1.68930579048434e+18,17.99734016927083,4.028347492218018,-1.8281718889872232,-0.0777483781178792,1.6893057904929902e+18,18.005989990234372,9.209176699320476,6.405985037485759,-0.2871387181803584,1.6893057904929902e+18,18.005989990234372,5.406854788462321,8.173070430755615,-0.2128810534874597,1.6893057904800154e+18,17.99301554361979,-0.814385175704956,0.5196936130523682,2.4340944290161133,1.6893057904800154e+18,17.99301554361979,-0.8154541850090027,0.5244278013706207,2.4364869594573975,,,,,,,,,,,,1.6893057904871718e+18,18.00017197265625,-35.79235916137695,-33.049800109863284,-14.669279670715332,1.6893057904871718e+18,18.00017197265625,-304.0825500488281,59.840998840332034,-157.47027893066405,1.68930579048434e+18,17.99734016927083,-0.4520386159420013,-0.2295206536849339,0.402437021334966,0.7620076934496561,0.0259436947914461,-0.9632299145062764,1.0850491523742676
3.05,1.689305790536242e+18,18.04924186197917,2.510396957397461,-1.4820971488952637,-0.3470814923445384,1.689305790536237e+18,18.04923693847656,6.768697023391724,7.39980411529541,-0.7564310729503632,1.689305790536237e+18,18.04923693847656,4.2154189348220825,8.839274406433105,-0.4778533428907394,1.6893057905319148e+18,18.04491471354167,-0.5952881971995035,-0.0694350184251864,3.6395859718322754,1.6893057905319148e+18,18.04491471354167,-0.5962554017702738,-0.0647008068238695,3.641927639643351,,,,,,,,,,,,1.689305790537178e+18,18.050177880859373,-30.21695938110351,-38.53491897583008,-13.341919708251954,1.689305790537178e+18,18.050177880859373,-298.5071533203125,54.35587844848633,-156.14291687011718,1.689305790536242e+18,18.04924186197917,-0.444108913342158,-0.2561779270569482,0.4689380923906962,0.7186758120854696,0.1158729568123817,-1.1247450510660808,1.1814033190409343
3.1,1.6893057905881477e+18,18.101147705078123,0.8552077213923136,-1.848045031229655,-0.6056004762649536,1.689305790579494e+18,18.092494140625,3.6394832928975425,7.600801150004069,-1.210768222808838,1.689305790579494e+18,18.092494140625,2.553240656852722,9.428186734517416,-0.6747383077939352,1.6893057905838203e+18,18.096820475260415,-0.7870998779932658,-1.0601057012875874,4.458705425262451,1.6893057905838203e+18,18.096820475260415,-0.788067082564036,-1.0553715229034424,4.461047013600667,,,,,,,,,,,,1.6893057905871764e+18,18.100176367187498,-20.430119705200195,-44.18595962524414,-12.5806396484375,1.6893057905871764e+18,18.100176367187498,-288.7203063964844,48.70483932495117,-155.3816345214844,1.6893057905881477e+18,18.101147705078123,-0.4343370397885639,-0.3062410255273183,0.5419490138689677,0.650201141834259,0.3432116707166036,-1.3311351140340169,1.4548847675323486
3.15,1.689305790640048e+18,18.153047770182297,-0.3833888967831929,-1.3586079279581706,-0.3619259198506673,1.689305790631399e+18,18.144398600260416,0.2251247167587279,8.363513310750326,-1.1038888295491536,1.689305790631399e+18,18.144398600260416,0.4280858933925629,9.74790859222412,-0.8434743483861288,1.689305790635724e+18,18.148724365234376,-0.1814269771178563,-0.7497352759043375,4.164981047312419,1.689305790635724e+18,18.148724365234376,-0.1824959938724835,-0.7450010776519775,4.167322635650635,,,,,,,,,,,,1.6893057906371763e+18,18.15017626953125,-7.746999740600586,-48.18023910522461,-11.833999824523923,1.6893057906371763e+18,18.15017626953125,-276.0371948242188,44.71055908203125,-154.63500061035157,1.689305790640048e+18,18.153047770182297,-0.4170673390229543,-0.3623213867346446,0.6033539970715841,0.5743428667386373,1.4901150663693743,-1.4665798743565877,0.5649569431940714
3.2,1.6893057906919488e+18,18.20494881184896,-0.9843337138493856,-0.9318691889444988,-0.0928502281506856,1.6893057906832978e+18,18.19629777018229,-2.3734806378682456,8.430113474527994,-1.2406785488128662,1.6893057906832978e+18,18.19629777018229,-1.5572697321573894,9.61777909596761,-1.0197704434394836,1.689305790687628e+18,18.2006279296875,-0.3534364600976307,-1.0181596279144287,3.790317058563232,1.689305790687628e+18,18.2006279296875,-0.3545054694016774,-1.0134254495302837,3.792658726374308,,,,,,,,,,,,1.689305790687174e+18,18.200174169921876,3.286679911613464,-49.24407958984375,-11.214239692687988,1.689305790687174e+18,18.200174169921876,-265.003515625,43.64671859741211,-154.015234375,1.6893057906919488e+18,18.20494881184896,-0.3974445859591166,-0.4125260810057322,0.6514190435409546,0.4967693587144215,2.6031525135040283,-1.3495349486668904,-2.4512659708658853
