seconds_elapsed_rounded,accelerometer_time,accelerometer_seconds_elapsed,accelerometer_z,accelerometer_y,accelerometer_x,accelerometeruncalibrated_time,accelerometeruncalibrated_seconds_elapsed,accelerometeruncalibrated_z,accelerometeruncalibrated_y,accelerometeruncalibrated_x,gravity_time,gravity_seconds_elapsed,gravity_z,gravity_y,gravity_x,gyroscope_time,gyroscope_seconds_elapsed,gyroscope_z,gyroscope_y,gyroscope_x,gyroscopeuncalibrated_time,gyroscopeuncalibrated_seconds_elapsed,gyroscopeuncalibrated_z,gyroscopeuncalibrated_y,gyroscopeuncalibrated_x,location_time,location_seconds_elapsed,location_bearingAccuracy,location_speedAccuracy,location_verticalAccuracy,location_horizontalAccuracy,location_speed,location_bearing,location_altitude,location_longitude,location_latitude,magnetometer_time,magnetometer_seconds_elapsed,magnetometer_z,magnetometer_y,magnetometer_x,magnetometeruncalibrated_time,magnetometeruncalibrated_seconds_elapsed,magnetometeruncalibrated_z,magnetometeruncalibrated_y,magnetometeruncalibrated_x,orientation_time,orientation_seconds_elapsed,orientation_qz,orientation_qy,orientation_qx,orientation_qw,orientation_roll,orientation_pitch,orientation_yaw,totalacceleration_time,totalacceleration_seconds_elapsed,totalacceleration_z,totalacceleration_y,totalacceleration_x
0.1,1.6893057726124462e+18,0.1254462890625,-0.15423425038655594,-0.038304328918457,-0.012819290161132799,1.6893057725951416e+18,0.10814154052734375,2.255683958530426,9.461519718170166,-0.32437702268362045,1.68930577261244e+18,0.1254400634765625,2.322848320007324,9.523390769958496,-0.38145701587200165,1.6893057725908165e+18,0.1038165283203125,0.04225151333957905,-0.03909537477496389,-0.011962777624527599,1.6893057725951442e+18,0.108144140625,0.044318273663520744,-0.027091873995959758,-0.00855211336165666,,,,,,,,,,,,1.689305772592555e+18,0.10555499267578125,-16.50202488899231,-45.294023513793945,-13.662474751472473,1.689305772592555e+18,0.10555499267578125,-284.7922172546387,47.596773624420166,-156.463472366333,1.689305772621097e+18,0.13409704589843752,-0.46728961169719696,-0.3477087765932083,0.5114682018756866,0.6317747235298157,0.16305248439311976,-1.3303289413452148,1.4016925692558289,1.6893057725951442e+18,0.108144140625,2.2402801513671875,9.46923656463623,-0.38129628300666807
0.2,1.689305772690299e+18,0.20329886881510417,-0.057015458742777525,-0.006069978078206366,-0.051550313830375616,1.689305772681647e+18,0.19464725748697917,2.262513518333435,9.503593603769938,-0.36281172931194305,1.689305772681647e+18,0.19464725748697917,2.3304882446924844,9.521928151448568,-0.3711052536964416,1.6893057726859735e+18,0.1989736328125,0.006597344801411919,-0.006322455307235899,-0.03078760853968558,1.689305772690299e+18,0.20329886881510417,0.007610362782240016,0.0012980887937980498,-0.023365595067540768,,,,,,,,,,,,1.689305772683005e+18,0.196005029296875,-16.477319717407227,-45.32055931091308,-13.811619758605957,1.689305772683005e+18,0.196005029296875,-284.76751708984375,47.5702392578125,-156.61261901855468,1.689305772690299e+18,0.20329886881510417,-0.4673029234011968,-0.3477734128634135,0.510881503423055,0.6322036484877268,0.15853071957826612,-1.3293518821398418,1.3973917563756306,1.689305772690299e+18,0.20329886881510417,2.2750757932662964,9.515358289082846,-0.4214358925819397
0.30000000000000004,1.689305772785453e+18,0.298453076171875,-0.00789308547973632,0.0030431747436523403,-0.04229651093482966,1.6893057727854523e+18,0.29845235188802083,2.3675983349482217,9.509476025899252,-0.3396811137596765,1.6893057727854523e+18,0.29845235188802083,2.3539443413416543,9.516502221425375,-0.36211598416169477,1.6893057727811305e+18,0.2941302490234375,0.012522737650821533,-0.006872233624259633,-0.027183503378182598,1.689305772785453e+18,0.298453076171875,0.01078177168965332,-0.0036957345495466005,-0.02626720545813438,,,,,,,,,,,,1.689305772783505e+18,0.2965050537109375,-16.733519554138184,-45.1985595703125,-14.028779697418212,1.689305772783505e+18,0.2965050537109375,-285.0237121582031,47.69223861694336,-156.82977905273438,1.689305772785453e+18,0.298453076171875,-0.46730112433433535,-0.34740884304046626,0.5101278066635132,0.6330135107040405,0.1538798421621322,-1.3273991107940675,1.3922693252563476,1.689305772785453e+18,0.298453076171875,2.344248342514038,9.519844818115235,-0.40426738262176515
0.4,1.6893057728806072e+18,0.3936070963541667,-0.1336696545282999,0.0368792215983073,-0.031780391931533765,1.6893057728892593e+18,0.4022593180338541,2.3109681606292725,9.516554832458496,-0.31535408397515613,1.6893057728892593e+18,0.4022593180338541,2.4586044947306314,9.490344365437826,-0.346842959523201,1.6893057728849354e+18,0.39793538411458335,-0.013948090141639084,-0.1162425652146339,-0.1930334158241748,1.6893057728806072e+18,0.3936070963541667,-0.0133372246539996,-0.10417797726889445,-0.17610736191272733,,,,,,,,,,,,1.6893057728840049e+18,0.39700485839843747,-17.35205955505371,-44.99115905761719,-14.343539619445801,1.6893057728840049e+18,0.39700485839843747,-285.6422546386719,47.89963874816895,-157.14453735351563,1.6893057728806072e+18,0.3936070963541667,-0.47028084099292755,-0.34707724551359814,0.5059204598267873,0.6343554457028707,0.14275862773259473,-1.3184324304262798,1.3865945140520732,1.6893057728806072e+18,0.3936070963541667,2.3066810369491577,9.531809012095133,-0.3795614888270696
0.5,1.6893057729844132e+18,0.4974131673177083,-0.4030534823735555,-0.006621837615966798,0.01680099715789157,1.689305772993068e+18,0.5060679524739583,2.714158773422241,9.28056255976359,-0.23599213610092795,1.689305772993068e+18,0.5060679524739583,3.1033830642700195,9.294818242390951,-0.31817215681076044,1.6893057729887347e+18,0.5017347412109375,-0.10061459615826603,-0.43857579429944354,-1.0141635636488597,1.6893057729844132e+18,0.4974131673177083,-0.09977465681731697,-0.43513967593510944,-0.9815586308638254,,,,,,,,,,,,1.6893057729845048e+18,0.4975048828125,-19.563919448852538,-44.048099517822266,-14.697339630126953,1.6893057729845048e+18,0.4975048828125,-287.85411376953124,48.84269981384277,-157.4983367919922,1.6893057729844132e+18,0.4974131673177083,-0.49044211208820343,-0.3409857600927353,0.48013536135355633,0.6421453456083933,0.10820992166797312,-1.2577518423398335,1.3834702968597412,1.6893057729844132e+18,0.4974131673177083,2.614358146985372,9.316654364267984,-0.3039881810545921
0.6000000000000001,1.689305773088216e+18,0.6012161458333334,-0.48480157057444256,-0.005221684773763017,-0.1832400908072789,1.6893057730882196e+18,0.601219775390625,3.7683366775512694,8.788478660583497,-0.4609772801399231,1.6893057730882196e+18,0.601219775390625,4.2783520221710205,8.813393020629883,-0.2948442280292511,1.6893057730925468e+18,0.6055469563802084,0.028405233286321135,-0.09570222184993325,-1.5791120926539104,1.689305773088216e+18,0.6012161458333334,0.02247475087642667,-0.09050986574341852,-1.566360314687093,,,,,,,,,,,,1.689305773085005e+18,0.5980049072265625,-25.024639701843263,-41.05421905517578,-14.79371976852417,1.689305773085005e+18,0.5980049072265625,-293.31483154296876,51.83657875061035,-157.59471588134767,1.689305773088216e+18,0.6012161458333334,-0.5204355219999949,-0.31243733565012616,0.42962832748889923,0.6680862506230673,0.06943933852016922,-1.1193119486172993,1.3675800959269206,1.689305773088216e+18,0.6012161458333334,3.7944184939066568,8.804091612497965,-0.4732803826530774
0.7000000000000001,1.6893057731920228e+18,0.7050226643880207,0.3373739719390869,-0.047098159790039056,0.0050544242064158,1.689305773183373e+18,0.6963728027343751,5.678567012151082,8.14915649096171,-0.16669997697075203,1.689305773183373e+18,0.6963728027343751,5.360475937525432,8.209431012471518,-0.22330215821663538,1.6893057731877015e+18,0.70070146484375,0.2145358756184578,0.3696651130914688,-0.7871609434485436,1.6893057731920228e+18,0.7050226643880207,0.2030363343656063,0.3707442929347356,-0.6853144466876984,,,,,,,,,,,,1.6893057731855048e+18,0.698504931640625,-30.757419204711915,-37.20267906188965,-15.065779781341552,1.6893057731855048e+18,0.698504931640625,-299.0476104736328,55.68811874389648,-157.8667770385742,1.6893057731920228e+18,0.7050226643880207,-0.53452996412913,-0.2775006095568339,0.3846401671568553,0.6993974049886068,0.042091263458132695,-0.9878442386786143,1.327873210112254,1.6893057731920228e+18,0.7050226643880207,5.745266914367676,8.132107416788736,-0.22113669166962302
0.8,1.6893057732871816e+18,0.8001815917968751,1.2690980911254883,-0.3158620834350586,-0.1317734837532043,1.6893057732871775e+18,0.800177490234375,6.448357899983724,8.01286522547404,-0.36171502619981766,1.6893057732871775e+18,0.800177490234375,5.203447500864665,8.30217186609904,-0.3151575773954391,1.6893057732828547e+18,0.7958544514973959,0.0769181167706847,0.2722422716518243,1.0613528837760289,1.6893057732871816e+18,0.8001815917968751,0.0595899041742086,0.23762658238410944,1.1065518796443938,1.689305773311e+18,0.824,0.0,0.0,0.9506596922874452,21.415000915527344,0.0,0.0,40.900001525878906,-122.7531546,49.1904195,1.689305773286005e+18,0.79900498046875,-31.469900131225586,-37.08189926147461,-14.555819702148437,1.689305773286005e+18,0.79900498046875,-299.7600952148438,55.80889892578125,-157.35681762695313,1.6893057732871816e+18,0.8001815917968751,-0.5205268740653992,-0.272293347120285,0.39922039508819573,0.7037853598594666,0.06077575460076327,-1.0076629161834716,1.307235884666443,1.6893057732871816e+18,0.8001815917968751,6.507879447937012,7.96714220046997,-0.44781675934791565
0.9,1.6893057733823316e+18,0.895331787109375,0.8236067891120911,-0.5514987309773763,-0.11117523411909735,1.689305773390985e+18,0.9039849039713541,3.429712434609731,8.795517444610596,-0.5572285801172256,1.689305773390985e+18,0.9039849039713541,2.7485223412513733,9.348384539286295,-0.5282420565684637,1.6893057733866596e+18,0.8996596272786458,-0.303370952916642,0.238364706436793,3.3529884417851767,1.6893057733823316e+18,0.895331787109375,-0.28361963853240013,0.24650958180427548,3.3552791674931846,,,,,,,,,,,,1.689305773386505e+18,0.8995050048828125,-20.750979709625245,-43.57473945617676,-13.53589973449707,1.689305773386505e+18,0.8995050048828125,-289.0411743164062,49.31605949401855,-156.33690032958984,1.6893057733823316e+18,0.895331787109375,-0.48057978351910907,-0.3239753892024358,0.4901486833890279,0.6489606698354086,0.19567499558130896,-1.252181887626648,1.425585389137268,1.6893057733823316e+18,0.895331787109375,3.8415770133336387,8.713962237040201,-0.6067799379428228
1.0,1.6893057734861386e+18,0.9991385498046874,-0.4354649931192398,-0.10289255777994788,0.17283683021863303,1.689305773486139e+18,0.9991389648437499,-0.039601221680641174,9.631111145019531,-0.7404589772224426,1.689305773486139e+18,0.9991389648437499,0.3847390800714493,9.747199630737304,-0.9567420005798339,1.6893057734904655e+18,1.0034653727213543,-0.45858163634936017,0.10117455571889873,1.68438454469045,1.6893057734861386e+18,0.9991385498046874,-0.46334128578503925,0.10244719373683131,1.759215533733368,,,,,,,,,,,,1.689305773487005e+18,1.000005029296875,-7.78847975730896,-48.49987945556641,-11.503379726409912,1.689305773487005e+18,1.000005029296875,-276.07867736816405,44.390919876098636,-154.30437774658202,1.6893057734861386e+18,0.9991385498046874,-0.44185952842235565,-0.36938198904196423,0.5860879023869833,0.5693643490473429,1.2085805932680767,-1.454620401064555,2.432846466700236,1.6893057734861386e+18,0.9991385498046874,-0.03220340050756929,9.639386336008707,-0.7818547884623209
1.1,1.689305773589946e+18,1.102946044921875,-1.2784317632516224,0.0982365608215332,0.1180659929911295,1.6893057735812956e+18,1.0942955322265624,-1.7030915021896362,9.776275952657064,-1.0038887858390808,1.6893057735812956e+18,1.0942955322265624,-0.4716851661602656,9.723820527394613,-1.2054187059402466,1.6893057735856223e+18,1.098622119140625,-0.028099802695214737,0.2713463455438614,0.07883216738700867,1.689305773589946e+18,1.102946044921875,-0.003894267603754988,0.22311853244900703,-0.0002036119500796,,,,,,,,,,,,1.689305773587505e+18,1.1005050537109375,-3.4184399366378786,-49.44903831481933,-10.025959682464599,1.689305773587505e+18,1.1005050537109375,-271.70863037109376,43.44175910949707,-152.82695922851562,1.689305773589946e+18,1.102946044921875,-0.4255480070908864,-0.3739420870939891,0.620575338602066,0.5421516795953115,1.9551878372828166,-1.4377434849739075,-1.0288938283920288,1.689305773589946e+18,1.102946044921875,-1.7522440751393635,9.821938832600912,-1.0858429670333862
1.2000000000000002,1.689305773685097e+18,1.198096826171875,-1.1934465885162353,0.0668525695800781,-0.28586543798446656,1.6893057736850962e+18,1.1980961914062498,-0.7931210094441971,9.811570008595785,-1.1187442739804585,1.6893057736850962e+18,1.1980961914062498,0.3830816646416982,9.745093504587809,-0.9290839831034342,1.689305773680774e+18,1.1937736409505209,0.48884491125742596,0.11975504209597904,-1.5726980169614155,1.689305773685097e+18,1.198096826171875,0.5109887838363647,0.17599027566611763,-1.6269785165786743,,,,,,,,,,,,1.689305773688005e+18,1.2010048583984374,-8.00197982788086,-48.673119354248044,-11.094679737091065,1.689305773688005e+18,1.2010048583984374,-276.29216918945315,44.21767959594727,-153.8956771850586,1.689305773685097e+18,1.198096826171875,-0.43003278970718384,-0.36043784618377683,0.5935594081878662,0.5765148401260376,1.2273571848869325,-1.4610380411148072,2.415643095970154,1.689305773685097e+18,1.198096826171875,-0.833180844783783,9.816674423217773,-1.2189038753509522
1.3,1.6893057737802537e+18,1.2932537841796876,-1.2945252259572346,-0.5736516316731771,-0.16192794591188428,1.6893057737889065e+18,1.3019064534505207,1.8529420346021652,8.613064606984457,-0.3234298638999462,1.6893057737889065e+18,1.3019064534505207,3.0909079909324646,9.242360273996988,-0.25685932611425716,1.6893057737845821e+18,1.2975822347005208,0.6203845540682474,-0.29845857868591946,-3.5497888724009194,1.6893057737802537e+18,1.2932537841796876,0.6392959256966909,-0.2623411677777767,-3.4866915941238403,,,,,,,,,,,,1.6893057737885048e+18,1.3015048828125,-20.621659564971925,-43.37099914550781,-14.231299686431885,1.6893057737885048e+18,1.3015048828125,-288.91185607910154,49.519799041748044,-157.03229675292968,1.6893057737802537e+18,1.2932537841796876,-0.45456639925638836,-0.3221120585997899,0.5023370136817297,0.6590313414732615,0.15888825904888407,-1.2769406239191692,1.3378201723098755,1.6893057737802537e+18,1.2932537841796876,1.5065809513131778,8.762217362721762,-0.47766722304125625
1.4000000000000001,1.689305773884061e+18,1.3970609130859375,0.9164369901021322,-0.5237455368041992,0.5003197739521662,1.6893057738927135e+18,1.4057135823567706,6.966204643249512,7.2888368765513105,0.6982057094573975,1.6893057738927135e+18,1.4057135823567706,5.8917849858601885,7.827507734298706,0.11639175494201477,1.689305773888388e+18,1.4013881429036459,-0.15215635175506273,-0.19932023792838058,-1.902488887310028,1.689305773884061e+18,1.3970609130859375,-0.13362677146991092,-0.24936027328173319,-2.095904136697451,,,,,,,,,,,,1.689305773889005e+18,1.4020049072265626,-33.792779731750485,-34.16975898742676,-16.670079898834228,1.689305773889005e+18,1.4020049072265626,-302.0829742431641,58.721038818359375,-159.47107391357423,1.689305773884061e+18,1.3970609130859375,-0.508255253235499,-0.26435387382904685,0.3684320896863937,0.7314935723940531,-0.0213400821667164,-0.9416154225667318,1.2034507195154827,1.689305773884061e+18,1.3970609130859375,6.689933220545451,7.383552710215251,0.6232306013504664
1.5,1.6893057739878653e+18,1.5008651936848958,1.630583683649699,-0.20891340573628736,-0.16780909647544226,1.6893057739878633e+18,1.50086337890625,7.30803918838501,7.847979640960693,-0.3369094282388687,1.6893057739878633e+18,1.50086337890625,5.645380592346191,8.01304359436035,-0.2024579212069511,1.6893057739921938e+18,1.5051937255859376,-0.39876773953437805,-0.08381580437223117,1.3649783929189045,1.6893057739878653e+18,1.5008651936848958,-0.3940589850147565,-0.03558289756377537,1.3358095685640972,,,,,,,,,,,,1.689305773989505e+18,1.502504931640625,-33.657358741760255,-34.699239349365236,-15.278059673309325,1.689305773989505e+18,1.502504931640625,-301.9475524902344,58.19155921936035,-158.0790588378906,1.6893057739878653e+18,1.5008651936848958,-0.515019436677297,-0.2585537135601043,0.3817590922117233,0.722286065419515,0.035697987147917304,-0.9581205248832703,1.2580094734827676,1.6893057739878653e+18,1.5008651936848958,7.275776068369548,7.801200071970622,-0.36311083287000656
1.6,1.6893057740916705e+18,1.604670613606771,0.8411065737406412,-0.5007925033569336,-0.2697243690490722,1.6893057740830188e+18,1.5960187988281251,5.221238732337952,8.33180856704712,-0.6098706821600596,1.6893057740830188e+18,1.5960187988281251,4.234419306119283,8.81100050608317,-0.3855326175689697,1.6893057740873434e+18,1.600343359375,-0.3278208374977112,0.05934556275606155,2.451432776451111,1.6893057740916705e+18,1.604670613606771,-0.3269656250874201,0.15314901123444244,2.503427584966024,,,,,,,,,,,,1.689305774090005e+18,1.60300498046875,-25.821299362182618,-41.02249946594238,-14.45455961227417,1.689305774090005e+18,1.60300498046875,-294.1114898681641,51.868299102783205,-157.25555725097655,1.6893057740916705e+18,1.604670613606771,-0.5062180111805598,-0.30643299718697864,0.4470277428627014,0.6696573893229166,0.11067937500774855,-1.143785874048869,1.3688989480336506,1.6893057740916705e+18,1.604670613606771,4.88066033522288,8.395716826121012,-0.6823532581329346
1.7000000000000002,1.689305774186825e+18,1.699824951171875,-0.4176300287246704,-0.3310821533203125,0.003910720348358121,1.6893057741868237e+18,1.6998236490885417,1.0310074612498283,9.279067039489746,-0.8099704682826996,1.6893057741868237e+18,1.6998236490885417,1.4477232992649078,9.629814465840658,-0.8660437564055125,1.6893057741825024e+18,1.6955024007161459,-0.35493815938631695,0.8541932304700216,2.7734554608662925,1.689305774186825e+18,1.699824951171875,-0.36004397273063654,0.8485834479331971,2.750726270675659,,,,,,,,,,,,1.689305774190505e+18,1.7035050048828126,-13.291899490356446,-47.093218612670896,-11.85961980819702,1.689305774190505e+18,1.7035050048828126,-281.58209228515625,45.79757881164551,-154.6606185913086,1.689305774186825e+18,1.699824951171875,-0.4538464367389679,-0.3437314689159393,0.5558739900588989,0.6046983480453492,0.6281487822532654,-1.3940533638000487,1.8323920249938965,1.689305774186825e+18,1.699824951171875,1.012762168701738,9.31166934967041,-0.8628518581390381
1.8,1.689305774281983e+18,1.794982950846354,-1.1352199216683705,0.027139504750569646,0.2086151838302612,1.6893057742906307e+18,1.8036306966145832,-1.566301832596461,9.754441261291504,-0.900199810663859,1.6893057742906307e+18,1.8036306966145832,-0.4008403392508626,9.728747367858887,-1.1722006797790527,1.689305774286308e+18,1.799307820638021,-0.09506590664386749,0.46962810556093854,0.8912269398570061,1.689305774281983e+18,1.794982950846354,-0.12224940730569266,0.4897103061278661,0.9908488793298602,,,,,,,,,,,,1.689305774291005e+18,1.804005029296875,-4.865359878540039,-49.36363906860352,-9.93933982849121,1.689305774291005e+18,1.804005029296875,-273.1555541992187,43.52715950012207,-152.7403366088867,1.689305774281983e+18,1.794982950846354,-0.41359754900137585,-0.35649556914965314,0.6248194177945455,0.5578580101331075,1.8433095216751099,-1.443242351214091,0.9032686154047648,1.689305774281983e+18,1.794982950846354,-1.4655041595300038,9.757332642873129,-0.9591230849424998
1.9000000000000001,1.6893057743857859e+18,1.8987857666015626,-1.487359881401062,-0.028194586435953805,0.08069514234860738,1.6893057743857856e+18,1.898785693359375,-1.5907484769821167,9.747402381896972,-0.7959724545478821,1.6893057743857856e+18,1.898785693359375,-0.11281073838472366,9.754670333862304,-0.9690659999847412,1.6893057743901123e+18,1.9031122639973959,0.40530909101168316,0.31273755182822544,-1.4747814387083054,1.6893057743857859e+18,1.8987857666015626,0.38871391862630844,0.32589660833279294,-1.3706798056761424,,,,,,,,,,,,1.689305774391505e+18,1.9045050537109376,-6.993039846420288,-48.841478729248045,-10.54445972442627,1.689305774391505e+18,1.9045050537109376,-275.2832397460937,44.04931907653808,-153.34545440673827,1.6893057743857859e+18,1.8987857666015626,-0.40100768705209094,-0.345811386903127,0.6205027997493744,0.5779499709606171,1.6227780679861705,-1.4629878004391987,1.6901237964630127,1.6893057743857859e+18,1.8987857666015626,-1.5673985282580059,9.723733266194662,-0.8841479619344076
2.0,1.6893057744896182e+18,2.0026180013020833,-1.1648478507995605,-0.6026067733764648,-0.055063833793004335,1.6893057744809556e+18,1.9939556070963542,1.01435740540425,8.88614559173584,-0.5409773141145706,1.6893057744809556e+18,1.9939556070963542,2.2653281589349112,9.474518775939941,-0.5084870407978693,1.689305774488663e+18,2.001663126627604,0.41085778176784515,-0.2980767854799827,-3.5460981925328574,1.689305774487221e+18,2.000220947265625,0.40971241022149724,-0.2834923807531595,-3.5107443730036416,,,,,,,,,,,,1.6893057744869796e+18,1.9999794379340277,-18.987266328599716,-44.931243896484375,-12.464333110385471,1.6893057744869796e+18,1.9999794379340277,-287.27746242947046,47.95955446031358,-155.2653283013238,1.6893057744896182e+18,2.0026180013020833,-0.42800642053286236,-0.30220076938470203,0.5267380128304163,0.6671340962251028,0.24016463259855905,-1.3004132310549419,1.3380685647328694,1.6893057744896182e+18,2.0026180013020833,1.387039529470106,8.797810713450113,-0.5221338334182898
2.1,1.6893057745933955e+18,2.1063953450520834,0.964983860651652,-0.5081090927124023,0.2067340326805909,1.6893057745847488e+18,2.097748494466146,6.144369721412659,7.678069273630778,0.036091740825213485,1.6893057745847488e+18,2.097748494466146,5.324830929438273,8.206791400909424,-0.23358097175757084,1.6893057745890755e+18,2.10207568359375,-0.10812315096457793,-0.22586742571244642,-2.301409363746643,1.6893057745890755e+18,2.10207568359375,-0.10903944633901114,-0.221235031572481,-2.2990422348181405,,,,,,,,,,,,1.689305774582175e+18,2.0951748779296873,-32.023779487609865,-36.35965919494629,-14.194699573516846,1.689305774582175e+18,2.0951748779296873,-300.31397705078126,56.53113861083985,-156.99569854736328,1.6893057745933955e+18,2.1063953450520834,-0.48145030935605365,-0.2448617095748583,0.40076667070388794,0.7393702665964762,0.04270029813051218,-0.9776959419250488,1.1771503289540608,1.6893057745933955e+18,2.1063953450520834,6.444968064626058,7.602396329243978,-0.026919254955525187
2.2,1.6893057746885542e+18,2.201554150390625,2.009965991973877,-0.11140956878662109,-0.3426396906375885,1.6893057746885517e+18,2.2015515543619792,7.963712612787883,7.68415109316508,-0.4942175780888647,1.6893057746885517e+18,2.2015515543619792,5.909216245015462,7.822687307993571,-0.29098255932331085,1.6893057746928806e+18,2.2058806559244792,0.045967608806677156,-0.003537930237750212,0.6678538794318835,1.6893057746928806e+18,2.2058806559244792,0.04505131246211628,0.0011708270758390427,0.6701955373088518,,,,,,,,,,,,1.6893057746821727e+18,2.1951726318359377,-36.17177886962891,-32.91071968078613,-14.134919738769531,1.6893057746821727e+18,2.1951726318359377,-304.46197814941405,59.980078887939456,-156.9359161376953,1.6893057746885542e+18,2.201554150390625,-0.48822069764137266,-0.22858767509460445,0.3823797047138214,0.7504062414169311,0.050173921883106175,-0.9225330591201782,1.1785309791564942,1.6893057746885542e+18,2.201554150390625,7.936753463745117,7.698548030853272,-0.6410371899604798
2.3000000000000003,1.6893057747837074e+18,2.296707316080729,1.55208154519399,-0.7895944913228353,-0.34556518495082855,1.689305774792356e+18,2.305356241861979,5.568198005358378,7.9555370807647705,-0.5500500996907552,1.689305774792356e+18,2.305356241861979,4.134236812591553,8.8393767674764,-0.2527503371238708,1.6893057747880356e+18,2.301035595703125,-0.5674327254295349,-0.9100059628486633,3.221733808517456,1.6893057747880356e+18,2.301035595703125,-0.56837956905365,-0.9053022980690002,3.2240856647491456,,,,,,,,,,,,1.6893057747821742e+18,2.295174169921875,-28.628520011901855,-38.5666389465332,-14.654639720916748,1.6893057747821742e+18,2.295174169921875,-296.91871643066406,54.3241584777832,-157.45563659667968,1.6893057747837074e+18,2.296707316080729,-0.47989335159460705,-0.285460186501344,0.44073911011219025,0.7009940644105276,0.0589349046349525,-1.1063920259475708,1.2396618326505024,1.6893057747837074e+18,2.296707316080729,5.931807319323222,7.935198148091634,-0.5854439387718836
2.4000000000000004,1.6893057748875128e+18,2.4005128580729167,-0.4377652108669281,-0.7223784128824869,-0.0014632344245911026,1.6893057748875146e+18,2.40051474609375,0.5509474277496338,8.97188835144043,-0.6131608068943024,1.6893057748875146e+18,2.40051474609375,1.0600146263837815,9.69785041809082,-0.70372154712677,1.6893057748831875e+18,2.396187337239583,-0.7501934369405111,-0.23701571758526063,3.1868584950764975,1.6893057748831875e+18,2.396187337239583,-0.7511606415112814,-0.23233241009681174,3.1891747315724692,,,,,,,,,,,,1.6893057748821732e+18,2.39517314453125,-11.902319812774659,-46.76259880065918,-13.11621971130371,1.6893057748821732e+18,2.39517314453125,-280.19251403808596,46.12819900512695,-155.9172164916992,1.6893057748875128e+18,2.4005128580729167,-0.45797329644362134,-0.3711400479078293,0.5535819927851359,0.5864104827245077,0.7762263889114062,-1.420349379380544,2.033835013707479,1.6893057748875128e+18,2.4005128580729167,0.6487540602684022,8.95882781346639,-0.7085746030012766
2.5,1.689305774991321e+18,2.504321004231771,-1.717428743839264,-0.08440144856770833,0.31159069140752155,1.689305774982668e+18,2.495668050130208,-2.553640286127726,9.544570922851562,-0.9737791021664938,1.689305774982668e+18,2.495668050130208,-0.9225793033838272,9.662202994028727,-1.359218716621399,1.689305774986996e+18,2.4999959716796876,-0.5544620181123415,0.2548835203051567,1.2687416474024455,1.689305774986996e+18,2.4999959716796876,-0.5553783203164736,0.2594904725750287,1.2710578441619873,,,,,,,,,,,,1.6893057749821722e+18,2.495172216796875,-0.13420001938939094,-49.53809928894043,-9.802699851989747,1.6893057749821722e+18,2.495172216796875,-268.4243957519531,43.352699279785156,-152.60369720458985,1.689305774991321e+18,2.504321004231771,-0.4361458569765091,-0.39918598035971325,0.6272911330064138,0.5065035223960876,2.187676727771759,-1.3906257549921672,-2.825579206148783,1.689305774991321e+18,2.504321004231771,-2.7439693212509155,9.563613573710123,-1.0869396825631459
2.6,1.6893057750864732e+18,2.59947314453125,-1.720988130569458,0.12864704132080076,-0.06605086326599122,1.6893057750864745e+18,2.599474568684896,-2.867199738820394,9.70419184366862,-1.4944174488385518,1.6893057750864745e+18,2.599474568684896,-1.133360594511032,9.629101753234863,-1.4649824698766072,1.6893057750907986e+18,2.6037987060546874,0.21685716261466345,0.2789872512221336,-1.0144435626765091,1.6893057750907986e+18,2.6037987060546874,0.21594086103141308,0.2836960057417552,-1.0121273286640644,,,,,,,,,,,,1.689305775082174e+18,2.595174169921875,1.0345599800348282,-50.00657920837402,-8.779119873046875,1.689305775082174e+18,2.595174169921875,-267.25563659667966,42.884219360351565,-151.58011627197266,1.6893057750864732e+18,2.59947314453125,-0.4252075433731079,-0.3874534249305725,0.640225887298584,0.5089393436908722,2.238049602508545,-1.3767369508743286,-2.8140775203704833,1.6893057750864732e+18,2.59947314453125,-2.8855048179626466,9.75410213470459,-1.5393028020858766
2.7,1.6893057751816287e+18,2.694628702799479,-1.2836122314135234,-0.4354103406270345,-0.24893044432004294,1.6893057751902843e+18,2.703284220377604,-0.11774681508541111,9.145567576090494,-1.1987044314543407,1.6893057751902843e+18,2.703284220377604,1.0825177530447643,9.646417299906412,-1.0305227140585582,1.6893057751859574e+18,2.698957275390625,0.5464189529418946,0.08353582192212342,-3.1982460975646974,1.6893057751859574e+18,2.698957275390625,0.5455026686191559,0.08823948428034782,-3.1959553718566895,,,,,,,,,,,,1.6893057751821747e+18,2.69517490234375,-8.810839819908143,-48.37543907165527,-10.399279594421387,1.6893057751821747e+18,2.69517490234375,-277.1010375976563,44.515359497070314,-153.20027770996094,1.6893057751816287e+18,2.694628702799479,-0.44705402354399365,-0.35066519180933636,0.5789647797743479,0.5828001399834951,1.0646234055360158,-1.4093955755233765,2.268018881479899,1.6893057751816287e+18,2.694628702799479,-0.47268217802047724,9.23689349492391,-1.3221341967582703
2.8000000000000003,1.6893057752854344e+18,2.798434407552083,-0.25204235315322876,-0.8821702798207601,0.11478443940480554,1.689305775285436e+18,2.798435986328125,4.119842433929444,7.715536975860596,-0.5236692361533641,1.689305775285436e+18,2.798435986328125,4.44538140296936,8.668249893188477,-0.6720474243164063,1.689305775281112e+18,2.7941121012369794,0.2032399562497933,-0.07345654442906377,-3.8479674657185874,1.689305775281112e+18,2.7941121012369794,0.20232365978881714,-0.06879869972666101,-3.8456512689590454,,,,,,,,,,,,1.6893057752821747e+18,2.7951746826171875,-27.696439361572267,-40.172158813476564,-12.600159835815429,1.6893057752821747e+18,2.7951746826171875,-295.98663330078125,52.71863899230957,-155.40115509033203,1.6893057752854344e+18,2.798434407552083,-0.4955092519521713,-0.2705954263607661,0.44713562230269116,0.6914111177126566,0.16440698256095249,-1.0954094330469768,1.3489473859469097,1.6893057752854344e+18,2.798434407552083,4.164707700411479,7.779166142145793,-0.5641079439471165
2.9000000000000004,1.6893057753892365e+18,2.902236694335938,1.776120901107788,-0.39691392580668133,-0.16577226420243582,1.6893057753805896e+18,2.893589558919271,7.95992374420166,7.129315296808879,-0.8009973888595899,1.6893057753805896e+18,2.893589558919271,6.239473263422648,7.5286242961883545,-0.7575897971789042,1.6893057753849178e+18,2.897917683919271,0.09829839536299308,0.39354992906252534,-0.8212319916735092,1.6893057753849178e+18,2.897917683919271,0.09733119669059913,0.3982841471831004,-0.8188903033733368,,,,,,,,,,,,1.689305775382173e+18,2.895172998046875,-37.423499298095706,-32.38001899719238,-12.226839828491212,1.689305775382173e+18,2.895172998046875,-305.71369018554685,60.51077880859375,-155.02783813476563,1.6893057753892365e+18,2.902236694335938,-0.5173113147417704,-0.20575594902038566,0.3712824285030365,0.743025024731954,0.12198872243364646,-0.8706097602844238,1.273147185643514,1.6893057753892365e+18,2.902236694335938,8.059724648793539,7.095117886861165,-0.9360921531915665
3.0,1.6893057754930445e+18,3.006044555664063,2.5816067854563394,-0.5800392627716064,-0.39224739869435626,1.6893057754843983e+18,2.9973983968098956,8.617551326751709,7.216354211171468,-0.9762716492017111,1.6893057754843983e+18,2.9973983968098956,5.948957363764445,7.754372199376424,-0.6700534125169119,1.6893057754887196e+18,3.0017196858723962,0.04848742772204182,-0.4322635270655155,1.686064451932907,1.6893057754887196e+18,3.0017196858723962,0.047545678137491144,-0.4275802181412776,1.6883806337912877,,,,,,,,,,,,1.6893057754821775e+18,2.9951775390625004,-36.548759078979494,-33.177899551391604,-12.384219741821289,1.6893057754821775e+18,2.9951775390625004,-304.8389556884766,59.712898635864256,-155.18521728515626,1.6893057754930445e+18,3.006044555664063,-0.506051371494929,-0.224459707736969,0.3903937339782715,0.7349441250165304,0.1097862186531225,-0.9303209185600281,1.261163870493571,1.6893057754930445e+18,3.006044555664063,8.408578157424927,7.263213634490967,-1.0367901126543682
3.1,1.6893057755882022e+18,3.101202294921875,0.811779522895813,-0.9586874961853027,-0.4025591492652893,1.6893057755882025e+18,3.10120263671875,4.080161313215892,8.211369514465332,-0.7843473354975382,1.6893057755882025e+18,3.10120263671875,3.2807074586550393,9.162576039632162,-0.43881649772326153,1.6893057755925266e+18,3.1055264892578123,-0.1370883388444781,-0.3513493270923694,3.877874414126078,1.6893057755925266e+18,3.1055264892578123,-0.138030090679725,-0.34671693481504917,3.88019061088562,,,,,,,,,,,,1.6893057755821716e+18,3.0951716064453123,-24.226759338378905,-41.54953880310059,-14.040979766845703,1.6893057755821716e+18,3.0951716064453123,-292.51695861816404,51.34125862121582,-156.84197692871095,1.6893057755882022e+18,3.101202294921875,-0.4777888238430023,-0.31510046124458313,0.4814626336097717,0.6619074463844299,0.14132166653871533,-1.224702286720276,1.353870153427124,1.6893057755882022e+18,3.101202294921875,4.105844259262085,8.220661830902099,-0.8297112584114075
3.2,1.689305775683355e+18,3.1963550211588543,-0.8716362516085306,-0.9272928237915039,0.20574804147084555,1.6893057756920077e+18,3.2050078125,-1.2057832175244887,8.835697015126547,-0.4598207473754883,1.6893057756920077e+18,3.2050078125,-0.27745987971623737,9.732072671254477,-0.8012879292170206,1.6893057756876838e+18,3.200683935546875,-0.6344141006469727,-0.07816020436584951,3.130195713043213,1.6893057756876838e+18,3.200683935546875,-0.6353609323501587,-0.07345654517412184,3.1325780391693114,1.689305775637155e+18,3.150155029296875,0.0,0.554973304271698,0.9738572239875792,15.201000213623049,0.6968829035758972,189.61477661132807,40.900001525878906,-122.7531712,49.1903554,1.6893057756821737e+18,3.195173681640625,-6.567259985208511,-48.23025894165039,-13.022279644012452,1.6893057756821737e+18,3.195173681640625,-274.8574523925781,44.66053810119629,-155.82327575683593,1.689305775683355e+18,3.1963550211588543,-0.43033147354920703,-0.38787082334359485,0.5917708873748779,0.5585015217463175,1.5121724903583527,-1.4540386199951172,-0.3928654591242473,1.689305775683355e+18,3.1963550211588543,-0.8921240543325742,8.809974352518717,-0.542971337834994
3.3000000000000003,1.6893057757871598e+18,3.3001597086588546,-1.8918551405270894,-0.022632439931233733,0.5115158061186472,1.6893057757871642e+18,3.3001641601562497,-4.113022756576538,9.45272617340088,-0.7161718308925629,1.6893057757871642e+18,3.3001641601562497,-2.2064857006073,9.464981651306152,-1.3135266542434691,1.689305775782839e+18,3.295838826497396,-0.44196100284655887,0.41515930493672687,1.0828859116882086,1.689305775782839e+18,3.295838826497396,-0.4428773025671641,0.4198425884048144,1.085202091683944,,,,,,,,,,,,1.6893057757821711e+18,3.2951712402343754,5.3899598836898805,-49.56249885559082,-9.788059902191161,1.6893057757821711e+18,3.2951712402343754,-262.9002349853516,43.32829895019531,-152.58905944824218,1.6893057757871598e+18,3.3001597086588546,-0.39522418876489,-0.4087688028812408,0.6664375066757202,0.48197903235753375,2.6014633973439536,-1.3083839615186055,-2.460173964500427,1.6893057757871598e+18,3.3001597086588546,-4.0641095240910845,9.450153827667236,-0.7892326762278875
3.4000000000000004,1.6893057758909658e+18,3.4039657389322913,-1.818010409673055,0.048160076141357394,-0.17634692788124082,1.6893057758823186e+18,3.3953184407552084,-3.8327036698659263,9.597611586252848,-1.2782658139864604,1.6893057758823186e+18,3.3953184407552084,-2.009273946285248,9.517837206522623,-1.2116543650627136,1.6893057758866435e+18,3.399643636067708,0.3071379580845435,0.46102509399255115,-1.291140044728915,1.6893057758866435e+18,3.399643636067708,0.3062216565012932,0.4657338559627533,-1.2888238628705342,,,,,,,,,,,,1.6893057758821724e+18,3.3951723876953124,4.321239942312241,-49.57835922241211,-9.774639797210693,1.6893057758821724e+18,3.3951723876953124,-263.9689544677734,43.3124397277832,-152.5756362915039,1.6893057758909658e+18,3.4039657389322913,-0.38539329667886096,-0.39137756327788037,0.6664375066757202,0.5035851846138636,2.5810166597366333,-1.3394018014272053,-2.5299706856409707,1.6893057758909658e+18,3.4039657389322913,-3.7183467547098794,9.590134143829346,-1.3524432977040608
3.5,1.6893057759861256e+18,3.49912568359375,-1.279742217063904,-0.6918464660644531,-0.4817499279975891,1.6893057759861207e+18,3.4991208089192707,-0.7664011592666308,9.008877595265707,-1.0309077501296997,1.6893057759861207e+18,3.4991208089192707,0.4709126489857833,9.71716578801473,-0.6244644820690155,1.689305775990446e+18,3.503446044921875,0.6722317437330881,0.09117163966099423,-3.6832120418548584,1.689305775990446e+18,3.503446044921875,0.6712900002797445,0.09588038560468702,-3.6809213161468506,,,,,,,,,,,,1.6893057759821722e+18,3.495172265625,-8.937719643115997,-47.948439025878905,-12.304919528961182,1.6893057759821722e+18,3.495172265625,-277.22791748046876,44.942359161376956,-155.10591735839844,1.6893057759861256e+18,3.49912568359375,-0.4055355489253998,-0.3509943962097168,0.5947245836257935,0.5970343708992004,1.1821356177330018,-1.4561190128326416,1.0567257165908814,1.6893057759861256e+18,3.49912568359375,-0.8358129501342774,9.045228385925293,-1.1065608263015747
3.6,1.689305776081279e+18,3.594279012044271,0.5618650913238527,-0.9424622058868408,0.23383348435163498,1.6893057760899274e+18,3.602927449544271,4.8677988449732466,7.9810605843861895,0.20827526723345116,1.6893057760899274e+18,3.602927449544271,4.105445623397827,8.87039057413737,-0.13759551569819448,1.6893057760856056e+18,3.5986055175781253,0.17373007610440253,-0.10781771689653397,-3.0852970838546754,1.6893057760856056e+18,3.5986055175781253,0.17278323695063585,-0.1031751349568367,-3.0829758405685426,,,,,,,,,,,,1.6893057760821724e+18,3.595172265625,-25.906699180603027,-40.247799682617185,-14.700999641418457,1.6893057760821724e+18,3.595172265625,-294.1968933105469,52.642999267578126,-157.5019973754883,1.689305776081279e+18,3.594279012044271,-0.4524795015652974,-0.2898535629113515,0.4661944856246312,0.7012340128421783,0.04522797713677084,-1.1632133722305298,1.1780033111572266,1.689305776081279e+18,3.594279012044271,4.441078782081604,8.02004361152649,0.08235298089372615
3.7,1.6893057761850785e+18,3.6980783284505208,1.576885461807251,-0.1381982167561849,0.003694444894790687,1.689305776193735e+18,3.706734944661458,6.7488564650217695,8.213064670562744,-0.1381855038926005,1.689305776193735e+18,3.706734944661458,5.130136171976726,8.358912309010824,-0.20239236454168952,1.6893057761807588e+18,3.693758748372396,0.06363179689894115,0.2931644134223461,-0.2110539451241493,1.6893057761807588e+18,3.693758748372396,0.06271549748877682,0.297873160491387,-0.20873775581518808,,,,,,,,,,,,1.689305776182173e+18,3.6951728759765627,-32.78993911743164,-35.941199111938474,-14.326459503173828,1.689305776182173e+18,3.6951728759765627,-301.08013610839845,56.94959907531738,-157.12745666503906,1.6893057761850785e+18,3.6980783284505208,-0.4651872565348943,-0.2509503290057182,0.4193873753150304,0.7380436062812805,0.03780995123088355,-1.0208622813224792,1.1459622184435527,1.6893057761850785e+18,3.6980783284505208,6.710471709569295,8.21874745686849,-0.19172491187540194
3.8000000000000003,1.689305776288888e+18,3.8018883463541666,1.6376922130584717,-0.548950990041097,-0.3108590915799141,1.689305776288891e+18,3.8018910156250003,5.74708137512207,8.337311935424804,-0.4890929415822029,1.689305776288891e+18,3.8018910156250003,4.099960041046143,8.889805221557618,-0.21966651082038874,1.6893057762845642e+18,3.7975641276041667,-0.05151630208517111,-0.22551108151674268,2.220698813597361,1.6893057762845642e+18,3.7975641276041667,-0.0524326016505559,-0.2208786935855945,2.223015010356903,,,,,,,,,,,,1.6893057762821711e+18,3.7951712646484372,-29.175079154968262,-38.62641906738281,-14.226419925689697,1.6893057762821711e+18,3.7951712646484372,-297.46527099609375,54.26437873840332,-157.0274169921875,1.689305776288888e+18,3.8018883463541666,-0.4495916813611984,-0.2781425416469574,0.4632354627052943,0.7103413939476013,0.05327043744424975,-1.141878366470337,1.1633355220158894,1.689305776288888e+18,3.8018883463541666,5.712365627288818,8.34387238820394,-0.5251248702406883
3.9000000000000004,1.689305776392696e+18,3.905696248372396,0.2886041800181071,-0.6418013572692871,-0.12693512936433152,1.689305776384045e+18,3.897044921875,1.6823537397819261,9.005188624064127,-0.314955286681652,1.689305776384045e+18,3.897044921875,1.2153301512201626,9.671919027964273,-0.21998385836680726,1.6893057763883704e+18,3.901370402018229,-0.29247718925277394,-0.21459186946352318,3.5826228857040405,1.6893057763883704e+18,3.901370402018229,-0.29339348648985225,-0.20988311680654684,3.5849645137786865,,,,,,,,,,,,1.689305776382175e+18,3.895175024414063,-15.03405957221985,-45.338859176635744,-14.755899715423585,1.689305776382175e+18,3.895175024414063,-283.3242553710937,47.55193862915039,-157.55689544677733,1.689305776392696e+18,3.905696248372396,-0.4075533350308736,-0.3574106693267822,0.5696713427702585,0.6153863767782847,0.8145552203059196,-1.449068546295166,0.9137616157531738,1.689305776392696e+18,3.905696248372396,1.2057832380135853,9.064510663350424,-0.3707878142595291
4.0,1.6893057764878508e+18,4.000850830078125,-1.4001893162727357,-0.2566383361816406,0.36591489911079406,1.689305776487848e+18,4.0008477783203125,-2.9498518109321594,9.361918608347574,-0.3823531170686086,1.689305776487848e+18,4.0008477783203125,-1.5754249195257823,9.635540326436361,-0.7946743418773016,1.6893057764921774e+18,4.005177571614584,-0.6283258100350698,-0.13472124189138412,1.6297375708818436,1.6893057764921774e+18,4.005177571614584,-0.6292675534884135,-0.1300633947054545,1.632053792476654,,,,,,,,,,,,1.6893057764821722e+18,3.9951722167968753,0.27084002494812015,-49.01837921142578,-12.36591968536377,1.6893057764821722e+18,3.9951722167968753,-268.01935424804685,43.872419357299805,-155.1669174194336,1.6893057764878508e+18,4.000850830078125,-0.3799683153629303,-0.39640429019927975,0.6521666646003723,0.5221625328063965,2.6779887199401857,-1.3851288318634034,-2.4368807315826415,1.6893057764878508e+18,4.000850830078125,-3.0100512742996215,9.376754188537598,-0.43645085096359254
4.1000000000000005,1.6893057765830062e+18,4.096006266276041,-1.8500556548436482,0.022379398345947255,0.24651946624120072,1.6893057765916562e+18,4.104656168619791,-3.7707893451054892,9.58165947596232,-0.8211369713147482,1.6893057765916562e+18,4.104656168619791,-1.958531419436137,9.54950221379598,-1.07664293050766,1.6893057765873308e+18,4.100330712890625,-0.07476990371942523,0.4896084785461426,-0.641072528064251,1.6893057765873308e+18,4.100330712890625,-0.07568620219826698,0.49428161382675173,-0.6387206956744194,1.6893057766186621e+18,4.131662109375,0.0,0.6375502347946167,0.9834197163581848,11.70300006866455,1.105487585067749,196.15359497070312,40.900001525878906,-122.7531783,49.1903416,1.6893057765821722e+18,4.095172045898438,3.7636999249458314,-49.58689918518066,-10.2540997505188,1.6893057765821722e+18,4.095172045898438,-264.52649841308596,43.3038990020752,-153.0550979614258,1.6893057765830062e+18,4.096006266276041,-0.3738298366467158,-0.38768434524536133,0.6728913386662801,0.5069717317819595,2.6491058667500815,-1.3346059521039326,-2.4877593914667764,1.6893057765830062e+18,4.096006266276041,-3.8624146382013955,9.560722351074219,-0.8350951075553894
4.2,1.68930577668681e+18,4.199810180664063,-1.5792813102404277,-0.37207571665445965,-0.3997240165869395,1.6893057766868124e+18,4.1998123046875,-1.9743179261684418,9.357372093200684,-1.1724830985069274,1.6893057766868124e+18,4.1998123046875,-0.36889610737562173,9.74401626586914,-0.7904088616371154,1.689305776682486e+18,4.195486206054688,0.37720928837855655,0.5830199675013622,-2.7847564816474915,1.689305776682486e+18,4.195486206054688,0.37629298865795135,0.5877287282298008,-2.7824657559394836,,,,,,,,,,,,1.689305776682176e+18,4.195176147460938,-5.508299911022187,-48.79267921447754,-10.912899780273438,1.689305776682176e+18,4.195176147460938,-273.7984954833984,44.09811973571777,-153.71389465332032,1.68930577668681e+18,4.199810180664063,-0.3765735477209091,-0.3408314834038417,0.6327895919481913,0.5826632479826609,1.7796998023986816,-1.4507800539334614,-0.2954541643460592,1.68930577668681e+18,4.199810180664063,-1.9124634849528472,9.361121018727621,-1.1878370543320973
4.3,1.6893057767906158e+18,4.3036158040364585,-0.07879360516866052,-0.9113872845967611,0.01668975502252578,1.6893057767819666e+18,4.294966756184896,2.7344977458318076,8.353941917419434,-0.31415767470995587,1.6893057767819666e+18,4.294966756184896,2.940790275732676,9.291511376698812,-0.3751891329884529,1.6893057767862904e+18,4.299290242513021,0.3511966069539388,-0.10191268598039943,-3.5604281028111777,1.6893057767862904e+18,4.299290242513021,0.3502294098337491,-0.0972039320816596,-3.5581119457880654,,,,,,,,,,,,1.6893057767821724e+18,4.2951724609375,-22.82497959136963,-43.008658981323244,-12.857579803466797,1.6893057767821724e+18,4.2951724609375,-291.11517639160155,49.88213882446289,-155.65857543945313,1.6893057767906158e+18,4.3036158040364585,-0.41711017986138654,-0.2777618865172068,0.5073483685652415,0.6991374790668488,0.12931900347272549,-1.2326647440592449,1.1744192043940227,1.6893057767906158e+18,4.3036158040364585,3.143072267373403,8.292426745096842,-0.3277170062065124
4.4,1.6893057768857728e+18,4.398772607421875,1.5951838493347168,-0.347305965423584,-0.03081742227077482,1.6893057768857702e+18,4.398770385742187,6.849753936131795,7.87358291943868,-0.09830512851476668,1.6893057768857702e+18,4.398770385742187,5.249618609746297,8.27659797668457,-0.16226915766795472,1.689305776890099e+18,4.403099202473958,0.14851661150654152,0.07455101076629941,-1.286914885044098,1.689305776890099e+18,4.403099202473958,0.14757486432790753,0.07925976696424183,-1.2845732346177101,,,,,,,,,,,,1.6893057768821724e+18,4.3951724609375,-33.787899017333984,-35.11769905090332,-13.950699710845948,1.6893057768821724e+18,4.3951724609375,-302.0780944824219,57.77309913635254,-156.75169830322267,1.6893057768857728e+18,4.398772607421875,-0.43946295976638794,-0.2330922454595566,0.42066784501075744,0.7584933757781982,0.03037429638206956,-1.003281044960022,1.0670464277267455,1.6893057768857728e+18,4.398772607421875,6.872425937652588,7.914619636535645,-0.19202401824295517
4.5,1.6893057769809277e+18,4.4939278157552085,2.5655043919881186,-0.5310346285502116,-0.07656164218982059,1.6893057769895764e+18,4.502576538085937,7.730212926864624,7.7830544312795,-0.16919249730805552,1.6893057769895764e+18,4.502576538085937,5.17276660601298,8.321909586588541,-0.13777405023574824,1.6893057769852524e+18,4.498252246093751,-0.2927571654319763,-0.38713585436344145,1.3153761386871339,1.6893057769852524e+18,4.498252246093751,-0.29373455122113223,-0.38243218660354616,1.3176974177360534,,,,,,,,,,,,1.6893057769821745e+18,4.495174487304688,-35.040839767456056,-34.517459106445315,-14.275219631195068,1.6893057769821745e+18,4.495174487304688,-303.33103332519534,58.373338317871095,-157.0762161254883,1.6893057769809277e+18,4.4939278157552085,-0.4436900466680527,-0.2369971374670664,0.418406864007314,0.7559544344743093,0.02498108303795255,-1.0033193031946819,1.0755033294359844,1.6893057769809277e+18,4.4939278157552085,7.841977755228679,7.729116280873616,-0.20857437668989098
4.6000000000000005,1.6893057770847311e+18,4.5977309163411455,1.1226691404978435,-0.7254228591918945,-0.4288211017847061,1.6893057770933832e+18,4.606383260091146,3.7749768098195395,8.624231338500977,-0.5842475245396296,1.6893057770933832e+18,4.606383260091146,2.78694216410319,9.358347256978353,-0.23607432842254636,1.6893057770804111e+18,4.593411214192709,-0.4323144207398097,-1.0213157832622528,3.117678085962931,1.6893057770804111e+18,4.593411214192709,-0.4332816203435262,-1.0166324724753697,3.1199942429860434,,,,,,,,,,,,1.689305777082174e+18,4.5951740234375,-23.58381938934326,-41.991179656982425,-14.382579708099366,1.689305777082174e+18,4.5951740234375,-291.8740173339844,50.89961891174316,-157.1835739135742,1.6893057770847311e+18,4.5977309163411455,-0.4407607913017273,-0.3087446987628936,0.49869074920813244,0.677669495344162,0.08178235031664367,-1.2543357014656067,1.2160802483558655,1.6893057770847311e+18,4.5977309163411455,4.163710792859395,8.554640134175619,-0.6538387835025787
4.7,1.6893057771885373e+18,4.701537312825521,-0.9579015175501505,-0.8651577631632487,0.15898552288611725,1.6893057771885391e+18,4.701539208984375,-1.1466405987739563,8.832027816772461,-0.3964907109737396,1.6893057771885391e+18,4.701539208984375,-0.15947036445140844,9.761070060729981,-0.6026724994182586,1.6893057771842102e+18,4.697210123697917,-0.6415357788403829,0.14833844701449073,3.0978248914082847,1.6893057771842102e+18,4.697210123697917,-0.6424775322278341,0.1529962917168935,3.100115656852722,,,,,,,,,,,,1.6893057771821775e+18,4.6951774414062495,-6.636799930036068,-47.90939903259277,-13.5127197265625,1.6893057771821775e+18,4.6951774414062495,-274.92699279785154,44.98139915466309,-156.3137191772461,1.6893057771885373e+18,4.701537312825521,-0.4109041939179103,-0.38099178671836853,0.6015579303105673,0.5674360891183218,1.5983402381340663,-1.4649981657663982,-0.3524407347043355,1.6893057771885373e+18,4.701537312825521,-1.1061819940805435,8.882656256357828,-0.4465605169534683
4.800000000000001,1.6893057772923446e+18,4.805344807942709,-2.052704910437266,-0.15446599324544266,0.3190208971500396,1.6893057772836925e+18,4.796692545572917,-4.214558243751526,9.271390279134115,-0.7762715419133505,1.6893057772836925e+18,4.796692545572917,-2.205390373865763,9.478514035542807,-1.177782674630483,1.6893057772880212e+18,4.801021240234375,-0.5470043768485388,0.48831040412187576,1.1192323714494705,1.6893057772880212e+18,4.801021240234375,-0.5479461203018824,0.49296825875838596,1.12154858186841,,,,,,,,,,,,1.6893057772821745e+18,4.795174267578124,4.696999895572662,-49.42829895019531,-10.228479671478272,1.6893057772821745e+18,4.795174267578124,-263.59319458007815,43.46249923706055,-153.02947540283202,1.6893057772923446e+18,4.805344807942709,-0.3746154507001241,-0.39277424414952594,0.6804914176464081,0.49192137519518536,2.656835675239563,-1.3020306428273518,-2.467265804608663,1.6893057772923446e+18,4.805344807942709,-4.348456700642903,9.300602595011393,-0.8900303145249685
4.9,1.6893057773875e+18,4.9005,-1.7177468061447143,0.0260894775390625,0.05175027847290038,1.6893057773874982e+18,4.900498168945313,-3.945465366045634,9.472387154897055,-1.1176475683848064,1.6893057773874982e+18,4.900498168945313,-2.2018807927767434,9.476047197977701,-1.2113342483838399,1.6893057773918267e+18,4.904826619466146,0.1774054504930973,0.29639691114425654,-1.2264137864112854,1.6893057773918267e+18,4.904826619466146,0.1764891482889652,0.3011311093966166,-1.2240466525157292,,,,,,,,,,,,1.6893057773821722e+18,4.895172314453125,4.710419833660126,-49.69059829711914,-9.41473970413208,1.6893057773821722e+18,4.895172314453125,-263.57977600097655,43.20019874572754,-152.21573638916016,1.6893057773875e+18,4.9005,-0.3651993751525878,-0.37651119828224183,0.6872802972793579,0.5022700548171997,2.6414229393005373,-1.3077366828918457,-2.5266759395599365,1.6893057773875e+18,4.9005,-3.948396635055542,9.496634674072265,-1.164945697784424
5.0,1.6893057774826547e+18,4.995654825846354,-1.1392285823822021,-0.5720163981119791,-0.13000972072283426,1.6893057774913052e+18,5.0043052978515625,-0.9074779550234476,9.085547606150309,-0.8636095623175303,1.6893057774913052e+18,5.0043052978515625,0.10738539944092433,9.728319644927979,-0.8083121677239736,1.6893057774869837e+18,4.9999834960937495,0.5222897887229919,-0.11285735405981538,-3.1740863800048826,1.6893057774869837e+18,4.9999834960937495,0.5213734865188598,-0.10818423479795454,-3.171795654296875,,,,,,,,,,,,1.6893057774821737e+18,4.995173681640625,-5.909679877758026,-48.70727958679199,-10.98121976852417,1.6893057774821737e+18,4.995173681640625,-274.1998748779297,44.18351936340332,-153.78221893310547,1.6893057774826547e+18,4.995654825846354,-0.3901057988405227,-0.3441509852806727,0.6238265037536621,0.5813237826029459,1.6270890732606251,-1.4448830286661785,-0.42009532451629633,1.6893057774826547e+18,4.995654825846354,-1.3003993804256122,9.154640356699625,-0.9810572961966196
5.1000000000000005,1.6893057775864614e+18,5.099461181640625,0.12428424755732219,-0.7098762194315592,-0.0026187077164649825,1.6893057775864591e+18,5.0994592285156255,3.3013774156570435,8.546324920654296,-0.32901312112808223,1.6893057775864591e+18,5.0994592285156255,3.164349985122681,9.247526168823242,-0.3893017351627349,1.6893057775821325e+18,5.095132731119792,0.2875393604238828,-0.17570011814435318,-3.1417053937911987,1.6893057775821325e+18,5.095132731119792,0.28662306070327753,-0.1709913598994414,-3.139363725980123,,,,,,,,,,,,1.6893057775821732e+18,5.0951732177734375,-21.989279556274415,-43.15017890930176,-13.224799633026123,1.6893057775821732e+18,5.0951732177734375,-290.27947387695315,49.7406192779541,-156.02579498291016,1.6893057775864614e+18,5.099461181640625,-0.4343501130739848,-0.2903926074504852,0.5045394798119863,0.6858317951361338,0.14306700726350144,-1.2409128546714783,1.236884335676829,1.6893057775864614e+18,5.099461181640625,3.2673992911974588,8.531310160954794,-0.39511483659346897
5.2,1.6893057776902666e+18,5.203266560872396,1.789102554321289,-0.43787328402201336,0.031618148088455166,1.689305777681617e+18,5.1946166992187495,6.6923262278238935,7.96829891204834,-0.14735799391443527,1.689305777681617e+18,5.1946166992187495,4.967615524927775,8.449567794799805,-0.267292708158493,1.6893057776859405e+18,5.198940633138021,0.08834638524179654,0.20601430659492803,-0.9820676868160566,1.6893057776859405e+18,5.198940633138021,0.08740463325132923,0.21067214788248143,-0.9797769325474898,1.6893057776806853e+18,5.193685302734375,0.0,0.4836753308773041,0.9946020841598512,9.689000129699709,1.511180400848389,113.66437530517578,40.900001525878906,-122.7531362,49.1903396,1.6893057776821745e+18,5.195174560546875,-32.26289958953858,-36.842779541015624,-14.027559852600097,1.6893057776821745e+18,5.195174560546875,-300.5530944824219,56.04801864624024,-156.82855682373048,1.6893057776902666e+18,5.203266560872396,-0.45768045882383984,-0.24642428755760193,0.42788998285929364,0.739291379849116,0.053432641550898496,-1.0321001013120015,1.1390215754508972,1.6893057776902666e+18,5.203266560872396,6.821339130401611,7.975377559661865,-0.2387837593754132
5.300000000000001,1.6893057777854182e+18,5.298418359375001,1.7173825263977052,-0.24378681182861328,-0.2277065515518188,1.6893057777854198e+18,5.298419962565104,6.634499549865723,8.22343365351359,-0.45762733121713,1.6893057777854198e+18,5.298419962565104,4.919750531514485,8.477819442749023,-0.3025493770837783,1.6893057777897485e+18,5.302748413085937,0.017867808230221268,-0.05775221623480318,0.9354892323414484,1.6893057777897485e+18,5.302748413085937,0.016926058257619534,-0.053094371454790214,0.9377799679835638,,,,,,,,,,,,1.6893057777821752e+18,5.295175146484375,-32.09819927215576,-36.590239715576175,-13.330939865112304,1.6893057777821752e+18,5.295175146484375,-300.3883972167969,56.30055923461914,-156.1319381713867,1.6893057777854182e+18,5.298418359375001,-0.4536354899406433,-0.2454278737306595,0.43376910090446474,0.7387255668640137,0.061395898461341816,-1.0424392223358154,1.1366617202758789,1.6893057777854182e+18,5.298418359375001,6.660541534423828,8.221738529205322,-0.5327619671821594
5.4,1.6893057778805737e+18,5.393573567708334,1.0301742951075237,-0.5656574567159017,-0.3611598163843155,1.6893057778892275e+18,5.402227498372397,4.082255085309346,8.659026940663656,-0.655633399883906,1.6893057778892275e+18,5.402227498372397,3.1302257776260376,9.25354528427124,-0.340406874815623,1.689305777893554e+18,5.406553833007813,-0.2525673266500234,-0.3744349454840024,2.8391743898391724,1.689305777893554e+18,5.406553833007813,-0.25348362295577914,-0.3697516421477,2.8414905865987143,,,,,,,,,,,,1.6893057778821727e+18,5.3951726806640625,-24.469539451599122,-41.61175880432129,-13.627399921417236,1.6893057778821727e+18,5.3951726806640625,-292.7597320556641,51.279039001464845,-156.42839965820312,1.6893057778805737e+18,5.393573567708334,-0.43906668821970624,-0.29037755727767944,0.4941553920507431,0.6906263629595438,0.10712122855087114,-1.2199044823646545,1.2107454935709636,1.6893057778805737e+18,5.393573567708334,4.381657044092814,8.613264083862305,-0.6912266512711843
5.5,1.689305777984379e+18,5.497378702799479,-0.37076300382614136,-0.4814925193786621,0.013494049509366316,1.6893057779930304e+18,5.506030395507813,-0.30598217745622,9.252048015594482,-0.43748774627844494,1.6893057779930304e+18,5.506030395507813,0.18614446620146433,9.760663668314615,-0.5612021336952845,1.6893057779887089e+18,5.50170869140625,-0.3714976996183395,0.21572705842554568,2.7639514446258544,1.6893057779887089e+18,5.50170869140625,-0.37241400182247164,0.22046126499772067,2.7662422180175783,,,,,,,,,,,,1.6893057779821742e+18,5.495174194335937,-10.26141996383667,-47.27743911743164,-13.066199779510498,1.6893057779821742e+18,5.495174194335937,-278.55161437988284,45.613359451293945,-155.86719512939453,1.689305777984379e+18,5.497378702799479,-0.4012078096469243,-0.3530936191479365,0.5947896043459574,0.5990398128827413,1.1707104295492172,-1.4700309038162231,0.20331339041392008,1.689305777984379e+18,5.497378702799479,0.04336988925933838,9.271091143290201,-0.5178467035293579
5.6000000000000005,1.689305778088189e+18,5.601188761393229,-1.2815339962641399,-0.357144832611084,0.4252399057149887,1.6893057780881876e+18,5.601187646484375,-2.9973692893981934,9.285587501525878,-0.3531806230545044,1.6893057780881876e+18,5.601187646484375,-1.7105878829956054,9.614435958862305,-0.8654483675956726,1.6893057780838592e+18,5.596859171549479,-0.3490840345621109,0.32625294166306656,1.4817300140857697,1.6893057780838592e+18,5.596859171549479,-0.350000336766243,0.33091079692045844,1.4840971132119496,,,,,,,,,,,,1.6893057780821714e+18,5.5951713378906245,0.3293999969959259,-49.225779342651364,-11.280119800567627,1.6893057780821714e+18,5.5951713378906245,-267.96079406738284,43.66501922607422,-154.08111724853515,1.689305778088189e+18,5.601188761393229,-0.36187442640463513,-0.37266474465529126,0.6691075364748637,0.5310150782267252,2.656826456387838,-1.3741868138313293,-2.5279074907302856,1.689305778088189e+18,5.601188761393229,-2.975774049758911,9.256833871205647,-0.44197427729765576
5.7,1.689305778191994e+18,5.704994099934896,-1.2317415873209636,0.09893004099527991,0.17532946666081742,1.6893057781833377e+18,5.69633768717448,-3.5983067750930786,9.516554832458496,-0.8223333954811096,1.6893057781833377e+18,5.69633768717448,-2.358454426129659,9.460652669270834,-1.0788883169492085,1.6893057781876705e+18,5.700670491536459,-0.056352319583917676,-0.10443250408085682,-0.05505422502756119,1.6893057781876705e+18,5.700670491536459,-0.05726861604489386,-0.09974920594443874,-0.05273803820212684,,,,,,,,,,,,1.6893057781821742e+18,5.695174243164063,4.687239956855774,-49.47099914550781,-9.801479721069336,1.6893057781821742e+18,5.695174243164063,-263.6029510498047,43.41979904174805,-152.60247650146485,1.689305778191994e+18,5.704994099934896,-0.3532361437877019,-0.37508097290992737,0.6923916041851044,0.5050806204477946,2.710900863011678,-1.3032841483751934,-2.479414145151774,1.689305778191994e+18,5.704994099934896,-3.579563021659851,9.561320622762045,-0.9076773921648661
5.800000000000001,1.6893057782871475e+18,5.800147314453125,-1.2276048898696899,0.03717231750488281,-0.07236125469207762,1.689305778287148e+18,5.800147989908854,-2.545664211114248,9.657232761383057,-0.8853443761666616,1.689305778287148e+18,5.800147989908854,-1.358281061053276,9.656144460042318,-0.8836039503415426,1.6893057782914775e+18,5.8044774576822915,0.43529238800207776,0.01987857420075063,-2.06228107213974,1.6893057782914775e+18,5.8044774576822915,0.4343506395816803,0.02451096622583765,-2.059990326563517,1.689305778337e+18,5.85,0.0,0.4836753308773041,0.9465794563293456,11.659000396728516,1.511959195137024,113.13184356689452,40.5,-122.7531235,49.1903363,1.6893057782821745e+18,5.79517451171875,0.3318400144577027,-49.42219886779785,-10.801879787445069,1.6893057782821745e+18,5.79517451171875,-267.95835571289064,43.46859931945801,-153.6028793334961,1.6893057782871475e+18,5.800147314453125,-0.36673596501350403,-0.36454893946647643,0.6619782447814941,0.5419779300689698,2.5429049491882325,-1.3997633457183838,-2.6485852241516117,1.6893057782871475e+18,5.800147314453125,-2.619542646408081,9.694042587280274,-0.9611968636512757
