seconds_elapsed_rounded,accelerometer_time,accelerometer_seconds_elapsed,accelerometer_z,accelerometer_y,accelerometer_x,accelerometeruncalibrated_time,accelerometeruncalibrated_seconds_elapsed,accelerometeruncalibrated_z,accelerometeruncalibrated_y,accelerometeruncalibrated_x,gravity_time,gravity_seconds_elapsed,gravity_z,gravity_y,gravity_x,gyroscope_time,gyroscope_seconds_elapsed,gyroscope_z,gyroscope_y,gyroscope_x,gyroscopeuncalibrated_time,gyroscopeuncalibrated_seconds_elapsed,gyroscopeuncalibrated_z,gyroscopeuncalibrated_y,gyroscopeuncalibrated_x,location_time,location_seconds_elapsed,location_altitude,location_speedAccuracy,location_bearingAccuracy,location_latitude,location_altitudeAboveMeanSeaLevel,location_bearing,location_horizontalAccuracy,location_verticalAccuracy,location_longitude,location_speed,magnetometer_time,magnetometer_seconds_elapsed,magnetometer_z,magnetometer_y,magnetometer_x,magnetometeruncalibrated_time,magnetometeruncalibrated_seconds_elapsed,magnetometeruncalibrated_z,magnetometeruncalibrated_y,magnetometeruncalibrated_x,orientation_time,orientation_seconds_elapsed,orientation_yaw,orientation_qx,orientation_qz,orientation_roll,orientation_qw,orientation_qy,orientation_pitch
0.0,1.6907667451054126e+18,15.002412548828124,-1.8947122740411757,36.09636276494026,-1.9023308738991616,1.6907667450991498e+18,14.996149609375,-0.4412994384765625,4.61710205078125,-0.687542724609375,1.6907667451054126e+18,15.002412548828124,-1.987515820779502,8.333585747502445,-4.629230878583789,1.6907667451054126e+18,15.002412548828124,-1.3401529312133789,5.331186319887638,6.024727630615234,1.6907667450991498e+18,14.996149609375,-1.673852813243866,8.253004837036134,5.17039647102356,,,,,,,,,,,,,1.6907667451054126e+18,15.002412548828124,-16.00350685119629,35.24139251708984,-36.355630493164064,1.6907667451067868e+18,15.003786914062498,20.532839965820312,56.746490478515625,93.9095703125,1.6907667451054126e+18,15.002412548828124,1.2156534208511884,-0.0564373480358246,0.6391966117998266,-1.182729221928109,0.4366978680740979,-0.6269371160806728,-1.0179883709490485
0.05,1.6907667451555215e+18,15.05252158203125,34.686101297836295,2.6843232548832896,17.240645102645754,1.6907667451492585e+18,15.046258642578124,3.2609161376953124,1.074554443359375,1.1729217529296876,1.6907667451555215e+18,15.05252158203125,-2.896968957350403,7.420494985081552,-5.647681244003176,1.6907667451555215e+18,15.05252158203125,-1.412129308283329,-6.425201244652271,-2.3915852069854737,1.6907667451492585e+18,15.046258642578124,-1.3022203505039216,-5.967111921310424,-0.3148874282836914,,,,,,,,,,,,,1.6907667451555215e+18,15.05252158203125,-20.22352714538574,28.50120391845703,-40.250901794433595,1.6907667451535834e+18,15.050583312988282,19.868831634521484,50.24534225463867,88.97293090820312,1.6907667451555215e+18,15.05252158203125,1.465544452922818,0.0521416413476786,0.6800593632881589,-1.098335364828886,0.4295157180628626,-0.5899472987985781,-0.8583042181726668
0.1,1.6907667452056305e+18,15.102630566406251,-8.26275981465101,-3.713028823048473,12.48287470410168,1.6907667451993677e+18,15.096367578125,-0.6767242431640625,0.3465484619140625,0.55430908203125,1.6907667452056305e+18,15.102630566406251,1.1885824318362026,6.974080537263154,-6.720868927973508,1.6907667452056305e+18,15.102630566406251,-2.2948625802993776,-2.4683265000581742,-5.87821683883667,1.6907667451993677e+18,15.096367578125,-2.4636348724365233,-3.8393470525741575,-6.649200201034546,,,,,,,,,,,,,1.6907667452056305e+18,15.102630566406251,0.1180065155029296,26.087945556640623,-46.03024444580078,1.690766745200377e+18,15.0973771484375,40.351828002929686,48.375927734375,84.20374145507813,1.6907667452056305e+18,15.102630566406251,0.9777211702662936,0.1089864812918393,0.5386071949799279,-1.7398599688780263,0.3842852240661281,-0.7400967044895663,-0.7922682543596075
0.15,1.6907667452557394e+18,15.15273935546875,-8.75785944137454,-4.214444910216331,15.910296779499053,1.6907667452494766e+18,15.146476464843747,-0.722601318359375,0.239892578125,0.9351043701171876,1.6907667452557394e+18,15.15273935546875,1.9575781293466687,6.588984423047303,-6.989411494290232,1.6907667452557394e+18,15.15273935546875,2.004796232841909,0.844780445098877,-1.5828702211380006,1.6907667452494766e+18,15.146476464843747,1.4159794330596924,1.591424810886383,-1.7809141159057618,,,,,,,,,,,,,1.6907667452557394e+18,15.15273935546875,4.715996551513672,23.537427520751955,-47.50118865966797,1.6907667452523745e+18,15.149374365234376,43.159246826171874,46.309295654296875,83.14920959472656,1.6907667452557394e+18,15.15273935546875,0.7736189520704426,0.0788794325894503,0.4785607828294108,-1.84422930293722,0.4136544760884638,-0.7701778102645649,-0.7370205468110923
0.2,1.6907667453058483e+18,15.202848291015624,-4.699308564964235,-0.6195999835216999,10.364561764467355,1.6907667452995855e+18,15.196585546875,-0.215496826171875,0.689532470703125,0.4902862548828125,1.6907667453058483e+18,15.202848291015624,2.6397566464389857,7.653345592674613,-5.4811983623567215,1.6907667453058483e+18,15.202848291015624,5.044940996170044,-2.230128836631775,0.0743937164545059,1.6907667452995855e+18,15.196585546875,4.724401521682739,-2.406170606613159,-0.1108324557542801,,,,,,,,,,,,,1.6907667453058483e+18,15.202848291015624,8.31600112915039,31.15077209472656,-42.48863220214844,1.6907667453043707e+18,15.2013705078125,47.33158874511719,54.59654846191406,88.72886352539062,1.6907667453058483e+18,15.202848291015624,0.6249027193707658,0.0167654797117014,0.4980137095946398,-2.0253860724501584,0.3410733938594482,-0.7961395320260758,-0.8979679399022518
0.25,1.6907667453559575e+18,15.252957373046874,-4.067428302609921,6.072474344026446,8.751105174034832,1.6907667453496945e+18,15.246694482421876,-0.15755615234375,1.5326568603515625,0.6162567138671875,1.6907667453559575e+18,15.252957373046874,2.527417676721066,9.003035394437909,-2.815041200248152,1.6907667453559575e+18,15.252957373046874,6.203838348388672,-0.2788854368031025,1.7442419290542603,1.6907667453496945e+18,15.246694482421876,6.287178421020508,-0.4458661146461963,1.5768218636512756,,,,,,,,,,,,,1.6907667453559575e+18,15.252957373046874,9.084844207763672,42.57490692138672,-30.843255615234376,1.690766745356365e+18,15.253364892578125,47.45439453125,66.09908447265624,100.8000701904297,1.6907667453559575e+18,15.252957373046874,0.3483965612245411,-0.0819440116041583,0.5587023151550664,-2.322934836827041,0.2407253346089555,-0.7880653002515883,-1.171142719280691
0.3,1.690766745406066e+18,15.303065869140624,-5.561553171053826,16.908086283492445,1.790367203767039,1.690766745399803e+18,15.296802880859374,-0.3532012939453125,2.6363037109375,0.1744049072265625,1.690766745406066e+18,15.303065869140624,1.7810791436333957,9.613054128952625,-0.1249902920863218,1.690766745406066e+18,15.303065869140624,5.156565761566162,-1.9375607758760451,1.221536672115326,1.690766745399803e+18,15.296802880859374,5.198658466339111,-1.438236229866743,1.262840890884399,,,,,,,,,,,,,1.690766745406066e+18,15.303065869140624,6.084840393066406,49.68702011108398,-18.858767700195312,1.6907667454031631e+18,15.300163146972658,44.49147415161133,72.87334060668945,113.07306671142578,1.690766745406066e+18,15.303065869140624,-0.4278676987825071,-0.1721136465674739,0.620641378574249,-0.592644848514645,0.1510962326503475,-0.7488685914951109,-1.372903134402263
0.35,1.6907667454561746e+18,15.353174658203123,-9.434345971983372,35.408002198212145,-10.847957977011202,1.6907667454499118e+18,15.346911767578126,-1.1303192138671876,4.566506958007812,-0.82313232421875,1.6907667454561746e+18,15.353174658203123,-0.3168781883454042,9.375689141901134,2.4214155964875217,1.6907667454561746e+18,15.353174658203123,4.3553557872772215,-1.6614204883575436,7.521708953380584,1.6907667454499118e+18,15.346911767578126,4.644190311431885,-2.1752686500549316,7.208229994773864,,,,,,,,,,,,,1.6907667454561746e+18,15.353174658203123,0.0207244873046875,52.80521011352539,-6.092240905761718,1.6907667454499594e+18,15.346959423828125,37.37073669433594,75.55932006835937,125.59129028320312,1.6907667454561746e+18,15.353174658203123,-1.8864295012828376,-0.1988765693778906,0.7157228550231365,1.579692465562373,0.0270436456320043,-0.6640936831831068,-1.2839957704898548
0.4,1.6907667455062838e+18,15.40328369140625,36.23937165666222,5.458048197559118,-18.798052824311256,1.6907667455000207e+18,15.397020849609373,3.621160888671875,1.546209716796875,-1.5407073974609375,1.6907667455062838e+18,15.40328369140625,-2.0622925078572334,8.807383175382615,3.784164084883928,1.6907667455062838e+18,15.40328369140625,0.6406863337382674,-2.956104946136475,-0.6075569868087769,1.6907667455000207e+18,15.397020849609373,1.0886773854494094,-1.2644203662872315,-0.4556611016392707,,,,,,,,,,,,,1.6907667455062838e+18,15.40328369140625,-12.236175918579102,52.12421493530273,3.519775390625,1.690766745501958e+18,15.3989580078125,26.155999755859376,74.71341857910156,134.44957885742187,1.6907667455062838e+18,15.40328369140625,-2.417135967815325,-0.2438922584004915,0.7776168635973423,1.072070716945044,-0.0057291262564358,-0.5787667359565773,-1.1155215101295952
0.45,1.6907667455563927e+18,15.45339267578125,0.1548916664434969,-10.135287612508534,-12.65841633063793,1.6907667455501297e+18,15.44712958984375,-0.1720428466796875,-0.095721435546875,-0.9435943603515624,1.6907667455563927e+18,15.45339267578125,-1.8601617696636912,8.991817016522287,3.4364906402549145,1.6907667455563927e+18,15.45339267578125,-0.9013555884361268,0.5232158064842224,-1.222438967227936,1.6907667455501297e+18,15.44712958984375,-0.7522348940372467,-0.0043027162551879,-1.350912833213806,,,,,,,,,,,,,1.6907667455563927e+18,15.45339267578125,-9.796743774414065,52.81813125610351,2.1132843017578127,1.6907667455539525e+18,15.450952197265623,29.04186096191406,75.52904052734375,132.5244903564453,1.6907667455563927e+18,15.45339267578125,-2.302815917380141,-0.1995250252368074,0.7703841630093383,1.0760332288962784,-0.0356576179529022,-0.6043856400776263,-1.1606351497246756
0.5,1.6907667456065016e+18,15.503501611328124,-1.1053567292648554,-12.763118931032418,-11.105801337754723,1.6907667456002386e+18,15.497238623046874,-0.2506744384765625,-0.3453399658203125,-0.87445068359375,1.6907667456065016e+18,15.503501611328124,-1.3846726185303926,9.371433238022329,2.474853815138638,1.6907667456065016e+18,15.503501611328124,-3.916831874847412,-0.6647389113903046,-0.5561645030975342,1.6907667456002386e+18,15.497238623046874,-3.4048399686813355,-0.1984130769968032,-0.5868038952350616,,,,,,,,,,,,,1.6907667456065016e+18,15.503501611328124,-7.286238098144532,53.14032821655273,-3.1538009643554688,1.6907667456059512e+18,15.502951220703125,31.456744384765624,75.76425170898438,126.7019500732422,1.6907667456065016e+18,15.503501611328124,-2.3597694857438825,-0.1750068425674169,0.7551263010133127,1.0462281224802052,0.0093128367282111,-0.6310864867882213,-1.2760206912993204
0.55,1.6907667456566106e+18,15.553610693359374,-2.840897949816808,-5.698521321306824,-8.311201247928143,1.6907667456503475e+18,15.547347607421877,-0.3579376220703125,0.363037109375,-0.9059051513671876,1.6907667456566106e+18,15.553610693359374,-0.8161853899472484,9.694323363693952,-0.4769852787490934,1.6907667456566106e+18,15.553610693359374,-7.123977375030518,-3.0167605876922607,-2.909900975227356,1.6907667456503475e+18,15.547347607421877,-7.010621452331543,-3.49950110912323,-2.42231171131134,,,,,,,,,,,,,1.6907667456566106e+18,15.553610693359374,-2.28470458984375,50.24002456665039,-18.06259765625,1.690766745652745e+18,15.549745056152345,36.33293914794922,72.85687255859375,112.20223236083984,1.6907667456566106e+18,15.553610693359374,0.0306508298704422,-0.0329926527446873,0.7318652890751356,-0.4476802986179994,0.0726391099530604,-0.6739417703522095,-1.4228967379465245
0.6,1.6907667457067195e+18,15.603719384765624,-14.768857397079469,34.3207983807534,-6.180161571641863,1.6907667457004567e+18,15.597456591796874,-1.504193115234375,4.315838623046875,-0.96837158203125,1.6907667457067195e+18,15.603719384765624,-0.0347309572446159,9.16810893535614,-3.4049048309019208,1.6907667457067195e+18,15.603719384765624,-4.099643230438232,10.962057209014892,-0.986959019303322,1.6907667457004567e+18,15.597456591796874,-4.58664755821228,9.522817373275757,-2.224214220046997,,,,,,,,,,,,,1.6907667457067195e+18,15.603719384765624,0.44842529296875,43.420561981201175,-31.108798217773437,1.6907667456995456e+18,15.5965455078125,38.618475341796874,65.41228332519532,98.52185363769532,1.6907667457067195e+18,15.603719384765624,1.2165681600731022,0.0037567813661068,0.6604462913154657,-1.5761027263921477,0.2437182702515767,-0.7047022051456693,-1.2126102616092125
0.65,1.6907667457568284e+18,15.65382841796875,9.53835836893052,25.527046723455783,3.0842722456726426,1.6907667457505654e+18,15.6475654296875,0.32022705078125,3.5683349609375,-0.231817626953125,1.6907667457568284e+18,15.65382841796875,-3.1744204848226905,8.080421250677109,-4.47096339364469,1.6907667457568284e+18,15.65382841796875,-1.321634590625763,-1.531135129928589,5.472097587585449,1.6907667457505654e+18,15.6475654296875,-1.6415734350681306,0.9554743766784668,6.555380749702453,,,,,,,,,,,,,1.6907667457568284e+18,15.65382841796875,-18.769097900390623,34.50284118652344,-35.75989532470703,1.6907667457515405e+18,15.648540576171872,18.44261779785156,56.331460571289064,94.56116638183592,1.6907667457568284e+18,15.65382841796875,1.5159367460599005,-0.0215621731515077,0.6971979697661075,-0.962356267412001,0.4183215346385091,-0.5787945959079049,-0.9727717677816295
0.7,1.6907667458069376e+18,15.703937451171871,20.812540443229228,-4.910596452307701,15.343203462092877,1.6907667458006746e+18,15.6976744140625,2.3190673828125,0.3090545654296875,1.0512237548828125,1.6907667458069376e+18,15.703937451171871,-1.1348961640146746,7.878179365646242,-5.597246357273459,1.6907667458069376e+18,15.703937451171871,-0.3987770944833755,-6.435970830917358,-5.754598665237427,1.6907667458006746e+18,15.6976744140625,-0.3557654552161693,-7.049805498123169,-5.476642036437989,,,,,,,,,,,,,1.6907667458069376e+18,15.703937451171871,-8.996719360351562,30.997235107421876,-41.81457366943359,1.690766745803536e+18,15.700535839843749,31.361813354492188,53.71206970214844,88.37919616699219,1.6907667458069376e+18,15.703937451171871,1.3986692447561897,0.0949508470419081,0.6628580808656481,-1.3730522957834062,0.341645246539986,-0.6562886810784591,-0.9329638889098496
0.75,1.6907667458570465e+18,15.754046435546874,-9.94543233084202,-9.494714282158611,11.637286049258709,1.6907667458507832e+18,15.7477833984375,-0.861956787109375,-0.1781463623046875,0.577777099609375,1.6907667458570465e+18,15.754046435546874,1.4950677314780652,7.689695839950443,-5.89374555343449,1.6907667458570465e+18,15.754046435546874,-0.5300909973680973,0.8877194702625275,-2.627598762512207,1.6907667458507832e+18,15.7477833984375,-0.5525910586118699,0.2757050395011901,-3.2768608808517454,,,,,,,,,,,,,1.6907667458570465e+18,15.754046435546874,5.912358093261719,30.237610626220704,-43.49220428466797,1.6907667458555295e+18,15.7525296875,44.951663208007815,52.731015014648435,87.00863952636719,1.6907667458570465e+18,15.754046435546874,1.0030011087223962,0.1065646565009618,0.5670338353269183,-1.8186162474664147,0.31928567050147,-0.7515137413072164,-0.9014913584573168
0.8,1.6907667459071557e+18,15.804155224609374,-5.687558379456997,-6.990060079779029,10.57525817411065,1.6907667459008924e+18,15.797892431640625,-0.4456085205078125,0.07327880859375,0.497637939453125,1.6907667459071557e+18,15.804155224609374,1.4245027876503764,7.768774988075495,-5.805440194898248,1.6907667459071557e+18,15.804155224609374,1.8936882734298703,0.1974357903003692,0.2869362354278564,1.6907667459008924e+18,15.797892431640625,1.5788316965103149,0.6872013211250305,0.03477423787117,,,,,,,,,,,,,1.6907667459071557e+18,15.804155224609374,4.586296081542969,30.804290771484375,-43.23002014160157,1.6907667459023268e+18,15.79932684326172,42.96898651123047,53.180686950683594,87.14191818237305,1.6907667459071557e+18,15.804155224609374,0.9211317654836378,0.069621256505364,0.5573593153252758,-1.8115216447175393,0.3414363769722873,-0.7534477489708209,-0.9149559860523044
0.85,1.690766745957264e+18,15.854264160156248,-3.0418208758166427,-2.6206125900906323,9.473156296536326,1.690766745951001e+18,15.848001464843753,-0.18973388671875,0.5805755615234375,0.47357177734375,1.690766745957264e+18,15.854264160156248,1.1650357858408242,8.50954028030157,-4.7092935432404275,1.690766745957264e+18,15.854264160156248,3.2678524017333985,1.1426109552383423,0.793833875656128,1.690766745951001e+18,15.848001464843753,3.0921295642852784,0.6429082810878753,0.8099050521850586,,,,,,,,,,,,,1.690766745957264e+18,15.854264160156248,3.850028228759766,35.66262359619141,-39.38114929199219,1.6907667459491218e+18,15.84612177734375,42.397097778320315,58.30699768066406,91.23499755859376,1.690766745957264e+18,15.854264160156248,0.9254567135913154,0.026375846662846,0.5915831636203261,-1.8119649609952535,0.3007324982459747,-0.7471622274541979,-1.05259878967241
0.9,1.6907667460073733e+18,15.9043732421875,-2.13159678409934,7.100713931341171,11.883095740954875,1.6907667460011105e+18,15.898110400390625,-0.1719390869140625,1.6397064208984375,0.909405517578125,1.6907667460073733e+18,15.9043732421875,0.483787381898947,9.326232511005996,-2.9057672392861544,1.6907667460073733e+18,15.9043732421875,5.1874383926391605,2.4542937159538267,-0.0088372401893138,1.6907667460011105e+18,15.898110400390625,4.944983291625976,2.7623943567276,0.1939579710364341,1.6907667460005535e+18,15.8975537109375,53.49463007133454,1.1000000239045569,18.800269860283972,49.275579770187775,72.53320047538728,207.77341930108096,4.611763838695448,3.5434688271367447,-122.87207832989188,3.749999999999352,1.6907667460073733e+18,15.9043732421875,-1.062445068359375,42.449433135986325,-32.164268493652344,1.6907667460011151e+18,15.898115136718753,37.04391174316406,65.72747192382812,99.2131774902344,1.6907667460073733e+18,15.9043732421875,0.8776075874581452,-0.0838869402566712,0.6298156898210046,-1.7367735236803197,0.2801367020014827,-0.7183982584450043,-1.2647988585373768
0.95,1.6907667460574822e+18,15.954482275390626,-6.611749212563036,24.755549725261925,7.515040348598957,1.6907667460512192e+18,15.948219189453123,-0.570770263671875,3.4744659423828126,0.7870391845703125,1.6907667460574822e+18,15.954482275390626,0.7672331594303995,9.729093999015094,-0.0146948757401434,1.6907667460574822e+18,15.954482275390626,6.3597766876220705,-4.323623013496399,-0.917547619342804,1.6907667460512192e+18,15.948219189453123,6.378895092010498,-3.262497442960739,-1.144495750963688,,,,,,,,,,,,,1.6907667460574822e+18,15.954482275390626,-0.8814720153808594,49.9958381652832,-18.431112670898436,1.6907667460531085e+18,15.950108398437502,38.06799926757813,73.14644775390624,113.42383728027345,1.6907667460574822e+18,15.954482275390626,-0.4184615550436767,-0.1851510398987869,0.6545230630631779,-0.5350748046211247,0.1719042858297458,-0.710358737244263,-1.4481121215792547
1.0,1.6907667461075912e+18,16.004591210937498,9.084944213030932,34.59462081639528,-14.64379671759784,1.6907667461013284e+18,15.998328271484375,0.3262420654296875,4.477886962890625,-1.08746337890625,1.6907667461075912e+18,16.004591210937498,-1.575920158272907,9.089054804767963,2.88970329180941,1.6907667461075912e+18,16.004591210937498,4.08462164402008,-1.2359512329101563,7.364828872680664,1.6907667461013284e+18,15.998328271484375,4.683831977844238,-4.449751567840577,8.02806532382965,,,,,,,,,,,,,1.6907667461075912e+18,16.004591210937498,-6.333079147338867,52.513520050048825,-2.4849166870117188,1.6907667461051026e+18,16.0021025390625,30.930148315429687,75.08613586425781,129.31424255371093,1.6907667461075912e+18,16.004591210937498,-2.1662848995989035,-0.1755566584719826,0.7587286653578242,1.1914841329708636,-0.0258310972209757,-0.6197336356237433,-1.204756613059582
1.05,1.6907667461577e+18,16.054700048828124,24.16644541776895,3.2717702090102434,-20.199398929744955,1.690766746151437e+18,16.04843720703125,2.5764556884765626,1.278009033203125,-1.7246551513671875,1.6907667461577e+18,16.054700048828124,-2.7272365723887084,8.518864222772716,4.010585068594812,1.6907667461577e+18,16.054700048828124,-1.185540348291397,-1.4706953763961792,-0.7899519857019186,1.690766746151437e+18,16.04843720703125,-0.6077069044113159,-0.1356838822364807,-0.3526749968528747,,,,,,,,,,,,,1.6907667461577e+18,16.054700048828124,-16.020188522338866,50.912149810791014,5.165765380859375,1.6907667461570985e+18,16.054098388671875,22.56444091796875,73.55321960449218,135.7116241455078,1.6907667461577e+18,16.054700048828124,-2.498358040039357,-0.2428939941775834,0.7991741375186621,0.9727202362156152,-0.0188018560910346,-0.5491593246946124,-1.0531253713960091
1.1,1.690766746207809e+18,16.104809033203125,1.1192001949870585,-11.245999263709184,-11.33907958156228,1.690766746201546e+18,16.09854599609375,-0.0967498779296875,-0.202484130859375,-0.8829437255859375,1.690766746207809e+18,16.104809033203125,-2.0702069050174954,9.144189598203898,2.834246719073206,1.690766746207809e+18,16.104809033203125,-3.172558879852295,1.816038763523102,-1.6694044589996335,1.690766746201546e+18,16.09854599609375,-3.131862497329712,1.5147203087806702,-1.6885438442230225,,,,,,,,,,,,,1.690766746207809e+18,16.104809033203125,-12.341395950317382,52.1039421081543,-1.0465362548828123,1.6907667462038917e+18,16.100891723632813,26.319259643554688,74.77667999267578,129.36723709106445,1.690766746207809e+18,16.104809033203125,-2.5223145835548912,-0.2022495638914361,0.7774593501042174,0.9416382291025904,0.0209102399977265,-0.594445217690356,-1.2042781769782993
1.15,1.690766746257918e+18,16.154918017578126,-1.7790294299489262,-10.264986823897958,-8.350913548209071,1.690766746251655e+18,16.148654980468752,-0.2854522705078125,-0.079498291015625,-0.724774169921875,1.690766746257918e+18,16.154918017578126,-1.052532901571989,9.655094463015796,1.1127332580587246,1.690766746257918e+18,16.154918017578126,-5.047218322753906,-2.0242038547992705,-2.4344682693481445,1.690766746251655e+18,16.148654980468752,-4.572252511978149,-1.3036827340722084,-2.2354172229766847,,,,,,,,,,,,,1.690766746257918e+18,16.154918017578126,-8.151973342895507,52.09734115600586,-8.696090698242188,1.690766746250688e+18,16.147687988281252,30.896255493164062,74.669091796875,120.99222412109376,1.690766746257918e+18,16.154918017578126,-1.5561397427951948,-0.1554497753659267,0.7384321077188728,0.6787546311819865,0.0897049236305819,-0.6486568562908386,-1.4092005738532407
1.2,1.690766746303016e+18,16.20001580810547,-7.942773506049067,7.499751798634976,-11.0073567456156,1.690766746301764e+18,16.198764111328124,-0.9351531982421876,2.2264678955078123,-1.303509521484375,1.690766746303016e+18,16.20001580810547,0.4037688979640137,9.527698764715344,-2.0237215486713684,1.690766746303016e+18,16.20001580810547,-8.485235333442688,0.2236031293869018,-3.851229846477509,1.690766746301764e+18,16.198764111328124,-8.165612125396729,0.510965371131897,-3.5331756591796877,,,,,,,,,,,,,1.690766746303016e+18,16.20001580810547,1.2486772537231443,47.502235412597656,-23.713966369628903,1.6907667463026875e+18,16.199687646484374,40.95391845703125,68.11480102539062,103.31819458007811,1.690766746303016e+18,16.20001580810547,1.2340209748058673,-0.0109020384483784,0.6739037586052551,-1.672321759698374,0.1538597730784979,-0.7204252312765775,-1.3548268936225696
1.25,1.690766746348114e+18,16.245114013671873,-8.99844084780231,41.58802915446281,-4.289270551002323,1.690766746351873e+18,16.248873095703125,-0.751580810546875,4.889010620117188,-0.741290283203125,1.690766746348114e+18,16.245114013671873,-0.9868165467263104,8.640405846669674,-4.361608291269243,1.690766746348114e+18,16.245114013671873,-2.6014699220657347,11.167461395263672,3.672300863265991,1.690766746351873e+18,16.248873095703125,-2.205757713317871,10.23279802799225,4.325099468231201,,,,,,,,,,,,,1.690766746348114e+18,16.245114013671873,-7.215916061401368,38.11423873901367,-35.79227294921875,1.6907667463546783e+18,16.251678466796875,24.07435302734375,58.4730224609375,94.2917938232422,1.690766746348114e+18,16.245114013671873,1.1606588289968065,-0.0364591544496625,0.6368363384115125,-1.3706820106846125,0.3735514930794311,-0.6669816413963909,-1.080179380906522
1.3,1.690766746398223e+18,16.29522314453125,32.749294095387455,9.267803819817305,12.976351464250683,1.690766746401982e+18,16.298981982421875,2.962384033203125,1.2136993408203125,0.920465087890625,1.690766746398223e+18,16.29522314453125,-3.319647578663826,7.596952089801431,-5.185738679924309,1.690766746398223e+18,16.29522314453125,-0.6982416450977326,-6.968539381027222,1.4078295826911926,1.690766746401982e+18,16.298981982421875,-0.6895497221499681,-7.847115135192871,0.7119063854217529,,,,,,,,,,,,,1.690766746398223e+18,16.29522314453125,-20.978178024291992,29.908644104003905,-38.842724609375,1.690766746406677e+18,16.303677099609374,21.099655151367188,51.413519287109374,89.46898193359375,1.690766746398223e+18,16.29522314453125,1.5105137794664651,0.0222986644510814,0.6919997504622711,-1.000048469271382,0.4353593983492576,-0.5722591591648769,-0.8871316039927087
1.35,1.6907667464483323e+18,16.345332275390625,-3.972549732389301,-3.979355349977016,9.457047808491588,1.6907667464520911e+18,16.34909111328125,-0.545654296875,0.214654541015625,0.421307373046875,1.6907667464483323e+18,16.345332275390625,0.4798880729054658,7.574787136648894,-6.0826597548586125,1.6907667464483323e+18,16.345332275390625,-0.6403699100017548,-5.871178913116455,-6.444987154006958,1.6907667464520911e+18,16.34909111328125,-0.678056675195694,-5.383346033096314,-6.136483430862427,,,,,,,,,,,,,1.6907667464483323e+18,16.345332275390625,0.0760444641113281,29.05482711791992,-44.290724182128905,1.6907667464534692e+18,16.35046929931641,43.078243255615234,51.56545639038086,86.03286361694336,1.6907667464483323e+18,16.345332275390625,1.1578622562118674,0.1156703608686064,0.5984598821551056,-1.6458805332610065,0.3395027221617887,-0.7135191344363657,-0.882791556489777
1.4,1.6907667464984412e+18,16.395441162109375,-12.08296645448804,-8.094611922401786,14.51728431955099,1.6907667465022e+18,16.399200048828124,-0.821417236328125,-0.01866455078125,0.8048736572265625,1.6907667464984412e+18,16.395441162109375,2.4643509504681824,7.168085807442068,-6.220298176362514,1.6907667464984412e+18,16.395441162109375,0.2232428520917892,2.0752354860305786,-1.3673370003700256,1.6907667465022e+18,16.399200048828124,0.4839914202690124,2.4504369258880616,-1.2518911600112914,,,,,,,,,,,,,1.6907667464984412e+18,16.395441162109375,11.040584564208984,26.992555999755854,-44.8541763305664,1.690766746500268e+18,16.397268115234375,49.06283264160156,49.6906982421875,85.62275390625,1.6907667464984412e+18,16.395441162109375,0.8923028991564866,0.1253411113158275,0.5195687046018713,-1.9480132239706305,0.3227093218211149,-0.780845166617808,-0.8197345958525443
1.45,1.69076674654855e+18,16.445550146484372,-5.037040344389081,-4.937779525883197,10.075389550193549,1.690766746552309e+18,16.449308935546874,-0.2522613525390625,0.4045989990234375,0.4562713623046875,1.69076674654855e+18,16.445550146484372,2.1185385650837416,7.633710099547505,-5.764868413630724,1.69076674654855e+18,16.445550146484372,3.1456753730773928,0.5573674470186234,-0.1916633110493421,1.690766746552309e+18,16.449308935546874,3.2934378147125245,0.4865147216245532,-0.1355585701763629,,,,,,,,,,,,,1.69076674654855e+18,16.445550146484372,7.534322357177734,29.67810821533203,-43.80448455810547,1.6907667465522637e+18,16.449263720703122,45.64561462402344,54.142333984375,88.01390686035157,1.69076674654855e+18,16.445550146484372,0.7932808156513789,0.0580759610590218,0.5262433801218435,-1.923919774371982,0.3389728721700985,-0.777358208421308,-0.8931953450667411
1.5,1.690766746598659e+18,16.4956591796875,-4.2000626322162145,2.279470183891654,11.568583918241265,1.690766746602418e+18,16.499417919921875,-0.23880615234375,1.19522705078125,0.7661651611328125,1.690766746598659e+18,16.4956591796875,1.7879942713971435,8.641681039624213,-4.230056203941702,1.690766746598659e+18,16.4956591796875,4.740771198272705,2.389027619361878,0.4395942151546478,1.690766746602418e+18,16.499417919921875,4.804514217376709,2.514508056640625,0.4945401281118393,,,,,,,,,,,,,1.690766746598659e+18,16.4956591796875,5.177156066894531,37.506002807617186,-37.63043365478516,1.690766746604254e+18,16.501253955078123,42.303741455078125,62.58524475097656,95.40148315429688,1.690766746598659e+18,16.4956591796875,0.6615851641552439,-0.036801237058098,0.5599130901132724,-1.9712363661128047,0.3084889858152745,-0.767139711437091,-1.0823220711794663
1.55,1.690766746648768e+18,16.545767919921875,-2.464128422984779,7.812871202529072,8.845777963324188,1.690766746652527e+18,16.549526904296876,-0.1888031005859375,2.106890869140625,0.6665069580078125,1.690766746648768e+18,16.545767919921875,1.157792142162025,9.486642736288308,-2.066266599119976,1.690766746648768e+18,16.545767919921875,5.511668872833252,0.5859947800636292,0.2250665336847305,1.690766746652527e+18,16.549526904296876,5.613036060333252,0.1549648433923721,0.0632799535989761,,,,,,,,,,,,,1.690766746648768e+18,16.545767919921875,0.0375999450683593,45.845079803466795,-27.220782470703124,1.6907667466562463e+18,16.553246191406252,38.22189025878906,70.59046325683593,107.09266967773438,1.690766746648768e+18,16.545767919921875,0.3873919699993847,-0.1594162857624424,0.6033412708164996,-2.1223332217723727,0.2764101325739466,-0.7297965409152588,-1.323701634042298
1.6,1.690766746698877e+18,16.595876904296876,-10.12651160085678,31.83142638627529,-1.8880320363987977,1.6907667467026358e+18,16.5996357421875,-1.0222747802734375,4.528955078125,-0.4573394775390625,1.690766746698877e+18,16.595876904296876,1.2623092006956784,9.615676411054134,1.0547004621759428,1.690766746698877e+18,16.595876904296876,5.994927406311035,-7.143049621582032,0.891533350944519,1.6907667467026358e+18,16.5996357421875,5.981607151031494,-7.7300975799560545,2.2583732128143312,,,,,,,,,,,,,1.690766746698877e+18,16.595876904296876,2.1948532104492187,51.92549209594726,-11.74070587158203,1.690766746703041e+18,16.600041137695314,41.494747161865234,75.28860092163086,121.97467803955078,1.690766746698877e+18,16.595876904296876,-1.060662337165544,-0.2241668196206756,0.6445364668206096,1.3275920937133452,0.1260324219436391,-0.7169444787293224,-1.3787511459148418
1.65,1.690766746748986e+18,16.645985888671873,27.369506130785943,27.18789249085963,-23.275278200960155,1.6907667467527447e+18,16.649744775390623,2.9064666748046877,3.09892578125,-1.8963104248046876,1.690766746748986e+18,16.645985888671873,-1.8167606394152345,8.802016095391512,3.812902103590369,1.690766746748986e+18,16.645985888671873,2.7303205251693727,4.846900391578674,7.361079859733581,1.6907667467527447e+18,16.649744775390623,2.2897915959358217,5.233578205108643,5.852851316332817,,,,,,,,,,,,,1.690766746748986e+18,16.645985888671873,-12.118132019042967,51.64836959838867,3.8625579833984376,1.6907667467498342e+18,16.646834326171877,24.927069091796874,74.07020263671875,135.50502319335936,1.690766746748986e+18,16.645985888671873,-2.432553829767711,-0.2677355299372254,0.7684679686111666,1.1359940862789275,0.0225251783255702,-0.574131477828667,-1.120833641886012
1.7,1.6907667467990943e+18,16.696094677734372,7.270394352306871,-2.5108763209909197,-13.015673771526812,1.6907667468028536e+18,16.699853759765624,0.38809814453125,0.27061767578125,-0.94368896484375,1.6907667467990943e+18,16.696094677734372,-2.044839765596688,8.558210495446323,4.324093384128213,1.6907667467990943e+18,16.696094677734372,-0.0851318344473839,-2.738703614473343,-2.51961145401001,1.6907667468028536e+18,16.699853759765624,-0.1938848890364169,-2.453082686662674,-2.6824403285980223,,,,,,,,,,,,,1.6907667467990943e+18,16.696094677734372,-15.81995086669922,50.82222671508789,7.533633422851563,1.6907667468018278e+18,16.698827880859376,24.051821899414065,73.86770629882812,137.64214782714845,1.6907667467990943e+18,16.696094677734372,-2.4919240893125862,-0.3008083016756592,0.7767526882841036,1.1298485955403632,0.0244299524713768,-0.5520625736835878,-1.0609405625011512
1.75,1.6907667468492037e+18,16.7462037109375,-3.9320957030564543,-12.805854027813671,-18.32485032281041,1.6907667468529626e+18,16.749962451171875,-0.5995880126953125,-0.4038909912109375,-1.5725067138671875,1.6907667468492037e+18,16.7462037109375,-1.2154078510804474,9.085384942535756,3.4197481797686216,1.6907667468492037e+18,16.7462037109375,-4.422991919517517,-1.49946528673172,-1.8685047388076783,1.6907667468529626e+18,16.749962451171875,-4.9387526512146,-1.6386740684509278,-1.7295961380004885,,,,,,,,,,,,,1.6907667468492037e+18,16.7462037109375,-9.789482879638673,52.622423553466795,3.3885772705078123,1.690766746853819e+18,16.750818701171873,30.28627014160156,75.51254577636719,130.68167419433593,1.6907667468492037e+18,16.7462037109375,-2.301777158495205,-0.2478041383541623,0.7492666106428164,1.2258903187277603,0.018341972508722,-0.6128216858558753,-1.1906484936596216
1.8,1.6907667468993126e+18,16.796312744140625,-2.2865823905170335,-9.074694387886524,-8.687994608640222,1.6907667469030715e+18,16.800071484375003,-0.2395721435546875,0.3077178955078125,-0.6858917236328125,1.6907667468993126e+18,16.796312744140625,-0.5644030992480367,9.70215385273695,-0.1099184663993585,1.6907667468993126e+18,16.796312744140625,-8.677710914611817,-3.815916585922241,-2.728944706916809,1.6907667469030715e+18,16.800071484375003,-8.690228843688965,-3.7466196537017824,-3.041133093833923,,,,,,,,,,,,,1.6907667468993126e+18,16.796312744140625,-3.7919841766357423,50.89234085083008,-14.504185485839844,1.690766746905811e+18,16.802810986328126,37.7177978515625,71.5251220703125,109.77201538085936,1.6907667468993126e+18,16.796312744140625,0.118284435871869,-0.0840089092857081,0.7199146911924509,-0.2508483965946232,0.0981949889296699,-0.6781914906288435,-1.432948187768062
1.85,1.6907667469494216e+18,16.846421679687502,-12.863027516696452,22.6572300061512,-2.781922043848037,1.6907667469531807e+18,16.850180517578124,-1.333746337890625,4.20816650390625,-0.763250732421875,1.6907667469494216e+18,16.846421679687502,0.6959641023610252,8.93904871840894,-3.862556010623276,1.6907667469494216e+18,16.846421679687502,-5.038591313362121,9.001490998268128,-2.443131500482559,1.6907667469531807e+18,16.850180517578124,-4.474908494949341,10.258928442001343,-1.8901703834533692,,,,,,,,,,,,,1.6907667469494216e+18,16.846421679687502,2.9654212951660157,40.93921356201171,-33.84888916015625,1.6907667469526006e+18,16.8496005859375,40.73206329345703,61.56128692626953,94.21859359741212,1.6907667469494216e+18,16.846421679687502,1.0666338983771726,0.029948594169296,0.6316021615559282,-1.7617561015218393,0.244213670075336,-0.7305864711749599,-1.154644875542267
1.9,1.6907667469995305e+18,16.89653056640625,-0.2851099040448666,37.85285080963969,0.1390347858461735,1.690766747003289e+18,16.900289306640623,0.261798095703125,3.7728363037109376,-0.2556671142578125,1.6907667469995305e+18,16.89653056640625,-2.467833181173801,8.156612860667108,-4.742725331173241,1.6907667469995305e+18,16.89653056640625,-0.3464119613170623,0.9383406162261962,6.655768918991089,1.690766747003289e+18,16.900289306640623,-0.2310549424961208,-0.4820081114768982,5.728102838993072,1.6907667470005445e+18,16.89754443359375,53.33221551962197,0.990000009606472,13.568013691879482,49.27553573745252,72.3707859236747,203.9062341731885,4.63809440596487,3.5089339284384096,-122.87210394981147,3.749999999999351,1.6907667469995305e+18,16.89653056640625,-18.04043960571289,33.70400543212891,-36.88055419921875,1.690766746999391e+18,16.896391113281247,19.00928649902344,55.75864868164062,93.71148681640624,1.6907667469995305e+18,16.89653056640625,1.2713091147553448,-0.0523018713611096,0.6470488386159057,-1.103771664207548,0.4536374220329008,-0.6074648323607463,-0.984654720076806
1.95,1.6907667470496394e+18,16.94663955078125,32.61456473703719,-4.759955107558966,12.393829107044338,1.6907667470533985e+18,16.95039833984375,2.747039794921875,0.1175445556640625,0.7002349853515625,1.6907667470496394e+18,16.94663955078125,-1.5072708698609192,7.823665334457158,-5.620931534956694,1.6907667470496394e+18,16.94663955078125,0.3234820246696471,-6.476674032211304,-4.707441329956055,1.6907667470533985e+18,16.95039833984375,0.3365915477275848,-5.820345735549926,-4.8947755813598635,,,,,,,,,,,,,1.6907667470496394e+18,16.94663955078125,-11.55910415649414,30.733065032958983,-42.08711242675781,1.6907667470513846e+18,16.948384521484375,30.234332275390624,53.67365417480469,88.05064697265625,1.6907667470496394e+18,16.94663955078125,1.3843488812826812,0.0749601768245463,0.6622963642658155,-1.3131451382762642,0.3698799475908252,-0.644720906118758,-0.9238586377962252
2.0,1.6907667470997484e+18,16.996748339843748,-8.428785775536298,-9.524714049816131,9.830173031311036,1.6907667471035072e+18,17.000507275390625,-0.7725494384765625,-0.228912353515625,0.4508056640625,1.6907667470997484e+18,16.996748339843748,1.1178814697647836,7.879090050750375,-5.7222615609520675,1.6907667470997484e+18,16.996748339843748,-0.1912478327751159,1.0229137927293777,-3.3112186193466187,1.6907667471035072e+18,17.000507275390625,-0.2625657975673675,1.4667084693908692,-2.9577188968658445,,,,,,,,,,,,,1.6907667470997484e+18,16.996748339843748,1.907440948486328,31.753690338134767,-43.03128662109375,1.6907667471033746e+18,17.00037451171875,41.840921020507814,54.2503662109375,87.42575378417969,1.6907667470997484e+18,16.996748339843748,0.9875394012769768,0.074314444110043,0.5747420180668177,-1.7630425907621212,0.3351276674019672,-0.7424637761541755,-0.9331556839129732
2.05,1.6907667471498573e+18,17.046857324218752,-4.988479084124565,-6.971175346567034,10.176733955427409,1.6907667471536164e+18,17.050616259765626,-0.345263671875,0.188726806640625,0.418560791015625,1.6907667471498573e+18,17.046857324218752,1.0651906938670574,7.72723406951487,-5.94255827501595,1.6907667471498573e+18,17.046857324218752,0.3799737413413823,2.6719094038009645,-1.2452601432800292,1.6907667471536164e+18,17.050616259765626,0.4973474681377411,2.4475484609603884,-1.1859278321266171,,,,,,,,,,,,,1.6907667471498573e+18,17.046857324218752,0.7636688232421875,31.18703765869141,-43.604428100585935,1.6907667471553705e+18,17.0523705078125,38.19175720214844,54.03408203125,87.08410339355468,1.6907667471498573e+18,17.046857324218752,0.8352010705621826,0.0225000163271098,0.5410576709070075,-1.7481398741566605,0.3908203836431572,-0.7440015854626735,-0.9074991588921768
2.1,1.6907667471999662e+18,17.096966259765626,-2.3161976523689924,2.3290109859389068,12.13548551246762,1.690766747203725e+18,17.100725,-0.11170654296875,1.2657928466796875,0.7570709228515625,1.6907667471999662e+18,17.096966259765626,1.020814975658879,8.069845028509496,-5.465838237687349,1.6907667471999662e+18,17.096966259765626,2.638702058792114,0.4699715614318848,-0.5017183631658554,1.690766747203725e+18,17.100725,2.876694011688232,0.3734907105565071,-0.4018596082925796,,,,,,,,,,,,,1.6907667471999662e+18,17.096966259765626,-1.402703857421875,33.72317733764648,-41.749000549316406,1.6907667472021617e+18,17.09916162109375,37.047119140625,57.19939422607422,89.4932746887207,1.6907667471999662e+18,17.096966259765626,0.7403079643087194,-0.0303746159183681,0.5382897508858474,-1.7561827350252637,0.3976291064113406,-0.7421744402718454,-0.967428846051696
2.15,1.6907667472500751e+18,17.147075341796874,-2.0164609063653645,7.635467406156659,10.696559208797812,1.6907667472538342e+18,17.15083408203125,-0.0995147705078125,1.7404449462890623,0.6459442138671875,1.6907667472500751e+18,17.147075341796874,0.9158767544906586,8.979454963077306,-3.773934191935956,1.6907667472500751e+18,17.147075341796874,4.801444339752197,-0.2948030948638915,0.6969912350177765,1.6907667472538342e+18,17.15083408203125,4.880287742614746,-0.3385292083024979,0.690055912733078,,,,,,,,,,,,,1.6907667472500751e+18,17.147075341796874,-1.9968971252441403,40.981319427490234,-34.601234436035156,1.6907667472489582e+18,17.145958349609376,36.492373657226565,64.2766326904297,96.73009033203124,1.6907667472500751e+18,17.147075341796874,0.6740637572980263,-0.1020341150444679,0.578305029979228,-1.8115533921438245,0.3438086092023923,-0.7319526680562106,-1.1625563522637363
2.2,1.690766747300184e+18,17.1971841796875,-3.4821769003789127,16.625384258919954,3.758029117508829,1.690766747303943e+18,17.200942919921875,-0.4868804931640625,2.9652862548828125,0.1525787353515625,1.690766747300184e+18,17.1971841796875,1.0090563387736675,9.64224012523532,-1.1455061861605569,1.690766747300184e+18,17.1971841796875,6.300642108917236,-2.840805625915527,-0.7047039538621902,1.690766747303943e+18,17.200942919921875,6.424860000610352,-3.040217566490173,-0.6671569675207139,,,,,,,,,,,,,1.690766747300184e+18,17.1971841796875,-0.5375999450683594,48.77257766723633,-22.18944396972656,1.6907667473009526e+18,17.197952587890626,38.3784423828125,71.9865509033203,109.59388427734376,1.690766747300184e+18,17.1971841796875,0.1059560436881673,-0.1796404872742932,0.6246367726760641,-1.1777773794519877,0.2372257317224016,-0.720252101885045,-1.3940774451547566
2.25,1.690766747350293e+18,17.24729306640625,-12.951997476621267,32.83762049671173,-11.96373053563714,1.690766747354052e+18,17.251051953125,-0.1783416748046875,4.443267822265625,-1.42113037109375,1.690766747350293e+18,17.24729306640625,-0.3132565372959943,9.43841430278778,2.1100045747204126,1.690766747350293e+18,17.24729306640625,5.623562908172607,-0.636540699005127,7.402454471588134,1.690766747354052e+18,17.251051953125,5.353739309310913,-0.1591687679290771,7.737755060195923,,,,,,,,,,,,,1.690766747350293e+18,17.24729306640625,-2.023286437988281,52.793164825439455,-8.01507110595703,1.6907667473529454e+18,17.249945507812498,31.933749389648437,75.29260864257813,126.60879821777344,1.690766747350293e+18,17.24729306640625,-1.9473279984176537,-0.2289105944705446,0.7110033251138186,1.6425656422734214,0.0825056464777606,-0.6545159276999011,-1.312793904523379
2.3,1.6907667474004022e+18,17.2974021484375,32.3234295082882,11.692181890146134,-23.625085325843095,1.6907667474041613e+18,17.30116123046875,2.210125732421875,1.32001953125,-1.76087646484375,1.6907667474004022e+18,17.2974021484375,-2.141435193511694,8.522062960361838,4.340270027425289,1.6907667474004022e+18,17.2974021484375,2.3413775682449343,0.938951683044434,0.4280254483222961,1.6907667474041613e+18,17.30116123046875,2.1820135831832888,-0.2924091100692749,0.2315333634614944,,,,,,,,,,,,,1.6907667474004022e+18,17.2974021484375,-16.958169555664064,50.66735610961914,6.2488250732421875,1.6907667474049377e+18,17.301937744140623,20.785726928710936,72.86095581054687,138.9993469238281,1.6907667474004022e+18,17.2974021484375,-2.6434461225096113,-0.3368264783008198,0.7765608869658152,1.1122166492481296,0.076322552945888,-0.5264115404278673,-1.054211491632724
2.35,1.690766747450511e+18,17.34751123046875,2.298334868002832,-9.784247847864629,-18.43369461150646,1.69076674745427e+18,17.35126997070312,-0.0781890869140625,-0.222900390625,-1.3477813720703125,1.690766747450511e+18,17.34751123046875,-2.02210382223621,8.366880114338993,4.694538164918124,1.690766747450511e+18,17.34751123046875,-0.2227768361568451,-0.1423361148685216,-1.5619383811950684,1.69076674745427e+18,17.35126997070312,-0.465277986973524,-0.119000369310379,-1.5688548326492309,,,,,,,,,,,,,1.690766747450511e+18,17.34751123046875,-16.426279830932618,50.33551254272461,9.539370727539062,1.6907667474569293e+18,17.353929296875,23.22628173828125,73.30345153808594,139.93020935058593,1.690766747450511e+18,17.34751123046875,-2.519506314986898,-0.3314640079999796,0.7758499117064305,1.1646478185404192,0.0333117906762574,-0.5356727268017785,-1.0221878955225343
2.4,1.6907667475006203e+18,17.397620214843748,-3.8855894463995098,-13.248349490170478,-18.02292255495548,1.6907667475043791e+18,17.401378955078123,-0.5961212158203125,-0.4032073974609375,-1.44462890625,1.6907667475006203e+18,17.397620214843748,-1.6233787618316708,8.979248393041491,3.490447417500466,1.6907667475006203e+18,17.397620214843748,-5.895872402191162,-0.678014463186264,-0.1025956511497497,1.6907667475043791e+18,17.401378955078123,-6.399430656433106,-0.8075219929218292,0.033656769990921,,,,,,,,,,,,,1.6907667475006203e+18,17.397620214843748,-13.413105010986328,51.6827278137207,3.650685119628906,1.690766747503725e+18,17.400724914550782,25.324066162109375,74.49444580078125,131.8596305847168,1.6907667475006203e+18,17.397620214843748,-2.554083768528776,-0.2893871749220376,0.7593748143864397,1.1157322347670149,0.0719114420247775,-0.5766552156511809,-1.1638418232241814
2.45,1.690766747550729e+18,17.447729052734374,0.0731417209000885,-6.445287315252424,-3.4044875991770622,1.6907667475544878e+18,17.451488037109375,-0.1986663818359375,0.5704620361328125,-0.342608642578125,1.690766747550729e+18,17.447729052734374,-1.4987690263748914,9.578159808799624,-0.5256542663978785,1.690766747550729e+18,17.447729052734374,-9.111316108703614,-3.852474021911621,-2.0878637675195932,1.6907667475544878e+18,17.451488037109375,-9.097830200195316,-3.868009424209595,-2.505234897136688,,,,,,,,,,,,,1.690766747550729e+18,17.447729052734374,-11.012449264526367,48.76589126586914,-17.989697265625,1.69076674755052e+18,17.447519970703127,28.107254028320312,70.88236694335937,110.63481750488282,1.690766747550729e+18,17.447729052734374,1.1411014412807945,-0.1266704618524999,0.734476241476728,-0.2903770952732266,0.1893300140347233,-0.6351068075204228,-1.3567792404257992
2.5,1.690766747600838e+18,17.4978380859375,-14.191155942610502,35.101596057447196,-4.755166704238652,1.690766747604597e+18,17.501596923828124,-1.5794219970703125,5.453799438476563,-1.069012451171875,1.690766747600838e+18,17.4978380859375,-0.0648188744563609,8.889435435647368,-4.093383704860509,1.690766747600838e+18,17.4978380859375,-3.6125679939985273,6.666314435005188,-2.245599377155304,1.690766747604597e+18,17.501596923828124,-2.9991757452487944,7.799647951126099,-1.3985391855239868,,,,,,,,,,,,,1.690766747600838e+18,17.4978380859375,-2.7179412841796875,39.98819198608398,-35.54617462158203,1.6907667476025093e+18,17.49950927734375,33.93459777832031,61.790618896484375,94.36945495605468,1.690766747600838e+18,17.4978380859375,1.1065406384988743,-0.0173008642304748,0.6347262600642385,-1.5522150820188303,0.3119505299024115,-0.7040372560089712,-1.137909102917216
2.55,1.6907667476509468e+18,17.547946875,1.4397686581650375,29.73573970446885,-2.987019259857833,1.690766747654706e+18,17.551705859374998,1.73826904296875,2.739788818359375,-0.2110015869140625,1.6907667476509468e+18,17.547946875,-3.179964178102761,8.07139892150104,-4.445570067643225,1.6907667476509468e+18,17.547946875,-0.6537454128265381,0.4770497679710388,6.568492817878723,1.690766747654706e+18,17.551705859374998,-0.6471857309341431,-1.4020710945129395,6.146614742279053,,,,,,,,,,,,,1.6907667476509468e+18,17.547946875,-20.06536750793457,34.476244354248045,-35.36808624267578,1.6907667476545055e+18,17.55150546875,14.576220703125,54.65909423828125,94.83627014160156,1.6907667476509468e+18,17.547946875,1.3749668016594712,-0.0622261819801993,0.6667589056691625,-0.9640199672964812,0.4651743414297191,-0.5753226676448124,-0.9712888571601164
2.6,1.690766747701056e+18,17.598055859375002,32.53554928718507,-5.079462020533084,15.712482764686944,1.6907667477048148e+18,17.601814697265628,1.360809326171875,0.2565704345703125,0.800262451171875,1.690766747701056e+18,17.598055859375002,-1.6943415385640042,7.7811686057025184,-5.572080936356782,1.690766747701056e+18,17.598055859375002,-0.144521714746952,-6.874184226989746,-6.200689220428467,1.6907667477048148e+18,17.601814697265628,-0.1756211940199136,-6.560232305526734,-6.386579704284668,,,,,,,,,,,,,1.690766747701056e+18,17.598055859375002,-14.877167892456054,30.21879653930664,-41.02242889404297,1.690766747706498e+18,17.603497998046873,30.280734252929687,53.53831481933594,88.1182373046875,1.690766747701056e+18,17.598055859375002,1.3467204162637174,0.0534733036994435,0.6556474425112464,-1.2812576669693514,0.393175930456033,-0.6386704348507022,-0.916734366675514
2.65,1.690766747751165e+18,17.64816484375,-9.07744678456068,-8.421800622050165,10.632191892114282,1.6907667477549235e+18,17.6519236328125,-0.7844512939453125,-0.1294097900390625,0.5404632568359375,1.690766747751165e+18,17.64816484375,1.489024622695446,7.673642647676468,-5.908791029970645,1.690766747751165e+18,17.64816484375,-0.8403514444828033,0.3567660689353943,-3.3757739782333376,1.6907667477549235e+18,17.6519236328125,-0.8580417811870575,0.8436867475509644,-2.964986705780029,,,,,,,,,,,,,1.690766747751165e+18,17.64816484375,3.359308624267578,30.756104278564457,-43.63191375732422,1.6907667477532918e+18,17.650291748046875,43.46268081665039,53.03091812133789,86.72708892822266,1.690766747751165e+18,17.64816484375,0.8991467077263205,0.0673215895620366,0.5490335578357954,-1.8163066413664488,0.3495762168818394,-0.7557988813850388,-0.8990232058774698
2.7,1.6907667478012736e+18,17.698273583984374,-6.124421155076027,-5.889466853201985,11.073294321903584,1.6907667478050324e+18,17.702032568359375,-0.40963134765625,0.2611541748046875,0.4700469970703125,1.6907667478012736e+18,17.698273583984374,1.7396802638919648,7.470028655961751,-6.107690034314393,1.6907667478012736e+18,17.698273583984374,1.1216926530003548,0.5853582054376603,-1.3993777275085448,1.6907667478050324e+18,17.702032568359375,1.3375391840934754,0.2649820208549499,-1.3381411910057068,,,,,,,,,,,,,1.6907667478012736e+18,17.698273583984374,3.607609558105469,29.890673065185545,-44.340919494628906,1.690766747800087e+18,17.697086816406248,42.14090881347656,52.62254943847656,86.3197509765625,1.6907667478012736e+18,17.698273583984374,0.7502359374028151,0.0302226627589365,0.5121049758656537,-1.8486241833095445,0.3860000628156366,-0.7665690522181855,-0.8660543889354912
2.75,1.6907667478513823e+18,17.748382568359375,-5.79959789861083,2.2282049253654477,11.967336568078997,1.6907667478551416e+18,17.7521416015625,-0.3682281494140625,1.1763458251953125,0.7384490966796875,1.6907667478513823e+18,17.748382568359375,2.125935017397553,8.111274654102326,-5.053271231317519,1.6907667478513823e+18,17.748382568359375,4.183817291259766,0.4283336661756038,-0.1384777665138244,1.6907667478551416e+18,17.7521416015625,4.3796706199646,0.6131660491228104,0.0007807806134223,,,,,,,,,,,,,1.6907667478513823e+18,17.748382568359375,5.212894439697266,35.097174072265624,-40.18602600097656,1.6907667478520847e+18,17.749084570312498,43.82568359375,58.3463623046875,90.93116455078123,1.6907667478513823e+18,17.748382568359375,0.6045065441833681,-0.0276939195834289,0.5188741251317596,-1.9716457358757251,0.3494476913988161,-0.7790672645867449,-0.976201740517256
2.8,1.6907667479014917e+18,17.798491650390623,-3.497663720167875,2.689374225436449,8.085450944633482,1.6907667479052506e+18,17.80225048828125,-0.160357666015625,1.2989166259765623,0.4961212158203125,1.6907667479014917e+18,17.798491650390623,1.544952802305296,9.150791305330396,-3.095485625926107,1.6907667479014917e+18,17.798491650390623,4.832589530944825,1.6543306827545166,1.3610408782958985,1.6907667479052506e+18,17.80225048828125,4.819070053100586,1.5495880842208862,1.380543327331543,,,,,,,,,,,,,1.6907667479014917e+18,17.798491650390623,2.144036865234375,42.70150527954102,-32.44767456054687,1.6907667479040804e+18,17.801080224609375,39.23139343261719,67.227734375,100.61520080566406,1.6907667479014917e+18,17.798491650390623,0.4534665433348702,-0.1333396947845358,0.5684288109914799,-2.0350597499225955,0.3127015877629535,-0.7482734298729184,-1.2093296266804896
2.85,1.6907667479516004e+18,17.848600537109377,-4.3459936657691,20.86041684842169,4.63420505757369,1.6907667479553592e+18,17.852359228515624,-0.4402557373046875,3.5514251708984377,0.2749603271484375,1.6907667479516004e+18,17.848600537109377,1.089041159727648,9.686034726393816,-0.6524680128783266,1.6907667479516004e+18,17.848600537109377,5.840626621246338,-3.150894841551781,-0.2647276043891907,1.6907667479553592e+18,17.852359228515624,5.953297424316406,-3.6856393098831175,-0.384118115901947,,,,,,,,,,,,,1.6907667479516004e+18,17.848600537109377,-1.246893310546875,49.21052627563476,-21.164137268066405,1.6907667479560768e+18,17.853076806640622,38.096377563476565,73.41134643554688,113.54660034179688,1.6907667479516004e+18,17.848600537109377,-0.2230589565440259,-0.2169701022085693,0.6218915357732318,-1.453484428762677,0.2361152869309861,-0.7128581353133545,-1.4176642509228228
2.9,1.6907667480017093e+18,17.898709228515624,-9.193720288022458,35.22701411361218,-11.415195145254431,1.6907667480054684e+18,17.902468310546872,0.691925048828125,4.408941650390625,-1.230926513671875,1.6907667480017093e+18,17.898709228515624,-0.5792610757750273,9.31240786688864,2.454326575416624,1.6907667480017093e+18,17.898709228515624,5.155861043930054,-4.331182956695557,7.45143346786499,1.6907667480054684e+18,17.902468310546872,4.906182146072387,-3.035136032104492,7.949074602127075,1.6907667480005317e+18,17.897531494140626,53.37133971974254,1.1900000573134502,15.23345286814946,49.275473711652694,72.40991012379527,199.68748333415385,4.670992482213853,3.4650203843398244,-122.87213213049384,4.749999999998682,1.6907667480017093e+18,17.898709228515624,-3.386968994140625,52.83226089477539,-5.372396850585938,1.6907667480028728e+18,17.899872924804686,32.55046463012695,75.52336120605469,128.0242691040039,1.6907667480017093e+18,17.898709228515624,-1.987850146597748,-0.2173405390650068,0.7223425238447014,1.5302945958295673,0.0441069802626028,-0.6476942527138696,-1.2685540832385256
2.95,1.6907667480518182e+18,17.948818310546876,39.539540277161,7.1889756845444435,-19.99812466225028,1.690766748055577e+18,17.952577001953124,2.258648681640625,1.061810302734375,-1.366644287109375,1.6907667480518182e+18,17.948818310546876,-2.414778701143265,8.46733709843993,4.314636638283729,1.6907667480518182e+18,17.948818310546876,1.153912690281868,-0.0897709190845492,-0.3989747643470764,1.690766748055577e+18,17.952577001953124,0.924193584918976,-1.3800369024276733,-0.5833614826202392,,,,,,,,,,,,,1.6907667480518182e+18,17.948818310546876,-16.493611145019532,50.91920700073242,6.440225219726562,1.690766748049672e+18,17.946672021484375,21.831704711914064,73.46836853027344,137.57769470214845,1.6907667480518182e+18,17.948818310546876,-2.53932947618203,-0.2914222785005195,0.7890630402031739,1.060366920454926,0.0184808534479076,-0.5401878411226244,-1.0422402823352843
3.0,1.6907667481019274e+18,17.998927197265623,2.4394206534816325,-9.694333885087968,-14.040158273317813,1.690766748105686e+18,18.002685986328125,-0.0280975341796875,-0.2477081298828125,-1.05303955078125,1.6907667481019274e+18,17.998927197265623,-2.0815171990002694,8.722976460946203,3.9508132045558098,1.6907667481019274e+18,17.998927197265623,-1.6907947540283204,-0.1020666837692261,-2.0891385793685915,1.690766748105686e+18,18.002685986328125,-1.9171916246414185,0.2577325791120529,-2.0506362676620484,,,,,,,,,,,,,1.6907667481019274e+18,17.998927197265623,-13.282149124145509,51.90600357055664,4.953890991210938,1.6907667481016663e+18,17.99866650390625,25.708151245117183,74.6813720703125,135.2230987548828,1.6907667481019274e+18,17.998927197265623,-2.401320849843781,-0.2499165112166144,0.7783580743807715,1.0880608473015816,-0.0120908517522608,-0.5754707794643281,-1.09745206535172
3.05,1.6907667481520358e+18,18.049035986328125,-2.3174547835971415,-12.38345396040678,-10.617770918765068,1.690766748155795e+18,18.05279501953125,-0.392108154296875,-0.2441986083984375,-0.846759033203125,1.6907667481520358e+18,18.049035986328125,-1.1694304259901491,9.390402726908324,2.4590799658757447,1.6907667481520358e+18,18.049035986328125,-5.289721298217773,0.0694715321063994,-1.4136640787124637,1.690766748155795e+18,18.05279501953125,-5.61753740310669,-0.103235624730587,-1.3753215074539185,,,,,,,,,,,,,1.6907667481520358e+18,18.049035986328125,-8.662087631225585,52.8855094909668,-2.236628723144531,1.6907667481536627e+18,18.050662646484376,30.55172119140625,75.41047668457031,125.95354309082032,1.6907667481520358e+18,18.049035986328125,-2.405739747757409,-0.2103452373974802,0.7459101914159568,1.1098766017533688,0.0497942051529758,-0.6287966902691542,-1.2880744789528469
3.1,1.690766748202145e+18,18.099145068359373,-4.603099944409728,-3.396259342988133,-6.007974925395846,1.690766748205904e+18,18.10290390625,-0.6351959228515625,1.120526123046875,-0.7320526123046875,1.690766748202145e+18,18.099145068359373,-0.2401007942637615,9.651200611995458,-1.0881096802572905,1.690766748202145e+18,18.099145068359373,-8.921308422088623,-0.3631335705518722,-3.3477081298828124,1.690766748205904e+18,18.10290390625,-8.992920875549316,0.0386311769485474,-3.6161548376083377,,,,,,,,,,,,,1.690766748202145e+18,18.099145068359373,-4.104575729370117,49.75154342651367,-18.39378967285156,1.6907667482056527e+18,18.1026529296875,36.649801635742186,69.82864379882812,106.0915740966797,1.690766748202145e+18,18.099145068359373,0.6815061516493758,-0.0842202241134651,0.6947095922975451,-0.8474648136778391,0.1651732257249612,-0.6916159307358501,-1.4138946251566409
3.15,1.6907667482522537e+18,18.14925390625,-14.72273674951315,41.98521131088734,-5.847503676028252,1.6907667482560128e+18,18.153012890625,-1.353948974609375,5.490353393554687,-1.0979522705078124,1.6907667482522537e+18,18.14925390625,0.0776446364229544,8.707848449919222,-4.389773478523791,1.6907667482522537e+18,18.14925390625,-2.6144927754998206,9.570437622070312,1.6368455648422242,1.6907667482560128e+18,18.153012890625,-1.941630423069,9.794197845458983,2.6471229791641235,,,,,,,,,,,,,1.6907667482522537e+18,18.14925390625,-2.6635818481445312,39.39566802978515,-35.7912353515625,1.6907667482524498e+18,18.14944995117187,33.7424430847168,60.4316291809082,93.23622131347656,1.6907667482522537e+18,18.14925390625,0.967014942618148,-0.0370206756707069,0.6069960267966508,-1.5993516504096443,0.3513524135217027,-0.7073654636400581,-1.0945253568234716
3.2,1.690766748302363e+18,18.199362890625004,26.466923552184703,17.362583850714564,2.7120910257050395,1.6907667483061217e+18,18.2031216796875,3.416864013671875,1.76143798828125,0.34884033203125,1.690766748302363e+18,18.199362890625004,-3.3634766081616276,7.910189420986771,-4.68177103780359,1.690766748302363e+18,18.199362890625004,-0.3971657909452915,-3.5212725162506104,4.11848406791687,1.6907667483061217e+18,18.2031216796875,-0.5957942046225071,-4.3656974792480465,3.1911504745483397,,,,,,,,,,,,,1.690766748302363e+18,18.199362890625004,-22.067143630981445,32.33212661743164,-36.453932189941405,1.6907667482992415e+18,18.196241699218753,15.660116577148438,54.41119384765625,93.99546508789062,1.690766748302363e+18,18.199362890625004,1.4482231307101583,-0.0325200900551495,0.6806092265037239,-0.9500263244141812,0.4556009855862125,-0.5704765347809351,-0.9403545941504244
3.25,1.6907667483524716e+18,18.249471582031248,8.886836329838783,-3.72383815254569,12.007973114371897,1.690766748356231e+18,18.253230615234376,-0.31502685546875,0.4346160888671875,0.3853851318359375,1.6907667483524716e+18,18.249471582031248,-0.6005943638763949,7.66562113687992,-5.926550792353749,1.6907667483524716e+18,18.249471582031248,-1.800903582572937,-6.044530391693115,-7.038960075378418,1.690766748356231e+18,18.253230615234376,-1.7970584392547608,-5.362750494480133,-7.0766595840454105,,,,,,,,,,,,,1.6907667483524716e+18,18.249471582031248,-7.861458587646484,29.74550323486328,-43.128849792480466,1.6907667483512356e+18,18.2482357421875,32.602822875976564,52.295318603515625,86.957373046875,1.6907667483524716e+18,18.249471582031248,1.194966834807631,0.0674806139871385,0.6160010435008847,-1.4649840400776486,0.3857805282170595,-0.6797481416620139,-0.8975511849652579
