seconds_elapsed_rounded,accelerometer_time,accelerometer_seconds_elapsed,accelerometer_z,accelerometer_y,accelerometer_x,accelerometeruncalibrated_time,accelerometeruncalibrated_seconds_elapsed,accelerometeruncalibrated_z,accelerometeruncalibrated_y,accelerometeruncalibrated_x,gravity_time,gravity_seconds_elapsed,gravity_z,gravity_y,gravity_x,gyroscope_time,gyroscope_seconds_elapsed,gyroscope_z,gyroscope_y,gyroscope_x,gyroscopeuncalibrated_time,gyroscopeuncalibrated_seconds_elapsed,gyroscopeuncalibrated_z,gyroscopeuncalibrated_y,gyroscopeuncalibrated_x,location_time,location_seconds_elapsed,location_altitude,location_speedAccuracy,location_bearingAccuracy,location_latitude,location_altitudeAboveMeanSeaLevel,location_bearing,location_horizontalAccuracy,location_verticalAccuracy,location_longitude,location_speed,magnetometer_time,magnetometer_seconds_elapsed,magnetometer_z,magnetometer_y,magnetometer_x,magnetometeruncalibrated_time,magnetometeruncalibrated_seconds_elapsed,magnetometeruncalibrated_z,magnetometeruncalibrated_y,magnetometeruncalibrated_x,orientation_time,orientation_seconds_elapsed,orientation_yaw,orientation_qx,orientation_qz,orientation_roll,orientation_qw,orientation_qy,orientation_pitch
0.0,1.690766575500601e+18,14.997601416015623,-3.6366529571457944,0.4777458732450011,-0.0153026077154278,1.6907665754993495e+18,14.996349365234376,-0.4294830322265625,1.1789306640625,-0.458319091796875,1.690766575500601e+18,14.997601416015623,0.1773609801439941,8.875172166303992,-4.003753819722235,1.690766575500601e+18,14.997601416015623,-7.198474645614624,-0.2466840267181397,-3.139889192581177,1.6907665754993495e+18,14.996349365234376,-7.390637731552124,-0.3522790670394897,-3.0961810827255247,,,,,,,,,,,,,1.690766575500601e+18,14.997601416015623,-2.8432907104492187,40.960052490234375,-34.25555267333984,1.6907665755033582e+18,15.000358215332032,36.96404647827149,61.474124908447266,94.22943496704102,1.690766575500601e+18,14.997601416015623,1.08494007269072,-0.0177224642810676,0.6300791596103984,-1.5874239583045924,0.3030872780161718,-0.7122345841075818,-1.1446368990009406
0.05,1.6907665755507113e+18,15.047711328125,-8.940888325700163,45.60075696340084,-10.667661615615488,1.6907665755494592e+18,15.046459375,-0.913201904296875,5.586053466796875,-1.609393310546875,1.6907665755507113e+18,15.047711328125,-0.8798870960286307,8.390046938010453,-4.838923722594679,1.6907665755507113e+18,15.047711328125,2.0449789434671404,8.486823415756225,3.7308641379873735,1.6907665755494592e+18,15.046459375,2.0284410953521728,8.569494915008544,3.5044833779335023,,,,,,,,,,,,,1.6907665755507113e+18,15.047711328125,-10.182745361328124,35.76212921142578,-38.273431396484376,1.6907665755501532e+18,15.047153125,26.821612548828124,58.646978759765624,93.85598449707032,1.6907665755507113e+18,15.047711328125,1.045370945131214,-0.0544536261804712,0.6040529820580997,-1.3807348649212288,0.4219122057735572,-0.6693409806710653,-1.0271903456073628
0.1,1.6907665756008215e+18,15.09782138671875,29.75337689261168,7.675259552127718,8.550736623208223,1.6907665755995694e+18,15.096569433593748,2.746258544921875,1.26964111328125,0.535552978515625,1.6907665756008215e+18,15.09782138671875,-3.176271431838572,7.953609928135871,-4.752724747140109,1.6907665756008215e+18,15.09782138671875,-0.5859994739294052,-5.044291019439697,1.315490865521133,1.6907665755995694e+18,15.096569433593748,-0.5976244807243347,-4.729244947433472,1.6089622974395752,,,,,,,,,,,,,1.6907665756008215e+18,15.09782138671875,-22.282128524780273,32.264387130737305,-37.009857177734375,1.6907665756021445e+18,15.09914453125,17.26243896484375,54.914764404296875,94.01322326660156,1.6907665756008215e+18,15.09782138671875,1.425358286763492,-0.0301192185404478,0.6755334620328436,-0.981623218644551,0.4529904688301161,-0.5795256380285713,-0.946731729998318
0.15,1.6907665756509312e+18,15.147931396484376,-1.459473534040451,-4.763548046710492,8.476501817148327,1.6907665756496794e+18,15.146679296874998,-0.2650634765625,0.3247467041015625,0.29547119140625,1.6907665756509312e+18,15.147931396484376,0.2135910241464711,8.062578603090047,-5.426797436153292,1.6907665756509312e+18,15.147931396484376,-0.4913285851478576,-5.015699243545532,-7.623666381835937,1.6907665756496794e+18,15.146679296874998,-0.4708380937576294,-5.092442655563355,-7.673721981048584,,,,,,,,,,,,,1.6907665756509312e+18,15.147931396484376,-7.3007560729980465,33.238339233398435,-41.18843231201172,1.690766575654136e+18,15.151135888671874,37.88953552246094,56.35811157226563,89.75001831054688,1.6907665756509312e+18,15.147931396484376,1.0074703976988613,0.0205776776141775,0.5900695055259468,-1.606719275960422,0.3724027162481421,-0.7129575850571751,-0.965332649890706
0.2,1.6907665757010414e+18,15.19804130859375,-12.022651511161326,-9.070369510424731,11.017337339977622,1.6907665756997893e+18,15.196789404296874,-0.9352996826171877,-0.148614501953125,0.563134765625,1.6907665757010414e+18,15.19804130859375,2.862436017855704,7.482385448709726,-5.648040841869712,1.6907665757010414e+18,15.19804130859375,-1.1332629127427936,0.1951934218406677,-1.8738877058029175,1.6907665756997893e+18,15.196789404296874,-1.1754864737391473,-0.0079974293708801,-1.9536068439483645,,,,,,,,,,,,,1.6907665757010414e+18,15.19804130859375,9.635263061523435,31.40717887878418,-42.78188629150391,1.6907665757061274e+18,15.203127392578123,49.24741821289062,53.297540283203126,88.41144409179688,1.6907665757010414e+18,15.19804130859375,0.6502544724604225,0.0380453319601098,0.4911821840113154,-2.039434663625266,0.3354631198432077,-0.8027622774999683,-0.868383890457302
0.25,1.6907665757511514e+18,15.248151416015626,-10.230660775926111,-6.0484854487693305,10.879587157888412,1.6907665757498993e+18,15.246899316406251,-0.7349945068359375,0.187493896484375,0.530419921875,1.6907665757511514e+18,15.248151416015626,2.7418073002460597,7.498353768405318,-5.686563640105128,1.6907665757511514e+18,15.248151416015626,2.0268855810165407,0.3788578748703003,0.4250757306814193,1.6907665757498993e+18,15.246899316406251,1.9636083126068116,0.4544838964939117,0.3699048161506653,,,,,,,,,,,,,1.6907665757511514e+18,15.248151416015626,9.079486083984374,31.091542053222657,-43.230062866210936,1.6907665757529196e+18,15.249919555664064,47.339942932128906,54.622337341308594,88.79680252075195,1.6907665757511514e+18,15.248151416015626,0.5840115440332687,0.0063178593772736,0.4809606056925224,-2.0204313466644477,0.3588084272383852,-0.7997795294721615,-0.8709804504608669
0.3,1.6907665758012613e+18,15.298261328125,-4.685250053638816,1.1879245378363132,11.792877125369309,1.6907665758000092e+18,15.29700927734375,-0.235205078125,1.0348541259765625,0.753570556640625,1.6907665758012613e+18,15.298261328125,2.101277399872542,8.393490473366976,-4.5773816826897855,1.6907665758012613e+18,15.298261328125,3.9156932830810542,2.101518678665161,1.509263515472412,1.6907665758000092e+18,15.29700927734375,3.8653483390808105,2.080550217628479,1.4887142181396484,,,,,,,,,,,,,1.6907665758012613e+18,15.298261328125,5.622300720214843,37.16266784667969,-38.606378173828126,1.6907665757997112e+18,15.296711328125,43.72557678222656,60.59728393554688,93.55677490234376,1.6907665758012613e+18,15.298261328125,0.5542526187074195,-0.0561722987858628,0.5268403959973575,-1.9986608820785647,0.3391531568123943,-0.7766137667522035,-1.030196602948081
0.35,1.690766575851371e+18,15.34837080078125,-1.0796865006311982,11.502729110252856,12.2139716046834,1.690766575850119e+18,15.347118749999998,0.0002532958984375,2.2736785888671873,1.00882568359375,1.690766575851371e+18,15.34837080078125,0.9269665522035956,9.431512034505603,-2.311254219230488,1.690766575851371e+18,15.34837080078125,6.82007942199707,0.0106665074825286,1.8713887512683869,1.690766575850119e+18,15.347118749999998,6.75614652633667,0.1458222866058349,1.9261803150177,,,,,,,,,,,,,1.690766575851371e+18,15.34837080078125,-1.4753288269042968,45.858157348632815,-27.8158935546875,1.6907665758517048e+18,15.348704785156247,36.63568115234375,69.435888671875,105.02186584472656,1.690766575851371e+18,15.34837080078125,0.4990821911609668,-0.1611388544252669,0.6019398588554491,-1.9739291718996024,0.2984105044402749,-0.7211034247286048,-1.3123018198594143
0.4,1.6907665759014804e+18,15.39848037109375,-5.579560712265968,30.330061337444786,0.7411674432861808,1.6907665759002284e+18,15.397228417968751,-0.633282470703125,4.234356689453125,0.08516845703125,1.6907665759014804e+18,15.39848037109375,0.4343913440041989,9.64460626984477,1.3115908366968296,1.6907665759014804e+18,15.39848037109375,7.051389122009278,-8.384206581115723,2.1271315276622773,1.6907665759002284e+18,15.397228417968751,7.084768581390381,-8.133092880249023,1.77856747508049,1.690766575902259e+18,15.399259033203125,48.428711290471256,0.7400000095614885,24.970225624366776,49.27567565303461,67.46728169452399,226.75779784014537,5.468064371537538,3.000000000000091,-122.87195907941584,1.929999947547824,1.6907665759014804e+18,15.39848037109375,-1.3366180419921876,52.1579833984375,-11.957460021972656,1.6907665759036984e+18,15.400698681640623,36.566455078125,75.60182189941406,123.41661071777344,1.6907665759014804e+18,15.39848037109375,-1.407685473475221,-0.2248623405330102,0.6760035433465154,0.9762804927045294,0.1226313272649406,-0.6865233711527967,-1.4069042446763542
0.45,1.6907665759515904e+18,15.4485904296875,28.912620012613235,32.178006248900886,-21.058735890146497,1.6907665759503383e+18,15.44733828125,2.853466796875,3.8966064453125,-1.7397613525390625,1.6907665759515904e+18,15.4485904296875,-2.0797239442948996,8.670724646374584,4.038176430710256,1.6907665759515904e+18,15.4485904296875,2.483131319284439,2.7900365948677064,3.847666627168655,1.6907665759503383e+18,15.44733828125,2.6158243834972383,2.6623362481594084,3.8932258546352383,,,,,,,,,,,,,1.6907665759515904e+18,15.4485904296875,-11.198712921142578,51.87383270263672,3.2679901123046875,1.6907665759556928e+18,15.4526927734375,24.72007751464844,74.08257751464843,137.76589660644532,1.6907665759515904e+18,15.4485904296875,-2.432792710565459,-0.2621267748320642,0.7782379688643182,1.089285591509079,-0.0032081417299684,-0.5680529630549416,-1.0868242651083613
0.5,1.6907665760017004e+18,15.498700244140624,2.6890795971779524,-3.1156703650468587,-12.81720684576392,1.6907665760004485e+18,15.497448388671875,0.047119140625,0.4144378662109375,-0.91522216796875,1.6907665760017004e+18,15.498700244140624,-2.039831932758987,8.68835382656753,4.0479643082052466,1.6907665760017004e+18,15.498700244140624,-2.0212741017341616,-1.4092662811279295,-1.581088614463806,1.6907665760004485e+18,15.497448388671875,-1.9275366604328157,-1.5478277679532766,-1.54700208902359,,,,,,,,,,,,,1.6907665760017004e+18,15.498700244140624,-13.050429534912109,51.504086303710935,5.896664428710937,1.6907665760024878e+18,15.499487915039063,25.983692169189453,74.58492660522461,136.69497680664062,1.6907665760017004e+18,15.498700244140624,-2.4074191938077556,-0.2598546713195507,0.777096361860542,1.1035968580557862,-0.0077290549665268,-0.5727014313750391,-1.089898096890194
0.55,1.6907665760518103e+18,15.548810400390623,-0.0546253533829748,-12.922008814879655,-10.85081909475684,1.6907665760505585e+18,15.547558300781253,-0.1491729736328125,-0.367816162109375,-0.820062255859375,1.6907665760518103e+18,15.548810400390623,-1.1630956553976235,9.372634898123144,2.5620033108641205,1.6907665760518103e+18,15.548810400390623,-4.433384656906128,1.925050973892212,-1.4896486163139344,1.6907665760505585e+18,15.547558300781253,-4.370935678482056,1.9337810754776,-1.5144106984138488,,,,,,,,,,,,,1.6907665760518103e+18,15.548810400390623,-8.899983215332032,52.77500457763672,-2.2700897216796876,1.6907665760492846e+18,15.546284716796873,30.02565307617187,75.68051452636719,128.58465270996095,1.6907665760518103e+18,15.548810400390623,-2.407778810776587,-0.2261524328865703,0.744812166920209,1.1460513519735602,0.0601209991681344,-0.6239104082486677,-1.2791259242841293
0.6,1.6907665761019205e+18,15.598920361328126,-3.061617185528651,-13.746017038459778,-6.171134215577543,1.6907665761006682e+18,15.597668261718749,-0.3656829833984375,-0.374078369140625,-0.609100341796875,1.6907665761019205e+18,15.598920361328126,-0.6793229669176787,9.726541859540344,-0.2680710653876699,1.6907665761019205e+18,15.598920361328126,-7.346764278411865,0.8933622479438782,-0.2554290190339088,1.6907665761006682e+18,15.597668261718749,-7.308004379272461,0.9840316891670228,-0.2473793218843639,,,,,,,,,,,,,1.6907665761019205e+18,15.598920361328126,-7.270112228393555,50.43357391357422,-17.147979736328125,1.6907665761012805e+18,15.59828037109375,31.339767456054688,72.87562866210938,113.10293579101562,1.6907665761019205e+18,15.598920361328126,-0.0638874434967515,-0.1609944801228409,0.7042426811257497,-0.1867230267876186,0.191901701842081,-0.6621827910865145,-1.449362265000172
0.65,1.6907665761520312e+18,15.649031152343747,-8.025762608772515,-1.5583233167535069,-0.3256459710249304,1.6907665761507791e+18,15.647779150390624,-0.9794921875,0.9597137451171877,-0.4806060791015625,1.6907665761520312e+18,15.649031152343747,-0.0456600244526343,8.984239274744391,-3.7954334331083297,1.6907665761520312e+18,15.649031152343747,-6.759498405456543,-1.1738426566123965,-1.6925512075424194,1.6907665761507791e+18,15.647779150390624,-6.861757278442383,-1.2141810655593872,-1.697680163383484,,,,,,,,,,,,,1.6907665761520312e+18,15.649031152343747,-3.755650329589843,41.57226409912109,-34.33328857421875,1.6907665761532772e+18,15.6502771484375,35.474639892578125,63.10627136230469,95.7035888671875,1.6907665761520312e+18,15.649031152343747,1.1204659120494695,-0.0297804905002348,0.639861057274261,-1.535813255972824,0.3029002724879678,-0.7036983939029826,-1.169549762073308
0.7,1.6907665762021417e+18,15.699141650390624,-17.140628614240885,34.8533952036047,-9.508313067017792,1.69076657620089e+18,15.697889697265628,-1.6419036865234375,4.54227294921875,-1.522100830078125,1.6907665762021417e+18,15.699141650390624,-0.2355886113289976,8.334831597458123,-5.116009368590116,1.6907665762021417e+18,15.699141650390624,0.6547708630561828,3.721670591831207,3.16734099984169,1.69076657620089e+18,15.697889697265628,0.5650873780250549,3.5306546807289125,2.97598797082901,,,,,,,,,,,,,1.6907665762021417e+18,15.699141650390624,-3.0313629150390624,35.67601776123047,-40.728085327148435,1.690766576205273e+18,15.702273046874998,32.389889526367185,58.26661376953125,91.29949645996092,1.6907665762021417e+18,15.699141650390624,1.1075114826448351,0.0159549958056558,0.6176605952291532,-1.521823593589861,0.3604991087205433,-0.697820443076932,-1.0159840939983025
0.75,1.6907665762522516e+18,15.749251513671874,38.3659402957882,11.706317616813182,8.055814983400106,1.6907665762509993e+18,15.747999462890624,3.5926239013671877,1.673309326171875,0.4882843017578125,1.6907665762522516e+18,15.749251513671874,-3.331437122143954,7.957020847170949,-4.626659742147624,1.6907665762522516e+18,15.749251513671874,-0.5900014162063598,0.2121760845184326,2.2570120096206665,1.6907665762509993e+18,15.747999462890624,-0.5562267057597637,0.7685996055603027,2.417357242107391,,,,,,,,,,,,,1.6907665762522516e+18,15.749251513671874,-19.924127960205077,33.15217514038086,-37.521958923339845,1.6907665762520678e+18,15.749067687988282,15.792816162109377,55.0139274597168,94.62761306762695,1.6907665762522516e+18,15.749251513671874,1.5094360580077313,-0.0171500469109266,0.6945974732801085,-0.9506607452505618,0.4324963809460949,-0.5737582853163139,-0.9472573393392024
0.8,1.6907665763023608e+18,15.7993607421875,-0.1435930482854692,-5.725859877704978,9.08445075965166,1.6907665763011087e+18,15.79810869140625,-0.19716796875,0.2455841064453125,0.368011474609375,1.6907665763023608e+18,15.7993607421875,-0.9912884588428212,8.13972380209088,-5.290957822312713,1.6907665763023608e+18,15.7993607421875,0.0372850745916366,-3.6176549315452577,-5.728477478027344,1.6907665763011087e+18,15.79810869140625,0.0115356445312499,-3.8747067630290983,-5.705861759185791,,,,,,,,,,,,,1.6907665763023608e+18,15.7993607421875,-10.316121292114255,33.51142578125,-40.92659912109375,1.690766576298862e+18,15.795862255859376,29.773638916015624,56.57286987304688,90.39232482910155,1.6907665763023608e+18,15.7993607421875,1.243679103369359,0.0328779905965882,0.640602948412239,-1.3896053640869714,0.3729059490793215,-0.6685531167723888,-0.979341810689465
0.85,1.6907665763524705e+18,15.849470703125002,-6.792692172073126,-8.05654470052719,8.640384803881645,1.6907665763512187e+18,15.84821865234375,-0.6033203125,0.02396240234375,0.3478057861328125,1.6907665763524705e+18,15.849470703125002,0.6540492048687487,8.234882445974945,-5.284372131085992,1.6907665763524705e+18,15.849470703125002,0.5196985244750977,3.3319952487945557,-2.508707666397094,1.6907665763512187e+18,15.84821865234375,0.4987084925174713,3.3000072240829468,-2.5978236198425293,,,,,,,,,,,,,1.6907665763524705e+18,15.849470703125002,-2.277400207519531,35.329766845703126,-41.27328643798828,1.6907665763508557e+18,15.847855859375,36.314447021484376,58.276956176757814,90.47666625976562,1.6907665763524705e+18,15.849470703125002,0.8400473561390488,-0.0207008944416152,0.5639910448034647,-1.693914353090714,0.3848917850132506,-0.7296298386346916,-0.9967833480391338
0.9,1.6907665764025807e+18,15.899580615234376,-2.764468921648264,-3.196334619632363,9.495746197102664,1.6907665764013286e+18,15.8983287109375,-0.2285369873046875,0.6096771240234375,0.497540283203125,1.6907665764025807e+18,15.899580615234376,0.5182888814225047,8.47776333229065,-4.896125736145675,1.6907665764025807e+18,15.899580615234376,1.8023277044296264,1.9114549160003664,-0.8670738339424133,1.6907665764013286e+18,15.8983287109375,1.773414945602417,1.9504847764968871,-0.8822700500488281,,,,,,,,,,,,,1.6907665764025807e+18,15.899580615234376,-5.088115692138672,37.504638671875,-38.66194305419922,1.6907665764028467e+18,15.899846630859376,33.28624572753906,60.62137145996094,93.30842895507811,1.6907665764025807e+18,15.899580615234376,0.69280935493258,-0.0950854127622558,0.5456423302599498,-1.6762381882362578,0.4193363773907018,-0.7190313928568568,-1.044649438828025
0.95,1.6907665764526907e+18,15.949690722656248,-1.6601165178942678,5.421387802968621,12.125680508481263,1.6907665764514386e+18,15.948438623046874,-0.1035430908203125,1.4933502197265625,0.8451263427734375,1.6907665764526907e+18,15.949690722656248,0.5352308465362713,8.939452506130337,-3.9819235053515434,1.6907665764526907e+18,15.949690722656248,2.524303674697876,0.5467745125293731,-0.8050821423530579,1.6907665764514386e+18,15.948438623046874,2.496056604385376,0.617851734161377,-0.7876720190048218,,,,,,,,,,,,,1.6907665764526907e+18,15.949690722656248,-6.429689025878906,41.19464111328125,-34.579280090332034,1.6907665764548388e+18,15.951838916015626,32.38701171875,64.92466430664062,98.2179229736328,1.6907665764526907e+18,15.949690722656248,0.5834442811333057,-0.159972805600812,0.5509455269395471,-1.7063790900031723,0.4112256492413876,-0.7081026267339781,-1.1482694114204408
1.0,1.6907665765028006e+18,15.999800634765624,-4.200589607925862,9.80435680372238,9.515381456421016,1.6907665765015483e+18,15.99854873046875,-0.37064208984375,2.0927154541015627,0.737164306640625,1.6907665765028006e+18,15.999800634765624,1.3141401010545342,9.434849654495716,-2.150458107209652,1.6907665765028006e+18,15.999800634765624,5.429939270019531,-4.450037693977356,-1.3953735888004304,1.6907665765015483e+18,15.99854873046875,5.325282192230224,-4.308515024185181,-1.4333063125610352,,,,,,,,,,,,,1.6907665765028006e+18,15.999800634765624,-2.6013938903808596,46.1833999633789,-27.627696228027343,1.6907665765068314e+18,16.003831103515626,38.30042419433594,70.89461975097656,107.56147155761718,1.6907665765028006e+18,15.999800634765624,0.1815479701350876,-0.2134100451272172,0.5719146207175813,-2.175587789696745,0.3216748065866833,-0.7219610188694852,-1.2988918486769576
1.05,1.6907665765529108e+18,16.049910693359372,-13.824578183286189,33.59850152524948,-6.735446465510874,1.6907665765516588e+18,16.0486587890625,-1.39710693359375,4.655667114257812,-0.69022216796875,1.6907665765529108e+18,16.049910693359372,0.311105404497087,9.51673123436868,1.5361085006871749,1.6907665765529108e+18,16.049910693359372,6.911297702789307,-8.247590696811676,8.563253903388977,1.6907665765516588e+18,16.0486587890625,6.975365734100341,-9.516017150878906,8.561583399772644,,,,,,,,,,,,,1.6907665765529108e+18,16.049910693359372,-0.0260417938232421,52.06765899658203,-10.98150177001953,1.6907665765536243e+18,16.050624450683593,36.86528778076172,75.6327018737793,124.21326065063477,1.6907665765529108e+18,16.049910693359372,-1.5740178331097354,-0.220475430005111,0.6822813208834543,0.771133866952842,0.099377399025158,-0.6815083845513327,-1.337919706708187
1.1,1.6907665766030208e+18,16.100020654296877,39.616522657589464,23.7750628875339,-25.292969672033784,1.6907665766017684e+18,16.098768603515627,4.009320068359375,2.88577880859375,-2.16759033203125,1.6907665766030208e+18,16.100020654296877,-2.2875359722213444,8.747711907560824,3.7899263601246473,1.6907665766030208e+18,16.100020654296877,1.0118663251399993,0.6107742309570312,-0.4576018810272216,1.6907665766017684e+18,16.098768603515627,1.1527954190969467,1.0933573246002195,-0.2870234549045563,,,,,,,,,,,,,1.6907665766030208e+18,16.100020654296877,-14.170587921142578,51.5286865234375,3.0157257080078126,1.690766576600415e+18,16.09741513671875,23.836395263671875,74.2678466796875,135.26777038574218,1.6907665766030208e+18,16.100020654296877,-2.526371060494502,-0.2608434038227883,0.7849138741914757,1.0271368309296005,0.0203979318348903,-0.5613099391887948,-1.1019868813953582
1.15,1.6907665766531302e+18,16.150130126953126,1.890553897639662,-7.4286571318447585,-10.40391177808106,1.690766576651878e+18,16.148878076171876,-0.0744110107421875,0.0655426025390625,-0.72578125,1.6907665766531302e+18,16.150130126953126,-1.987549050848931,9.0576124370867,3.1617810172888636,1.6907665766531302e+18,16.150130126953126,-1.778681755065918,-1.850705947726965,-2.811482238769531,1.690766576651878e+18,16.148878076171876,-1.7269530296325684,-1.973792904615402,-2.8080334663391113,,,,,,,,,,,,,1.6907665766531302e+18,16.150130126953126,-10.856788635253906,52.50912322998047,0.4794769287109375,1.6907665766524042e+18,16.14940419921875,28.265353393554687,75.4895751953125,131.7129699707031,1.6907665766531302e+18,16.150130126953126,-2.385282284597902,-0.1941983313716407,0.7751857183130175,1.0120910982910594,-0.0174247488618253,-0.6002264002056656,-1.1796097525584028
1.2,1.6907665767032397e+18,16.2002396484375,-2.5854972037589548,-12.757081521338224,-8.124618470513223,1.6907665767019876e+18,16.198987646484376,-0.3658782958984375,-0.31087646484375,-0.63853759765625,1.6907665767032397e+18,16.2002396484375,-0.8196860714516415,9.60002724031031,1.6839167440984395,1.6907665767032397e+18,16.2002396484375,-4.6833555698394775,1.376335382461548,-1.9916817665100095,1.6907665767019876e+18,16.198987646484376,-4.598789215087891,1.3857975482940674,-2.0190561532974245,,,,,,,,,,,,,1.6907665767032397e+18,16.2002396484375,-4.335114288330078,52.903131103515626,-7.994142150878906,1.6907665767043968e+18,16.201396679687498,34.68607788085937,75.68708190917968,122.76361999511718,1.6907665767032397e+18,16.2002396484375,-2.2937347805295167,-0.149534073731618,0.7345130503447806,1.1122712377357529,0.0359436723554252,-0.6598670611233916,-1.378061342844478
1.25,1.69076657675335e+18,16.25034970703125,-4.542107890926003,-6.787747350695133,-3.32716990776658,1.6907665767520978e+18,16.24909765625,-0.471258544921875,0.398065185546875,-0.4785003662109375,1.69076657675335e+18,16.25034970703125,0.1805010353886522,9.638253335234522,-1.3766581786220802,1.69076657675335e+18,16.25034970703125,-7.936173725128174,0.9685180723667144,-2.704691243171692,1.6907665767520978e+18,16.24909765625,-7.857725811004639,0.9345439851284028,-2.6441616296768187,,,,,,,,,,,,,1.69076657675335e+18,16.25034970703125,-0.7621559143066406,49.64542083740234,-20.558747863769533,1.6907665767563884e+18,16.253388525390626,39.197897338867186,70.04409790039062,105.7925262451172,1.69076657675335e+18,16.25034970703125,0.3147873425802178,-0.0636002326291194,0.6803915721277947,-1.2511362272664084,0.1600133202530759,-0.7098177958545308,-1.418028997529967
1.3,1.6907665768034596e+18,16.300459619140625,-12.164565008862018,26.311190320350526,-1.6949535549020769,1.6907665768022075e+18,16.299207763671877,-1.2203369140625,3.9294219970703126,-0.706683349609375,1.6907665768034596e+18,16.300459619140625,0.7325513568234443,8.395964286908505,-4.940516374275088,1.6907665768034596e+18,16.300459619140625,-3.687716209888458,6.797776508331299,-0.2793875217437744,1.6907665768022075e+18,16.299207763671877,-4.019877272844314,6.623398542404175,-0.5298925876617432,,,,,,,,,,,,,1.6907665768034596e+18,16.300459619140625,1.20767822265625,37.927243041992185,-38.322584533691405,1.6907665768031803e+18,16.30018048095703,38.86447525024414,58.51263046264648,90.93896865844728,1.6907665768034596e+18,16.300459619140625,0.9248627188163748,0.0078656233846859,0.5873748361169862,-1.725114192612601,0.3385449985607234,-0.7326383188588557,-1.0317151100962474
1.35,1.6907665768535698e+18,16.3505697265625,1.1968457739515603,27.896090093862416,-4.912071610200703,1.6907665768523177e+18,16.349317724609374,0.0965087890625,3.283087158203125,-0.9118743896484376,1.6907665768535698e+18,16.3505697265625,-2.4460803597926346,8.178394016746878,-4.75957510987848,1.6907665768535698e+18,16.3505697265625,1.5323147356510165,0.1823518395423889,6.49129056930542,1.6907665768523177e+18,16.349317724609374,1.5730305016040802,0.3940697789192199,6.692859554290772,,,,,,,,,,,,,1.6907665768535698e+18,16.3505697265625,-16.00159034729004,34.374758911132815,-38.441732788085936,1.6907665768499727e+18,16.34697255859375,21.24992980957031,57.070751953125,93.48362731933594,1.6907665768535698e+18,16.3505697265625,1.3533630759618498,-0.0287156294349622,0.6641359933902689,-1.1019878443639044,0.4268860408625307,-0.6105186748060507,-0.9871753243562604
1.4,1.6907665769036795e+18,16.400679736328126,30.8624529931128,-7.905260732412934,13.15079664462626,1.6907665769024276e+18,16.399427636718748,2.8145416259765623,-0.022052001953125,0.8661285400390625,1.6907665769036795e+18,16.400679736328126,-1.8933316570839376,8.22084585422039,-4.849590311846435,1.6907665769036795e+18,16.400679736328126,0.2784338131546974,-5.130793982744217,-6.297016382217407,1.6907665769024276e+18,16.399427636718748,0.3256320431828499,-4.957710862159729,-6.121787357330322,1.6907665769023547e+18,16.399354736328124,49.68688993435353,0.9100000262415872,54.350461924094816,49.27592935726206,68.72546033840626,223.945300222992,12.152317129963077,4.0000000000005125,-122.87192249137232,1.7000000476836556,1.6907665769036795e+18,16.400679736328126,-13.711984634399414,34.33959808349609,-39.26488037109375,1.6907665769019622e+18,16.398962255859374,26.1090087890625,57.453024291992186,92.23457641601564,1.6907665769036795e+18,16.400679736328126,1.4186337010769705,0.023932517757679,0.6779072653784561,-1.2095206627495656,0.3678030801587992,-0.6328245442252715,-0.994906914675305
1.45,1.6907665769537897e+18,16.450789697265627,-10.430125129841564,-9.03014622110784,8.456983929825425,1.6907665769525376e+18,16.4495376953125,-0.9033355712890624,-0.12447509765625,0.369708251953125,1.6907665769537897e+18,16.450789697265627,1.891324706655592,8.141179261596204,-5.086396905136704,1.6907665769537897e+18,16.450789697265627,-0.9784065973944962,-1.8008172988891602,-4.112171411514282,1.6907665769525376e+18,16.4495376953125,-0.9509804740548132,-1.9515887260437013,-4.29423758983612,,,,,,,,,,,,,1.6907665769537897e+18,16.450789697265627,6.1865386962890625,34.84962463378906,-40.982618713378905,1.6907665769539528e+18,16.450952880859376,45.90615539550781,57.52550659179688,90.61619262695312,1.6907665769537897e+18,16.450789697265627,0.83430677983999,0.0451178111915144,0.5570284985679879,-1.92174988820715,0.3043366029853455,-0.7706473841772218,-0.9801554728601444
1.5,1.6907665770038996e+18,16.500899707031248,-8.102028920660018,-6.986344507935047,10.139645807718036,1.6907665770026478e+18,16.499647705078125,-0.5507110595703125,0.117864990234375,0.45732421875,1.6907665770038996e+18,16.500899707031248,2.33215232347846,7.806836949253082,-5.456227762585878,1.6907665770038996e+18,16.500899707031248,0.4289878193289042,2.198757195472717,-0.5830749422311783,1.6907665770026478e+18,16.499647705078125,0.3687781974673271,2.223636198043823,-0.6124696373939514,,,,,,,,,,,,,1.6907665770038996e+18,16.500899707031248,8.334602355957031,32.813114929199216,-42.43355102539063,1.6907665770059428e+18,16.50294287109375,46.27974243164063,55.83134155273437,89.23045349121094,1.6907665770038996e+18,16.500899707031248,0.7177388983122842,0.0334285089736881,0.5204271390873652,-1.9746806382208923,0.3318562692308324,-0.7858984573231323,-0.9208052182530364
1.55,1.6907665770540088e+18,16.551008837890627,-4.04349803489834,0.2342266890257597,10.691751048637627,1.6907665770527567e+18,16.5497568359375,-0.2095947265625,0.9356842041015624,0.598919677734375,1.6907665770540088e+18,16.551008837890627,1.8104561032174529,8.151883377153277,-5.131307767747939,1.6907665770540088e+18,16.551008837890627,2.2355902910232546,2.5790403366088865,0.158728216215968,1.6907665770527567e+18,16.5497568359375,2.1861677408218383,2.5720523834228515,0.1458945110440254,,,,,,,,,,,,,1.6907665770540088e+18,16.551008837890627,4.645742797851563,34.91723480224609,-41.22433013916016,1.6907665770527332e+18,16.549733215332033,42.309471130371094,58.43660736083984,90.92966842651369,1.6907665770540088e+18,16.551008837890627,0.6635071400099847,-0.0234152052858116,0.5295677643270372,-1.9088300476189952,0.3566135853585194,-0.7689087519551421,-0.982074569839802
1.6,1.6907665771041183e+18,16.601118603515623,-1.5234232682859896,8.433543666813968,12.765029616185426,1.690766577102867e+18,16.599866748046875,-0.036962890625,1.82147216796875,0.9157623291015624,1.6907665771041183e+18,16.601118603515623,1.0759766571017355,8.948509789715407,-3.802574946199953,1.6907665771041183e+18,16.601118603515623,4.81101279258728,0.8367576181888581,1.0603347063064574,1.690766577102867e+18,16.599866748046875,4.7387336730957035,0.9219552874565125,1.0513603568077088,,,,,,,,,,,,,1.6907665771041183e+18,16.601118603515623,-0.7829933166503906,40.79656219482422,-35.547166442871095,1.6907665770995246e+18,16.596524560546875,37.41842041015625,64.22562866210937,96.79111938476562,1.6907665771041183e+18,16.601118603515623,0.6201901564951134,-0.1098484279191552,0.5684531133451991,-1.8457204608721056,0.3485639514766428,-0.7362136422639161,-1.1549277590232785
1.65,1.6907665771542282e+18,16.651228271484378,-4.0272417212677,17.319258269920347,5.696385186060964,1.6907665771529764e+18,16.649976269531248,-0.4108001708984375,2.8777801513671877,0.4397735595703125,1.6907665771542282e+18,16.651228271484378,0.8834154920904338,9.670756142528056,-0.8566862449633514,1.6907665771542282e+18,16.651228271484378,7.317507362365722,-3.3804270744323732,-0.4502322345972061,1.6907665771529764e+18,16.649976269531248,7.276634883880615,-3.2227623462677,-0.4310243662446737,,,,,,,,,,,,,1.6907665771542282e+18,16.651228271484378,-1.8166297912597655,49.060305786132815,-22.0108154296875,1.690766577151514e+18,16.648514306640624,36.954278564453126,72.5534423828125,111.00372009277343,1.6907665771542282e+18,16.651228271484378,-0.0808251712145772,-0.200495271571681,0.628479831182632,-1.330904639811468,0.2392515237291355,-0.7101285289371339,-1.4125055696860551
1.7,1.6907665772043382e+18,16.70133798828125,7.8563304050272675,41.606664647541045,-16.29194678646207,1.6907665772030858e+18,16.700085986328126,1.5482757568359375,5.120138549804688,-1.5787841796875,1.6907665772043382e+18,16.70133798828125,-0.9319406435152142,9.220260796684624,2.820911290551424,1.6907665772043382e+18,16.70133798828125,5.530572748184204,-2.250629711151123,6.152238392829895,1.6907665772030858e+18,16.700085986328126,5.680593585968017,-2.2228342056274415,6.022014212608338,,,,,,,,,,,,,1.6907665772043382e+18,16.70133798828125,-6.697794342041016,52.73938751220703,-2.9264144897460938,1.690766577203505e+18,16.7005048828125,30.80772399902344,75.58645324707031,130.20331726074218,1.6907665772043382e+18,16.70133798828125,-2.160058433419569,-0.2347815656810638,0.736292588495097,1.384879148431272,0.0441630156367512,-0.627619303443337,-1.2399790555400694
1.75,1.690766577254448e+18,16.751447900390623,17.580248638065754,4.808388240625262,-18.98988355615616,1.690766577253196e+18,16.750196044921875,0.74884033203125,1.1750762939453123,-1.3947174072265625,1.690766577254448e+18,16.751447900390623,-2.027125245207846,8.694250600295067,4.055721556655466,1.690766577254448e+18,16.751447900390623,-0.3077116072177887,-1.3044415950775146,-0.4304517269134521,1.690766577253196e+18,16.750196044921875,-0.2102492749691009,-1.2546910166740417,-0.3967469811439514,,,,,,,,,,,,,1.690766577254448e+18,16.751447900390623,-14.087974548339844,51.60142517089844,5.091986083984375,1.690766577255495e+18,16.752494921875,24.502182006835938,74.44270935058594,136.79806823730468,1.690766577254448e+18,16.751447900390623,-2.462234714136362,-0.2769724468466147,0.7765913535979948,1.1073209052489443,0.0146713603177607,-0.5655229602235112,-1.090003792077224
1.8,1.690766577304558e+18,16.8015580078125,0.0391265801213681,-11.144235171758533,-12.18682547289133,1.690766577303306e+18,16.800306005859376,-0.140643310546875,-0.2615966796875,-0.8817291259765625,1.690766577304558e+18,16.8015580078125,-1.3709909484672544,9.077859457014798,3.4209347592046853,1.690766577304558e+18,16.8015580078125,-2.125203323364258,1.8354417026042935,-1.8145516157150268,1.690766577303306e+18,16.800306005859376,-2.0868348360061644,1.75965835750103,-1.8208790302276612,,,,,,,,,,,,,1.690766577304558e+18,16.8015580078125,-11.59552001953125,52.47542877197266,2.5249420166015626,1.6907665773022868e+18,16.79928662109375,27.82431411743164,75.60522079467773,133.4480323791504,1.690766577304558e+18,16.8015580078125,-2.3787771987746003,-0.261034312971709,0.7537568676826533,1.1952984313759392,0.0367427069812033,-0.6014811696867332,-1.1844648307882566
1.85,1.690766577354668e+18,16.851668017578124,-3.776608438033462,-13.545079221764803,-9.686014501936436,1.690766577353416e+18,16.85041591796875,-0.4376220703125,-0.398919677734375,-0.7946929931640625,1.690766577354668e+18,16.851668017578124,-0.4727702110308035,9.589738369103667,1.8527552197342363,1.690766577354668e+18,16.851668017578124,-5.3841370105743405,2.323152208328247,-0.3150023341178894,1.690766577353416e+18,16.85041591796875,-5.285955190658569,2.3995747804641723,-0.3535279229283333,,,,,,,,,,,,,1.690766577354668e+18,16.851668017578124,-7.81732177734375,52.990342712402345,-4.796681213378906,1.6907665773490806e+18,16.846080615234378,30.9170166015625,75.80931091308594,126.0033172607422,1.690766577354668e+18,16.851668017578124,-2.405233768076931,-0.2532579432162069,0.7105415870950555,1.2926872058475047,0.132941025991071,-0.6415057585278358,-1.3735456491995175
1.9,1.6907665774047772e+18,16.901777343750002,-2.8381728064757583,-7.0191555920732025,-4.247573039027452,1.6907665774035254e+18,16.90052534179687,-0.3239166259765625,0.3758026123046875,-0.59815673828125,1.6907665774047772e+18,16.901777343750002,-0.1230659264953137,9.601151626617312,-1.576502065340453,1.6907665774047772e+18,16.901777343750002,-8.465320205688476,-3.996695709228516,-1.2258755184710026,1.6907665774035254e+18,16.90052534179687,-8.419353008270264,-3.8420062899589538,-1.1457293033599854,,,,,,,,,,,,,1.6907665774047772e+18,16.901777343750002,-5.987908554077149,48.65337982177734,-22.01047210693359,1.690766577401075e+18,16.898074951171875,33.00151062011719,70.8725799560547,108.02801818847657,1.6907665774047772e+18,16.901777343750002,1.4682041379726258,-0.1300343351464688,0.6678426472380276,-1.135050757641754,0.244118916261551,-0.6876426492390292,-1.3966926783043694
1.95,1.690766577454887e+18,16.951886962890626,-13.753332914431097,30.72226301665604,-6.134511639553308,1.690766577453635e+18,16.950635009765627,-1.3180206298828123,4.3984527587890625,-1.13330078125,1.690766577454887e+18,16.951886962890626,0.974012497921288,8.591485923773647,-4.597107952066361,1.690766577454887e+18,16.951886962890626,-1.758540189266205,3.299763894081116,-0.1277271032333374,1.690766577453635e+18,16.950635009765627,-2.0603291988372803,2.864008331298828,-0.3014555215835569,,,,,,,,,,,,,1.690766577454887e+18,16.951886962890626,1.8840728759765624,38.44640502929688,-38.13084259033203,1.6907665774530678e+18,16.950067968749998,40.54061279296875,60.7471435546875,92.8691864013672,1.690766577454887e+18,16.951886962890626,0.9472184083928024,0.018838784368461,0.5987903646630061,-1.7781061578631203,0.3017465190843859,-0.7407501370480453,-1.0689978745123303
2.0,1.6907665775049969e+18,17.001997021484375,0.8802379141937194,27.189215146991607,-5.120729090588391,1.690766577503745e+18,17.000744970703124,-0.01727294921875,3.244940185546875,-0.8581085205078125,1.6907665775049969e+18,17.001997021484375,-2.067701731876582,8.5212604118073,-4.26804276179552,1.6907665775049969e+18,17.001997021484375,-0.160794985294342,2.511818790435791,6.487873649597168,1.690766577503745e+18,17.000744970703124,-0.0754518270492553,2.6282654762268063,6.777845764160157,,,,,,,,,,,,,1.6907665775049969e+18,17.001997021484375,-15.750000381469729,36.880882263183594,-36.148992919921874,1.6907665775050614e+18,17.002061181640624,21.26573181152344,59.411746215820315,95.68888549804689,1.6907665775049969e+18,17.001997021484375,1.2993562807801975,-0.0604068846264479,0.6583666377148214,-1.1344329723815316,0.413246105902026,-0.623493406831878,-1.0555409954750918
2.05,1.690766577555107e+18,17.052106933593752,32.55881385752953,-6.648941522073149,15.005393298282623,1.690766577553855e+18,17.050855029296876,3.1540985107421875,0.1078948974609375,1.0443389892578123,1.690766577555107e+18,17.052106933593752,-1.630487161758244,8.16273490913093,-5.027078863892853,1.690766577555107e+18,17.052106933593752,-0.3774849317967891,-5.556403541564942,-6.548315477371216,1.690766577553855e+18,17.050855029296876,-0.3792134717106818,-5.524168634414673,-6.326309871673584,,,,,,,,,,,,,1.690766577555107e+18,17.052106933593752,-13.832367324829102,33.95053253173828,-39.84253997802735,1.690766577557054e+18,17.054054003906252,28.406289672851564,57.037646484375,91.22907104492188,1.690766577555107e+18,17.052106933593752,1.3472870514152533,0.0231626183840674,0.6625722195225212,-1.2644974611996702,0.3772608430504641,-0.6432350119745542,-0.9836947796427978
2.1,1.690766577605217e+18,17.102217041015628,-10.542554408191442,-7.794471037963629,9.465391390849351,1.690766577603965e+18,17.10096494140625,-0.8782958984375,-0.0211181640625,0.445855712890625,1.690766577605217e+18,17.102217041015628,2.302520117798224,7.849027973059416,-5.355085134308338,1.690766577605217e+18,17.102217041015628,-1.1770791232585909,-1.785002875328064,-5.026252174377442,1.690766577603965e+18,17.10096494140625,-1.1590252101421357,-1.900383758544922,-5.1936286926269535,,,,,,,,,,,,,1.690766577605217e+18,17.102217041015628,5.6023712158203125,33.740257263183594,-41.90478057861328,1.6907665776038472e+18,17.10084716796875,47.33683013916016,56.03734588623047,89.5927734375,1.690766577605217e+18,17.102217041015628,0.7459514077411964,0.0391286866362964,0.5271079825319156,-1.970632958108852,0.3221702726278124,-0.7844058696662313,-0.9291054883941596
2.15,1.690766577655327e+18,17.152327001953125,-14.238838198857303,-6.984520332021712,11.432852908567783,1.690766577654075e+18,17.151074951171875,-1.0953369140625,0.069427490234375,0.5748626708984375,1.690766577655327e+18,17.152327001953125,3.066326079258918,7.441933026812076,-5.599290664130448,1.690766577655327e+18,17.152327001953125,0.9592699110507964,0.2835411071777344,0.0983410954475402,1.690766577654075e+18,17.151074951171875,0.8811178594827652,0.3821588456630706,0.0082636713981628,,,,,,,,,,,,,1.690766577655327e+18,17.152327001953125,11.123768615722655,31.139728927612303,-43.13147125244141,1.690766577650642e+18,17.147641943359375,49.68053588867187,53.98069458007812,88.52507019042969,1.690766577655327e+18,17.152327001953125,0.6025560542387701,0.028694303574503,0.4805581809639024,-2.071924969793377,0.3356164447291913,-0.8096084678935711,-0.8617464445940476
2.2,1.690766577705437e+18,17.202436962890623,-5.04429034474343,-0.4041296667009592,10.271037209978104,1.690766577704185e+18,17.201185009765624,-0.2183074951171875,0.84998779296875,0.5991607666015625,1.690766577705437e+18,17.202436962890623,2.8258825323188304,8.099751857186556,-4.7327097824022175,1.690766577705437e+18,17.202436962890623,2.962265157699585,0.7517528899013997,1.0307695746421814,1.690766577704185e+18,17.201185009765624,2.9114686965942385,0.6562133952975273,1.031256914138794,,,,,,,,,,,,,1.690766577705437e+18,17.202436962890623,10.704774475097656,35.299337768554686,-40.04822845458985,1.6907665777026363e+18,17.199636328125003,49.15469055175781,58.61769409179688,91.98680725097655,1.690766577705437e+18,17.202436962890623,0.5774130034880383,-0.002333339924889,0.5140506214632817,-2.109194581441767,0.3024755217450702,-0.8023202282032091,-0.9732510719367812
2.25,1.6907665777555464e+18,17.252546386718752,-2.8580190197440976,7.752995936567783,11.936038226591348,1.6907665777542943e+18,17.25129443359375,-0.083782958984375,1.7969329833984375,0.9138336181640624,1.6907665777555464e+18,17.252546386718752,1.9487310690592228,9.072525694771407,-3.0632465256831045,1.6907665777555464e+18,17.252546386718752,5.820956802368164,1.7212395429611207,1.6073782682418822,1.6907665777542943e+18,17.25129443359375,5.746222400665284,1.7833097338676454,1.58975830078125,,,,,,,,,,,,,1.6907665777555464e+18,17.252546386718752,5.284127044677734,43.06429595947266,-32.30761871337891,1.69076657775463e+18,17.25162998046875,43.32727966308594,66.63240661621094,100.23973999023436,1.6907665777555464e+18,17.252546386718752,0.4360283436838017,-0.1026189869103794,0.5670008357306323,-2.146384403128381,0.2803802561050418,-0.7663685662941048,-1.189859756554022
2.3,1.690766577805656e+18,17.302656005859376,-3.4560880517809087,22.76284422688484,6.20123037089467,1.690766577804404e+18,17.30140390625,-0.268634033203125,3.4493927001953124,0.5678131103515625,1.690766577805656e+18,17.302656005859376,1.2453124147351828,9.669729955898523,0.1683337884764559,1.690766577805656e+18,17.302656005859376,6.909526062011719,-4.128813099861145,0.6713009029626846,1.690766577804404e+18,17.30140390625,6.953221321105957,-3.878937566280365,0.67777039706707,,,,,,,,,,,,,1.690766577805656e+18,17.302656005859376,1.843084716796875,51.150352478027344,-16.094462585449218,1.690766577806622e+18,17.3036220703125,40.41313781738281,74.50230712890625,117.0398193359375,1.690766577805656e+18,17.302656005859376,-0.6663940613441042,-0.2094014179968827,0.6354353671435482,0.5110555130245531,0.1725821442640895,-0.7205839348105012,-1.4056881928177116
2.35,1.690766577855766e+18,17.35276591796875,18.422860147567985,33.04373507307052,-12.758266931730509,1.690766577854514e+18,17.351514013671874,2.3762145996093755,4.08338623046875,-1.1428955078125,1.690766577855766e+18,17.35276591796875,-1.2184853003774585,9.109537036304474,3.145248254030496,1.690766577855766e+18,17.35276591796875,3.946048641204834,-3.05152473449707,6.245053952932357,1.690766577854514e+18,17.351514013671874,4.034448528289795,-3.699827194213867,6.2458836197853085,,,,,,,,,,,,,1.690766577855766e+18,17.35276591796875,-3.847055435180664,53.06455535888672,-2.5994049072265626,1.6907665778534124e+18,17.350412475585937,31.823928833007812,75.82401657104492,131.72686767578125,1.690766577855766e+18,17.35276591796875,-2.116503686223816,-0.1971836746614903,0.7474980893774757,1.276757651922447,-0.0228825622304414,-0.6293589283167179,-1.2019277225538314
2.4,1.6907665779058762e+18,17.40287607421875,11.852834692012667,1.7040269712913036,-13.9031870250988,1.690766577904624e+18,17.401623974609375,0.4450927734375,0.97705078125,-0.8733673095703125,1.6907665779058762e+18,17.40287607421875,-2.1059497463716563,8.668342836578487,4.07217549713701,1.6907665779058762e+18,17.40287607421875,-0.1696706175804138,-1.185816752910614,-0.7603277385234832,1.690766577904624e+18,17.401623974609375,-0.0935895055532455,-1.162204349040985,-0.6957232505083084,1.6907665779022628e+18,17.3992626953125,48.380127092823386,1.250000000003913,45.788000176783875,49.27574956834276,67.41869749687612,223.94530527945008,10.127642334597688,3.0000000000001728,-122.87200466755398,0.9999999999999876,1.6907665779058762e+18,17.40287607421875,-11.991410827636718,52.09183959960937,5.238531494140625,1.6907665779002028e+18,17.39720283203125,26.585079956054688,74.92902526855468,137.06012878417968,1.6907665779058762e+18,17.40287607421875,-2.3241048000048377,-0.2334731464424065,0.7780373486938823,1.0936220033498232,-0.0445966119742914,-0.5813839352782584,-1.084305267472022
2.45,1.690766577955986e+18,17.452985986328123,0.9292836846525968,-9.815696411477925,-10.971876150007247,1.690766577954734e+18,17.451733935546876,-0.0676300048828125,-0.118157958984375,-0.7753631591796875,1.690766577955986e+18,17.452985986328123,-1.56679984861508,9.04640925674021,3.4221806676125524,1.690766577955986e+18,17.452985986328123,-2.683080530166626,1.7143521904945374,-1.0165170073509215,1.690766577954734e+18,17.451733935546876,-2.6259828567504884,1.684533166885376,-1.0220369458198548,,,,,,,,,,,,,1.690766577955986e+18,17.452985986328123,-9.17040138244629,52.92013244628906,2.13634033203125,1.6907665779521933e+18,17.449193408203126,29.669821166992183,75.84423522949218,133.37505493164062,1.690766577955986e+18,17.452985986328123,-2.2821760238558526,-0.2147362314464078,0.7609371855169145,1.1434148581180796,-0.0184530918577524,-0.6114785390559994,-1.17645374958981
2.5,1.690766578006096e+18,17.503095947265628,-1.1055463189397752,-12.207058113580942,-9.538943416889904,1.690766578004844e+18,17.50184404296875,-0.2119720458984375,-0.2535400390625,-0.8361846923828125,1.690766578006096e+18,17.503095947265628,-0.9318296281953156,9.59456441563368,1.6233535324056074,1.690766578006096e+18,17.503095947265628,-5.429013442993164,-0.9066587448120116,-1.252436065673828,1.690766578004844e+18,17.50184404296875,-5.350548791885376,-0.784387719631195,-1.218659782409668,,,,,,,,,,,,,1.690766578006096e+18,17.503095947265628,-6.329918289184571,52.84385223388672,-7.542524719238282,1.6907665780041846e+18,17.5011845703125,32.50761413574219,75.60958862304688,123.08338317871092,1.690766578006096e+18,17.503095947265628,-2.4952235127261817,-0.168122998968361,0.7368439255248083,0.9766128617126208,0.0630494140645585,-0.6505408344679158,-1.375675661388127
2.55,1.6907665780562058e+18,17.55320595703125,-5.014910111836791,-1.862882368347049,-8.772900826257466,1.690766578054954e+18,17.551953955078126,-0.550286865234375,0.98477783203125,-1.0709991455078125,1.6907665780562058e+18,17.55320595703125,0.4296843901559524,9.588282208172084,-1.6137445259153842,1.6907665780562058e+18,17.55320595703125,-6.99634895324707,-2.215007948875427,-4.348842287063599,1.690766578054954e+18,17.551953955078126,-7.030196857452393,-2.419658398628235,-4.310579252243042,,,,,,,,,,,,,1.6907665780562058e+18,17.55320595703125,2.6993453979492186,47.77093505859375,-24.340658569335936,1.6907665780561805e+18,17.553180615234375,42.2917724609375,69.95452575683593,105.941259765625,1.6907665780562058e+18,17.55320595703125,1.4043216077531668,-0.0150294113164731,0.6782439012544362,-1.531423877405701,0.1295392230879468,-0.7203317725716522,-1.3869787035109002
2.6,1.6907665781063153e+18,17.603315234375,-13.532034622109231,37.959316328053475,-7.376464704697132,1.6907665781050632e+18,17.60206318359375,-1.2606964111328125,4.943994140625,-1.1430023193359375,1.6907665781063153e+18,17.603315234375,0.433896027461402,8.86899341921687,-4.03615573853761,1.6907665781063153e+18,17.603315234375,-1.659567254781723,11.422292137145996,1.6673149406909942,1.6907665781050632e+18,17.60206318359375,-1.7687884867191317,11.3245587348938,1.420279449224472,,,,,,,,,,,,,1.6907665781063153e+18,17.603315234375,1.2515174865722656,40.27578582763672,-36.012281799316405,1.690766578102976e+18,17.59997589111328,38.777557373046875,62.775535583496094,95.31607437133788,1.6907665781063153e+18,17.603315234375,0.995805625344916,-0.0125012281062308,0.6186970520623604,-1.6866006256875512,0.3001846858448851,-0.7202881111615008,-1.1303852253828524
2.65,1.6907665781564247e+18,17.6534248046875,18.250260653511283,16.624100999563332,4.425960527288019,1.6907665781551729e+18,17.652172900390624,2.5256134033203126,2.1259307861328125,0.3671905517578125,1.6907665781564247e+18,17.6534248046875,-2.982556669038832,8.121319195159078,-4.554319605340957,1.6907665781564247e+18,17.6534248046875,-0.5525761127471924,-3.0678720712661742,4.719573533535003,1.6907665781551729e+18,17.652172900390624,-0.6224527478218078,-2.6983664225786925,4.985668897628784,,,,,,,,,,,,,1.6907665781564247e+18,17.6534248046875,-18.795961380004883,35.10226325988769,-36.62832794189453,1.69076657814977e+18,17.646770068359377,18.58543701171875,57.34090576171875,94.86388244628908,1.6907665781564247e+18,17.6534248046875,1.4609371844618264,-0.02756895157533,0.6854960277027684,-0.9969461682104488,0.425741595755061,-0.5869213842691827,-0.9790028849530472
2.7,1.690766578206535e+18,17.70353481445313,14.738059873946904,-6.109811264252066,14.116974737207888,1.6907665782052828e+18,17.7022828125,0.429498291015625,0.2602203369140625,0.6273193359375,1.690766578206535e+18,17.70353481445313,-0.7360804807976633,8.19345434013903,-5.20560628669381,1.690766578206535e+18,17.70353481445313,0.7672456502914429,-5.75513482093811,-6.11137466430664,1.6907665782052828e+18,17.7022828125,0.7810884118080139,-5.867645645141602,-6.0683714866638185,,,,,,,,,,,,,1.690766578206535e+18,17.70353481445313,-8.319002151489258,33.86751708984375,-41.135232543945314,1.690766578201766e+18,17.698765966796877,32.037088012695314,56.98197021484375,90.32525634765624,1.690766578206535e+18,17.70353481445313,1.3154174784903288,0.0680748778520934,0.6535489858710491,-1.437385853706338,0.3295213003015359,-0.6751384480736446,-0.9894208904391848
2.75,1.6907665782566449e+18,17.75364482421875,-9.75145266272187,-9.920529827871322,8.999559593473077,1.6907665782553928e+18,17.752392724609376,-0.78876953125,-0.189569091796875,0.419976806640625,1.6907665782566449e+18,17.75364482421875,2.154111924315989,8.103479353277088,-5.070165433686375,1.6907665782566449e+18,17.75364482421875,-0.4601891756057739,-0.6236505746841432,-2.628234052658081,1.6907665782553928e+18,17.752392724609376,-0.4365934610366821,-0.7836284399032593,-2.746178388595581,,,,,,,,,,,,,1.6907665782566449e+18,17.75364482421875,9.186060333251952,34.4758804321289,-40.947174072265625,1.690766578253761e+18,17.75076083984375,48.59184265136719,57.214724731445315,90.74881591796876,1.6907665782566449e+18,17.75364482421875,0.8820891160437592,0.0804715420955124,0.5606563986585459,-1.970807103444614,0.2748727402319289,-0.7766538252911517,-0.9728574547845332
2.8,1.6907665783067548e+18,17.80375478515625,-6.95558182230711,-5.374031826840638,10.048886509384513,1.6907665783055027e+18,17.802502783203124,-0.472021484375,0.3024749755859375,0.488421630859375,1.6907665783067548e+18,17.80375478515625,2.0971779140514135,7.942321524497866,-5.35265983608365,1.6907665783067548e+18,17.80375478515625,0.7524552837014198,3.2561010360717773,-0.4018770980183035,1.6907665783055027e+18,17.802502783203124,0.6962370604276658,3.260335683822632,-0.4314479734748602,,,,,,,,,,,,,1.6907665783067548e+18,17.80375478515625,8.142951202392577,33.594984436035155,-42.00325164794922,1.6907665783057551e+18,17.802755224609378,46.26650695800781,56.512472534179686,89.6047119140625,1.6907665783067548e+18,17.80375478515625,0.7882859824715232,0.0458548289498934,0.5393542688203188,-1.9438691277016371,0.3193109321177988,-0.7775022516131267,-0.9440201048656328
2.85,1.6907665783568648e+18,17.85386484375,-4.0797397364592545,2.594359373937249,13.876422703005073,1.690766578355613e+18,17.852612841796876,-0.2858978271484375,1.188287353515625,0.95982666015625,1.6907665783568648e+18,17.85386484375,1.0885740463660285,8.477716336730719,-4.773249005800485,1.6907665783568648e+18,17.85386484375,3.5140292167663576,3.6017311573028565,0.8052212238311768,1.690766578355613e+18,17.852612841796876,3.449383783340454,3.65236554145813,0.7756198704242706,,,,,,,,,,,,,1.6907665783568648e+18,17.85386484375,0.5169540405273437,37.53626403808594,-39.134996032714845,1.690766578352551e+18,17.84955078125,39.30508041381836,60.12508773803711,92.17439651489258,1.6907665783568648e+18,17.85386484375,0.7551333979359116,-0.0417070704798265,0.5612913573558644,-1.790110455284833,0.3595192773666514,-0.7433496961147789,-1.0464618487223998
2.9,1.6907665784069747e+18,17.903974755859373,-0.1123427691102027,7.628138203086256,12.325221084051131,1.690766578405723e+18,17.902722851562498,0.0093475341796875,1.794683837890625,0.950030517578125,1.6907665784069747e+18,17.903974755859373,0.1531641425945958,9.36375063301742,-2.8070119737626613,1.6907665784069747e+18,17.903974755859373,5.438703441619873,-0.1189134810119867,0.8716816693544388,1.690766578405723e+18,17.902722851562498,5.390774822235107,0.0090536028146742,0.9198403127491476,,,,,,,,,,,,,1.6907665784069747e+18,17.903974755859373,-5.144083404541016,43.41367645263672,-31.87244110107422,1.6907665783993457e+18,17.89634560546875,33.02235717773438,66.88370361328126,100.66131591796876,1.6907665784069747e+18,17.903974755859373,0.835183734276811,-0.1417402742083534,0.6179326572380516,-1.6167398547385226,0.3308739792037825,-0.6978867643421505,-1.2789602538005784
2.95,1.690766578457084e+18,17.954083984375,-6.146811382964849,24.92177348835468,4.559932242977917,1.690766578455832e+18,17.95283203125,-0.6800048828125,3.735623168945312,0.3838592529296875,1.690766578457084e+18,17.954083984375,0.435533180116238,9.717087685592174,0.4689089032666757,1.690766578457084e+18,17.954083984375,7.653116703033447,-6.766436004638672,-1.1158463954925537,1.690766578455832e+18,17.95283203125,7.649564456939697,-6.52263560295105,-1.2173914909362793,,,,,,,,,,,,,1.690766578457084e+18,17.954083984375,-3.13406982421875,50.712425231933594,-16.916551208496095,1.6907665784513395e+18,17.948339453124998,35.973486328125,74.07509765625,116.21201782226562,1.690766578457084e+18,17.954083984375,-0.6965799629926843,-0.2078513526597615,0.6669124548642804,0.4687652291639032,0.1661998462084212,-0.6920067604261979,-1.449809467983674
3.0,1.690766578507194e+18,18.00419384765625,27.98615381114721,36.23129251200736,-22.050648961774108,1.6907665785059418e+18,18.002941748046872,2.6773162841796876,4.335153198242187,-1.917864990234375,1.690766578507194e+18,18.00419384765625,-1.9196416284861784,8.756475059731006,3.8050366601383687,1.690766578507194e+18,18.00419384765625,3.854937028884888,0.1941586017608642,6.49086891412735,1.6907665785059418e+18,18.002941748046872,4.022014343738556,0.3605021834373477,6.361050593852997,,,,,,,,,,,,,1.690766578507194e+18,18.00419384765625,-9.433498764038086,52.26357727050781,1.9476226806640624,1.690766578503335e+18,18.000334765625002,27.985623168945313,74.95508422851563,134.9413299560547,1.690766578507194e+18,18.00419384765625,-2.319746128510012,-0.233201832560007,0.7721674455199586,1.1293190865324896,-0.023153800382141,-0.5861418519889325,-1.11349639866009
3.05,1.6907665785573038e+18,18.05430380859375,2.5244966747078297,0.7381926944851873,-14.825344657263756,1.690766578556052e+18,18.05305185546875,0.021673583984375,0.8196258544921875,-1.032379150390625,1.6907665785573038e+18,18.05430380859375,-2.4381857340852915,8.523596862704753,4.178599280687868,1.6907665785573038e+18,18.05430380859375,-1.622226107120514,-1.6415554016828535,-1.241094833612442,1.690766578556052e+18,18.05305185546875,-1.5581371307373046,-1.8009392142295837,-1.169236958026886,,,,,,,,,,,,,1.6907665785573038e+18,18.05430380859375,-14.96107597351074,51.149305725097655,6.348971557617188,1.6907665785553298e+18,18.052329638671875,23.700811767578124,74.0593017578125,137.72820434570312,1.6907665785573038e+18,18.05430380859375,-2.435496123979076,-0.2526001654040326,0.7897366136807065,1.041831356467215,-0.0242752918631228,-0.5580554479867701,-1.054424702622948
3.1,1.6907665786074138e+18,18.10441376953125,0.3892661518290638,-11.634623435146809,-11.49912611732483,1.690766578606162e+18,18.1031619140625,-0.1294891357421875,-0.27821044921875,-0.8135955810546875,1.6907665786074138e+18,18.10441376953125,-1.4781789505497367,9.1082614926368,3.287911839446127,1.6907665786074138e+18,18.10441376953125,-2.6502851009368897,2.544513583183289,-1.6178640365600585,1.690766578606162e+18,18.1031619140625,-2.613905906677246,2.5948691368103027,-1.6319595336914063,,,,,,,,,,,,,1.6907665786074138e+18,18.10441376953125,-10.561093521118163,52.5334976196289,1.264129638671875,1.690766578602124e+18,18.099124084472656,27.943553924560547,75.4096565246582,133.173828125,1.6907665786074138e+18,18.10441376953125,-2.382793159040419,-0.2443794828006233,0.7575809059515761,1.154173942850474,0.0284377378596855,-0.6039268461406577,-1.1934060580328592
3.15,1.6907665786575237e+18,18.154523779296873,-2.8359568839919564,-12.665648503074646,-10.348171186158655,1.690766578656272e+18,18.15327177734375,-0.3607635498046875,-0.2684478759765625,-0.9068115234375,1.6907665786575237e+18,18.154523779296873,-0.7943111944223195,9.637791095324156,1.3720097920405494,1.6907665786575237e+18,18.154523779296873,-6.201777839660645,-0.7039261519908905,-0.5969659179449082,1.690766578656272e+18,18.15327177734375,-6.097580146789551,-0.5669132754206657,-0.5896504908800125,,,,,,,,,,,,,1.6907665786575237e+18,18.154523779296873,-7.570580673217774,52.484744262695315,-7.929519653320312,1.6907665786489206e+18,18.145920458984374,30.928500366210937,75.36539001464844,124.26485595703124,1.6907665786575237e+18,18.154523779296873,-1.4640676089615934,-0.2011548049281832,0.7251613318729102,0.8770699395830575,0.1172347292836456,-0.6464586891688553,-1.3996976668828225
3.2,1.6907665787076337e+18,18.204633740234375,-4.717520571933388,0.5324890370148424,-5.026230781083107,1.6907665787063818e+18,18.2033818359375,-0.539404296875,1.255999755859375,-0.7794403076171875,1.6907665787076337e+18,18.204633740234375,0.193766454627728,9.426881685904265,-2.3739474506089087,1.6907665787076337e+18,18.204633740234375,-7.84348611831665,-2.651175045967102,-3.383973741531372,1.6907665787063818e+18,18.2033818359375,-7.93623104095459,-2.8608592748641968,-3.3269954204559324,,,,,,,,,,,,,1.6907665787076337e+18,18.204633740234375,-1.9420181274414063,47.06184387207031,-25.211134338378905,1.6907665787009152e+18,18.197915087890628,37.47524719238281,69.16864318847657,104.82608032226562,1.6907665787076337e+18,18.204633740234375,1.2972143677318648,-0.0301869620793329,0.6699265026258465,-1.514368385605724,0.1999818255125981,-0.7111143316658068,-1.3163077724807806
3.25,1.6907665787577436e+18,18.254743652343752,-10.836102411783637,44.20629535678387,-7.277905546267627,1.6907665787564918e+18,18.253491552734378,-1.06029052734375,5.4595489501953125,-1.1917266845703125,1.6907665787577436e+18,18.254743652343752,-0.2882863037646468,8.720495750046371,-4.335768273639678,1.6907665787577436e+18,18.254743652343752,-0.5275010379031301,11.397676467895508,2.3390949726104737,1.6907665787564918e+18,18.253491552734378,-0.598551669716835,11.382690906524658,2.0824273109436033,,,,,,,,,,,,,1.6907665787577436e+18,18.254743652343752,-3.6105888366699217,39.067527770996094,-36.653543090820314,1.6907665787529093e+18,18.2499091796875,33.57432861328125,61.579168701171874,94.8265625,1.6907665787577436e+18,18.254743652343752,1.0434131581163637,-0.0394616177466401,0.6176265212901052,-1.507343301528962,0.3591032850109047,-0.6923790048982031,-1.0957749691625511
