seconds_elapsed_rounded,accelerometer_time,accelerometer_seconds_elapsed,accelerometer_z,accelerometer_y,accelerometer_x,accelerometeruncalibrated_time,accelerometeruncalibrated_seconds_elapsed,accelerometeruncalibrated_z,accelerometeruncalibrated_y,accelerometeruncalibrated_x,gravity_time,gravity_seconds_elapsed,gravity_z,gravity_y,gravity_x,gyroscope_time,gyroscope_seconds_elapsed,gyroscope_z,gyroscope_y,gyroscope_x,gyroscopeuncalibrated_time,gyroscopeuncalibrated_seconds_elapsed,gyroscopeuncalibrated_z,gyroscopeuncalibrated_y,gyroscopeuncalibrated_x,location_time,location_seconds_elapsed,location_altitude,location_speedAccuracy,location_bearingAccuracy,location_latitude,location_altitudeAboveMeanSeaLevel,location_bearing,location_horizontalAccuracy,location_verticalAccuracy,location_longitude,location_speed,magnetometer_time,magnetometer_seconds_elapsed,magnetometer_z,magnetometer_y,magnetometer_x,magnetometeruncalibrated_time,magnetometeruncalibrated_seconds_elapsed,magnetometeruncalibrated_z,magnetometeruncalibrated_y,magnetometeruncalibrated_x,orientation_time,orientation_seconds_elapsed,orientation_yaw,orientation_qx,orientation_qz,orientation_roll,orientation_qw,orientation_qy,orientation_pitch
0.0,1.6907667301228326e+18,0.01983251953125,-0.2564157244801521,0.0735989046961069,-0.3904451324805617,1.6907667301215803e+18,0.0185806884765625,-0.9347763061523438,-0.2880935668945312,0.254974365234375,1.6907667301228326e+18,0.01983251953125,-8.945847409412265,-2.8320184924036265,2.8498887878760693,1.6907667301228326e+18,0.01983251953125,-0.0048162890598177,2.1814615726470947,1.5948313474655151,1.6907667301215803e+18,0.0185806884765625,0.01906942948699,2.1793423891067505,1.5494649410247805,1.690766730118392e+18,0.01539208984375,44.56774711608887,-1.0,-1.0,49.27624987995694,63.6063175201416,-1.0,35.31612234455522,13.815363883972168,-122.8713115478114,-1.0,1.6907667301228326e+18,0.01983251953125,-39.84303283691406,-29.91732406616211,18.354904174804688,1.6907667301203195e+18,0.017319580078125,-0.8732757568359375,-7.447586059570312,149.44593811035156,1.6907667301228326e+18,0.01983251953125,0.952834404437192,0.0584806158382801,0.4682252522098105,0.3084062543497625,0.8584151021292059,0.2011683940367173,0.2929580797529696
0.05,1.6907667301528983e+18,0.049898388671875,0.6082559333997966,0.7574615170308947,-1.380288938166499,1.6907667301566572e+18,0.0536571777343749,-0.74713134765625,-0.2907470703125,0.172723388671875,1.6907667301528983e+18,0.049898388671875,-8.60010095809698,-3.320304698172211,3.3284507121312616,1.6907667301528983e+18,0.049898388671875,-0.5629393950104713,1.0873572632670403,2.0890774011611937,1.6907667301566572e+18,0.0536571777343749,-0.6449103385210037,0.9113442063331604,2.11564302444458,,,,,,,,,,,,,1.6907667301528983e+18,0.049898388671875,-37.06821975708008,-31.893901824951172,20.70279541015625,1.6907667301515192e+18,0.048519189453125,2.042108154296875,-9.639178466796874,151.73690185546874,1.6907667301528983e+18,0.049898388671875,0.9216918247754612,0.0709926939857808,0.4590042550090631,0.3694730686547129,0.8530837832956124,0.2370826565203117,0.3455164358128441
0.1,1.6907667302030075e+18,0.1000073730468749,5.185208343213796,-0.2863236637488007,-1.2390544210928678,1.6907667302067663e+18,0.1037661621093749,-0.26734619140625,-0.4090972900390625,0.2662628173828125,1.6907667302030075e+18,0.1000073730468749,-8.273159861921071,-3.938305020638406,3.492686516277194,1.6907667302030075e+18,0.1000073730468749,-1.7296902656555175,-1.491801542043686,1.4288705229759215,1.6907667302067663e+18,0.1037661621093749,-1.7954756498336792,-1.7669495403766633,1.2733231753110883,,,,,,,,,,,,,1.6907667302030075e+18,0.1000073730468749,-33.612918853759766,-34.24413833618164,22.85699462890625,1.6907667302035087e+18,0.1005087890625,5.089581298828125,-11.703973388671876,153.52847900390626,1.6907667302030075e+18,0.1000073730468749,0.8232559143565231,0.1065739790085499,0.4210435566685081,0.3994587163206814,0.8627140417019363,0.2582860631078325,0.4132817777852643
0.15,1.6907667302531164e+18,0.150116455078125,3.4096658201456065,0.6042641749629378,0.3278327550925314,1.690766730256875e+18,0.153875146484375,-0.6322296142578125,-0.2889404296875,0.256976318359375,1.6907667302531164e+18,0.150116455078125,-8.71057769952655,-3.696794487440884,2.528868810764402,1.6907667302531164e+18,0.150116455078125,-1.7690922498703003,-3.723016595840454,-1.0555268347263336,1.690766730256875e+18,0.153875146484375,-1.6670294880867005,-3.5586286067962645,-1.1756986498832702,,,,,,,,,,,,,1.6907667302531164e+18,0.150116455078125,-35.822261047363284,-33.032332229614255,21.344384765625,1.6907667302554964e+18,0.152496240234375,1.41751708984375,-9.440606689453125,150.93459777832032,1.6907667302531164e+18,0.150116455078125,0.7183693520307872,0.1290537871684662,0.3668906362836822,0.2829914261293343,0.8995443288421479,0.1962963866406562,0.3866269384546025
0.2,1.690766730303225e+18,0.200225439453125,-0.3294548910146951,0.5986670856082439,-0.659845630800873,1.6907667303069842e+18,0.2039841796875,-1.0389190673828126,-0.26915283203125,0.088214111328125,1.690766730303225e+18,0.200225439453125,-9.18950185199678,-2.9858058508670324,1.6587364617127178,1.690766730303225e+18,0.200225439453125,0.3504642277956009,-1.194847559928894,-1.175733745098114,1.6907667303069842e+18,0.2039841796875,0.49075767993927,-1.1223220348358154,-1.078727978467941,,,,,,,,,,,,,1.690766730303225e+18,0.200225439453125,-40.343274688720705,-29.483687591552737,18.086526489257817,1.6907667303022868e+18,0.1992868041992187,-2.3930435180664062,-6.329570770263672,148.22043228149414,1.690766730303225e+18,0.200225439453125,0.6938101614480534,0.1144028038466324,0.3475689966276348,0.1786783134921354,0.92071645472667,0.1350427778152283,0.3094222000505154
0.25,1.6907667303533343e+18,0.250334375,-1.6533322061294318,-0.4054485234406589,0.0178399880124629,1.690766730357093e+18,0.25409326171875,-1.073651123046875,-0.33502197265625,0.1958099365234375,1.6907667303533343e+18,0.250334375,-9.330456850702763,-2.7589976798564195,1.2235834856862575,1.6907667303533343e+18,0.250334375,0.929890477657318,-0.1309933668002486,-0.445761302113533,1.690766730357093e+18,0.25409326171875,0.8681515216827392,-0.0721436481922864,-0.5298264741897583,,,,,,,,,,,,,1.6907667303533343e+18,0.250334375,-42.12306671142578,-28.51495056152344,15.194891357421875,1.6907667303490765e+18,0.246076513671875,-3.609326171875,-5.868243408203125,145.583349609375,1.6907667303533343e+18,0.250334375,0.7435065356275273,0.1087150534443255,0.3674209707256439,0.1303988671692001,0.916884708945715,0.111591765699479,0.2851917967458222
0.3,1.6907667304034437e+18,0.3004435546875,-1.2348076357555389,-0.5715155469886958,-0.0795890119563787,1.6907667304072023e+18,0.304202392578125,-1.1455902099609374,-0.2469268798828125,0.0204071044921875,1.6907667304034437e+18,0.3004435546875,-9.478646126124262,-2.3033519947385788,0.98531554383263,1.6907667304034437e+18,0.3004435546875,0.4255143493413925,-0.6736616373062134,-1.294784426689148,1.6907667304072023e+18,0.304202392578125,0.4648662716150283,-0.6717495679855346,-1.224807047843933,,,,,,,,,,,,,1.6907667304034437e+18,0.3004435546875,-43.7137809753418,-26.84976272583008,13.469070434570312,1.6907667304010642e+18,0.2980642578125,-5.310577392578125,-4.005035400390625,143.9048309326172,1.6907667304034437e+18,0.3004435546875,0.779542878774277,0.0897582018581938,0.3825057536916468,0.103638768612315,0.91485310586907,0.0924232867835667,0.2371337401925246
0.35,1.6907667304535526e+18,0.350552587890625,-0.9484135371190308,0.7373985922719537,-0.0226656107641011,1.6907667304573112e+18,0.354311328125,-0.994146728515625,-0.1393218994140625,0.044769287109375,1.6907667304535526e+18,0.350552587890625,-9.56656079022944,-2.0393953241334857,0.6935208867137879,1.6907667304535526e+18,0.350552587890625,1.205854082107544,-0.5369033604860306,0.0752832144498825,1.6907667304573112e+18,0.354311328125,1.2106870651245116,-0.6831178456544876,0.17251877784729,,,,,,,,,,,,,1.6907667304535526e+18,0.350552587890625,-44.88982009887695,-25.879653930664062,11.404351806640625,1.6907667304530522e+18,0.35005234375,-6.33934326171875,-3.2804595947265627,141.79208374023438,1.6907667304535526e+18,0.350552587890625,0.8253003288162857,0.0813196962402583,0.4020151021262422,0.0723607286293062,0.908881039552566,0.0748831077818945,0.2094903551387132
0.4,1.6907667305036616e+18,0.4006615234375,3.653213762841821,1.592482688308507,-0.6349263082128017,1.6907667305074204e+18,0.40442041015625,-0.5154327392578125,-0.0110565185546875,-0.0863250732421875,1.6907667305036616e+18,0.4006615234375,-9.481987487054464,-2.4089951785318555,-0.3837166754355468,1.6907667305036616e+18,0.4006615234375,0.8590605318546295,-3.617328929901123,1.3617439031600953,1.6907667305074204e+18,0.40442041015625,0.9179755926132204,-3.8208428382873536,1.4154414892196656,,,,,,,,,,,,,1.6907667305036616e+18,0.4006615234375,-44.748416900634766,-27.83485107421875,6.063226318359375,1.690766730505041e+18,0.402040869140625,-6.069332885742187,-5.589236450195313,135.49904174804686,1.6907667305036616e+18,0.4006615234375,0.8771956804814197,0.1206960564220233,0.4186035484053224,-0.0407273686742668,0.8990035736469096,0.034411126957272,0.2482376165934663
0.45,1.6907667305537705e+18,0.4507706542968749,7.531851081241965,5.220381012690663,1.0235764178092777,1.6907667305575296e+18,0.4545294433593749,-0.1055938720703125,0.2638885498046875,-0.2401763916015625,1.6907667305537705e+18,0.4507706542968749,-8.822415324819683,-2.939424915703237,-2.9428881202213466,1.6907667305537705e+18,0.4507706542968749,1.99276704788208,-6.920144081115723,1.5095268726348876,1.6907667305575296e+18,0.4545294433593749,2.071674656867981,-7.239230060577393,1.588584351539612,,,,,,,,,,,,,1.6907667305537705e+18,0.4507706542968749,-42.73844680786133,-30.3434757232666,-4.800985717773438,1.6907667305570317e+18,0.4540316406249999,-2.635009765625,-8.326580810546876,120.85963439941406,1.6907667305537705e+18,0.4507706542968749,0.9633705699622646,0.2065062469864719,0.4294105889634123,-0.3223423994783798,0.8748002931295289,-0.0706193590283926,0.3044337066474585
0.5,1.6907667306038797e+18,0.5008796875,3.9246348072043062,9.067613840427995,5.761710008051991,1.6907667306076385e+18,0.5046384277343751,-0.200616455078125,0.6866485595703125,-0.041339111328125,1.6907667306038797e+18,0.5008796875,-6.125534435467124,-3.1640210805267097,-6.771763716526031,1.6907667306038797e+18,0.5008796875,3.895204019546509,-10.6839412689209,4.1789100646972654,1.6907667306076385e+18,0.5046384277343751,4.1028608798980715,-10.819723510742188,4.425543785095215,,,,,,,,,,,,,1.6907667306038797e+18,0.5008796875,-31.354611968994146,-32.130378341674806,-25.153509521484377,1.6907667306038203e+18,0.5008206176757812,10.700496673583984,-9.697750091552734,101.36603927612305,1.6907667306038797e+18,0.5008796875,1.1656768247454858,0.3464812647518338,0.4377714495151579,-0.8354047137842713,0.7866813414525449,-0.2488859271888042,0.3285245755736089
0.55,1.6907667306539884e+18,0.55098837890625,0.8703695772606134,12.259766556652783,8.245382914105653,1.6907667306577477e+18,0.5547474609374999,-0.031610107421875,1.1435699462890625,-0.21546630859375,1.6907667306539884e+18,0.55098837890625,-1.1066472860119396,-1.8261047844241929,-9.44059854418516,1.6907667306539884e+18,0.55098837890625,6.5117027282714846,-8.484753131866455,5.937023067474366,1.6907667306577477e+18,0.5547474609374999,6.696618747711182,-7.935095691680909,5.907894134521484,,,,,,,,,,,,,1.6907667306539884e+18,0.55098837890625,-3.607725143432617,-26.91164665222168,-43.193756103515625,1.690766730650611e+18,0.547610986328125,37.34769287109375,-3.3731842041015625,86.37665710449218,1.6907667306539884e+18,0.55098837890625,1.521841052115461,0.5088887934817026,0.4653356668020808,-1.451850724687412,0.5786439459496745,-0.4264946969892788,0.1879168255196363
0.6,1.6907667307040978e+18,0.601097705078125,-3.3481465571434796,11.076910291217564,-5.934147238832116,1.6907667307078564e+18,0.6048563964843751,-0.1988800048828125,1.20848388671875,-1.9143463134765624,1.6907667307040978e+18,0.601097705078125,1.1018764859336614,1.7404482416299918,-9.529791557663083,1.6907667307040978e+18,0.601097705078125,6.8843639373779295,-0.7472239434719086,5.176578235626221,1.6907667307078564e+18,0.6048563964843751,6.692680358886719,-0.3774669408798218,5.1056334495544435,1.6907667307164188e+18,0.613418701171875,43.63690185546875,0.2300000041723251,10.414077366204005,49.27587748975425,62.67547225952149,285.46875,14.144336536633162,16.0,-122.87166204314946,0.0,1.6907667307040978e+18,0.601097705078125,14.576226806640625,-7.428275108337402,-49.37049102783203,1.6907667307026022e+18,0.599602294921875,53.7951416015625,16.971725463867188,80.9635986328125,1.6907667307040978e+18,0.601097705078125,1.7893352997266416,0.5423774170678046,0.5565661359624314,-1.6857882383867409,0.3610679758482494,-0.5116918989514373,-0.1794256393599277
0.65,1.6907667307542065e+18,0.651206591796875,2.387038227493763,2.945281123611629,-14.699623584951164,1.6907667307529546e+18,0.6499545288085937,0.3062515258789062,0.7595748901367188,-2.3685569763183594,1.6907667307542065e+18,0.651206591796875,0.1654800631060917,4.5109512375444165,-8.674607859096527,1.6907667307542065e+18,0.651206591796875,4.568842792510987,1.1174851179122924,3.283575010299683,1.6907667307529546e+18,0.6499545288085937,4.6951984167099,1.1730624735355375,3.1937790513038635,,,,,,,,,,,,,1.6907667307542065e+18,0.651206591796875,13.45987014770508,10.85880012512207,-49.69777221679688,1.6907667307545933e+18,0.651593359375,51.70286560058594,34.691400146484376,80.9809814453125,1.6907667307542065e+18,0.651206591796875,1.9976920045601372,0.4922868655096588,0.662720188974131,-1.5885201321635862,0.2258072921045314,-0.5155521770004905,-0.4791374114811287
0.7,1.6907667308043156e+18,0.701315576171875,5.010925060788616,-2.1265179903042317,-22.4172935904026,1.6907667307980526e+18,0.69505263671875,0.387384033203125,0.3760009765625,-3.098150634765625,1.6907667308043156e+18,0.701315576171875,-0.9810047168157622,5.71294276227355,-7.903565735837221,1.6907667308043156e+18,0.701315576171875,1.3644707083702088,0.4872705996036529,2.772652292251587,1.6907667307980526e+18,0.69505263671875,1.741704559326172,0.5154346942901611,2.968320941925049,,,,,,,,,,,,,1.6907667308043156e+18,0.701315576171875,9.374078369140625,19.90013198852539,-48.13788757324219,1.6907667308065848e+18,0.703584619140625,47.10718994140625,43.358499145507814,82.63643493652344,1.6907667308043156e+18,0.701315576171875,2.188681514579423,0.4546366407049199,0.7266478329650643,-1.4469506315367562,0.1470134277150411,-0.4931042002256918,-0.6219460134453032
0.75,1.6907667308544246e+18,0.751424609375,11.41654533236742,-5.747437503262757,-16.037111141554117,1.6907667308481615e+18,0.74516162109375,0.9919403076171877,0.000689697265625,-2.4490386962890627,1.6907667308544246e+18,0.751424609375,-1.7147013639102873,5.684769274808168,-7.802134470650553,1.6907667308544246e+18,0.751424609375,-1.0554618805646896,1.629064965248108,-0.2304910957813263,1.6907667308481615e+18,0.74516162109375,-0.7710773825645447,1.3995156645774842,0.1451738640666008,,,,,,,,,,,,,1.6907667308544246e+18,0.751424609375,5.8912712097167965,21.480433654785156,-48.09248352050781,1.6907667308533755e+18,0.7503756713867187,43.86213302612305,43.972129821777344,82.31639099121094,1.6907667308544246e+18,0.751424609375,2.272445401099538,0.4416493863320037,0.7535294545734577,-1.3546403040820247,0.1395080288615341,-0.4663466968311166,-0.6184154507982256
0.8,1.6907667309045335e+18,0.801533544921875,7.302374918518066,-5.183581268081665,-5.642083511674405,1.6907667308982707e+18,0.79527060546875,0.513433837890625,-0.0120361328125,-1.424041748046875,1.6907667309045335e+18,0.801533544921875,-2.3748085098046063,5.1025968708571785,-8.02593469201684,1.6907667309045335e+18,0.801533544921875,-2.0972950935363768,2.779655933380127,-1.67305428981781,1.6907667308982707e+18,0.79527060546875,-2.100461483001709,2.827029800415039,-1.6228070974349975,,,,,,,,,,,,,1.6907667309045335e+18,0.801533544921875,0.9085906982421876,17.443621826171874,-49.84956817626953,1.6907667309001684e+18,0.797168505859375,39.02754516601563,39.660647583007815,80.588671875,1.6907667309045335e+18,0.801533544921875,2.179894745617434,0.4108406204936452,0.7582633420196044,-1.2833995318608191,0.213231903982188,-0.4582657060997857,-0.5473748706277337
0.85,1.6907667309546427e+18,0.851642626953125,4.300341863210499,-3.1838330408123134,2.875835188489556,1.6907667309483796e+18,0.84537958984375,0.158770751953125,0.1382965087890625,-0.551953125,1.6907667309546427e+18,0.851642626953125,-2.8556207848829027,4.563701123218238,-8.195571595327854,1.6907667309546427e+18,0.851642626953125,-1.544776439666748,1.412322747707367,-1.3961846113204956,1.6907667309483796e+18,0.84537958984375,-1.609799861907959,1.5903596878051758,-1.486840271949768,,,,,,,,,,,,,1.6907667309546427e+18,0.851642626953125,-3.930101013183594,12.63194580078125,-51.11128845214843,1.6907667309521577e+18,0.849157666015625,34.357000732421874,34.93980102539062,79.39920043945312,1.6907667309546427e+18,0.851642626953125,2.059305814555499,0.3813705941074027,0.7496794111678922,-1.2355603096841303,0.288618741022938,-0.4570917253784513,-0.4841003186316107
0.9,1.6907667310047516e+18,0.901751611328125,0.053143152001202,-2.7734847041791677,4.577754140037894,1.6907667309984886e+18,0.8954885742187499,-0.292840576171875,0.133038330078125,-0.3967529296875,1.6907667310047516e+18,0.901751611328125,-2.9923842940223215,4.083921406058073,-8.397344226185679,1.6907667310047516e+18,0.901751611328125,-1.1042939126491544,0.033586760610342,-0.0354351468384266,1.6907667309984886e+18,0.8954885742187499,-1.239536452293396,0.2465523600578308,-0.219841656088829,,,,,,,,,,,,,1.6907667310047516e+18,0.901751611328125,-5.812077331542969,8.995177459716796,-51.695437622070315,1.690766731004153e+18,0.90115302734375,32.69549560546875,31.379547119140625,78.84990539550782,1.6907667310047516e+18,0.901751611328125,1.9952590799828511,0.3786379754361856,0.7374118858675255,-1.2284615350395682,0.3297687736929589,-0.4517107448938682,-0.4295824880504577
0.95,1.6907667310548608e+18,0.951860546875,-0.737480980632305,-1.676371487124562,4.0713822424805155,1.6907667310485975e+18,0.94559755859375,-0.360931396484375,0.2130889892578125,-0.45040283203125,1.6907667310548608e+18,0.951860546875,-2.8395459652990103,3.8084678620830177,-8.578706054081916,1.6907667310548608e+18,0.951860546875,-0.2201254598796367,-0.7106766700744629,0.2902207855135202,1.6907667310485975e+18,0.94559755859375,-0.2667233526706695,-0.7062071084976196,0.3728345602750778,,,,,,,,,,,,,1.6907667310548608e+18,0.951860546875,-4.7154685974121096,7.558884811401367,-52.00783843994141,1.6907667310457487e+18,0.942748779296875,33.95483907063802,30.133143107096355,78.58776346842448,1.6907667310548608e+18,0.951860546875,2.00137020767126,0.3964913920875617,0.7314902503823333,-1.2511298106765072,0.3311980527448659,-0.4449588835243848,-0.3988515007987115
1.0,1.6907667311049697e+18,1.001969677734375,-0.2526106038826703,3.4701634850150342,3.472038163619638,1.6907667310987067e+18,0.995706640625,-0.31300048828125,0.730670166015625,-0.5201507568359375,1.6907667311049697e+18,1.001969677734375,-2.744750251056254,3.849748785307109,-8.591020644349456,1.6907667311049697e+18,1.001969677734375,0.4474748760461807,0.5919741779565811,-0.5402655839920044,1.6907667310987067e+18,0.995706640625,0.3330968998372555,0.3774289429187775,-0.4513216510415077,,,,,,,,,,,,,1.6907667311049697e+18,1.001969677734375,-4.035953521728516,7.316488647460938,-52.08628845214844,1.6907667311120476e+18,1.0090475463867188,34.811397552490234,29.922592163085938,78.56464004516602,1.6907667311049697e+18,1.001969677734375,1.997024724133246,0.3981044476102057,0.7291082070749053,-1.261531164495647,0.329153032556106,-0.4489184807283928,-0.4034339945409931
1.05,1.690766731155079e+18,1.05207861328125,1.6282366940307618,4.747904779637754,-0.8182656467270851,1.6907667311488156e+18,1.045815576171875,-0.1375,0.9313385009765623,-0.90567626953125,1.690766731155079e+18,1.05207861328125,-2.967433217282593,4.355837482008934,-8.266592173968553,1.690766731155079e+18,1.05207861328125,1.2667447328567505,0.6817861933261156,-1.163714623451233,1.6907667311488156e+18,1.045815576171875,1.2053652167320252,0.8706744909286499,-1.1255677342414856,,,,,,,,,,,,,1.690766731155079e+18,1.05207861328125,-5.0723625183105465,8.401418685913086,-51.65061645507812,1.6907667311572303e+18,1.05423037109375,32.80812377929688,31.83262634277344,79.13959045410157,1.690766731155079e+18,1.05207861328125,1.9692051840697096,0.3633649592748715,0.7359498752049813,-1.2261002083926198,0.3311632995843003,-0.4652846406238321,-0.460381124699611
1.1,1.6907667312051876e+18,1.102187646484375,1.4784808414927124,1.3436001358121632,-7.145179797437787,1.6907667311989243e+18,1.095924658203125,-0.1321746826171875,0.651397705078125,-1.5527008056640623,1.6907667312051876e+18,1.102187646484375,-2.7790708045223353,5.008456113391817,-7.95831182221651,1.6907667312051876e+18,1.102187646484375,0.9622907519340516,0.2226772189140319,-0.8278187036514282,1.6907667311989243e+18,1.095924658203125,1.0561860918998718,0.1094772711396217,-0.9079058408737184,,,,,,,,,,,,,1.6907667312051876e+18,1.102187646484375,-6.3103584289550785,11.82255859375,-50.910824584960935,1.690766731207433e+18,1.104433056640625,32.3804443359375,35.44752502441406,79.84426879882812,1.6907667312051876e+18,1.102187646484375,1.9366341531393296,0.3375520269487137,0.7347046870377916,-1.2348382620422127,0.3192135966182105,-0.494246231171072,-0.5361067018408328
1.15,1.6907667312552965e+18,1.152296630859375,-0.2728826413476467,-0.1329014561098814,-1.581088807695508,1.6907667312490337e+18,1.146033642578125,-0.3156829833984375,0.548675537109375,-0.938818359375,1.6907667312552965e+18,1.152296630859375,-2.8028284629198907,5.4596405520910025,-7.645715243926643,1.6907667312552965e+18,1.152296630859375,1.794459331035614,-0.1264192193746566,0.4149233147501945,1.6907667312490337e+18,1.146033642578125,1.52612566947937,-0.0279688861221075,0.3289727717638016,,,,,,,,,,,,,1.6907667312552965e+18,1.152296630859375,-6.363427734375,14.777850341796874,-50.32894134521485,1.6907667312576364e+18,1.1546364257812498,32.055911254882815,38.19349060058594,80.47457885742188,1.6907667312552965e+18,1.152296630859375,1.9466153888407551,0.3186692790021868,0.7420649340579246,-1.2193023577906403,0.3034554511923173,-0.5054917691865823,-0.5906021089926666
1.2,1.6907667313054057e+18,1.20240556640625,3.0275350439283253,-1.5926132412725686,-3.1142326750069858,1.690766731299143e+18,1.196142578125,0.0368408203125,0.4920135498046875,-1.026910400390625,1.6907667313054057e+18,1.20240556640625,-2.656433640473634,6.4181561472207305,-6.906398747656345,1.6907667313054057e+18,1.20240556640625,3.092677593231201,0.149366084113717,-1.544798696041107,1.690766731299143e+18,1.196142578125,2.9302666187286377,0.057511493191123,-1.1891105085611344,,,,,,,,,,,,,1.6907667313054057e+18,1.20240556640625,-6.461874389648438,19.022833251953124,-48.91466674804688,1.690766731307839e+18,1.20483916015625,32.33897094726562,43.510589599609375,82.38555297851562,1.6907667313054057e+18,1.20240556640625,1.9812331709014053,0.2854978332536044,0.7542696247677272,-1.2037631719655753,0.25762331681595,-0.531608888990214,-0.7144856462805312
1.25,1.6907667313555144e+18,1.252514599609375,0.270518279529959,-2.268680026712418,-0.2746749608179927,1.6907667313492516e+18,1.24625166015625,-0.1715606689453125,0.571563720703125,-0.5768524169921875,1.6907667313555144e+18,1.252514599609375,-1.9892558255407211,7.924471979552507,-5.36917637885958,1.6907667313555144e+18,1.252514599609375,4.786488819122314,1.4176231741905212,-2.6325230598449707,1.6907667313492516e+18,1.24625166015625,4.7236124038696286,1.1838124513626098,-2.6913732528686523,,,,,,,,,,,,,1.6907667313555144e+18,1.252514599609375,-5.0869598388671875,27.080516052246093,-45.138308715820315,1.690766731353021e+18,1.250020751953125,33.83396911621094,51.47008514404297,86.42916107177734,1.6907667313555144e+18,1.252514599609375,1.9192931811830352,0.2017438938890647,0.7473904944954868,-1.2157662282409276,0.206339523067542,-0.5970374820721658,-0.9450875135931088
1.3,1.6907667314056233e+18,1.30262333984375,0.6248214591100811,-0.3783979609775543,-5.745709305843711,1.6907667313993605e+18,1.2963603027343749,-0.10230712890625,0.8721466064453125,-0.9388458251953123,1.6907667314056233e+18,1.30262333984375,-1.5508685876072943,9.02068760479331,-3.4939935656747223,1.6907667314056233e+18,1.30262333984375,2.961271953582764,0.4180642366409302,-0.9268773317337036,1.6907667313993605e+18,1.2963603027343749,3.301781988143921,0.8272122718393803,-1.088751256465912,,,,,,,,,,,,,1.6907667314056233e+18,1.30262333984375,-3.9841796875,37.11266326904297,-37.81228942871094,1.6907667313982003e+18,1.29520029296875,34.60991516113281,60.4650634765625,93.4107391357422,1.6907667314056233e+18,1.30262333984375,1.9090583013314864,0.1026606271270354,0.7440479818569726,-1.1511652614054757,0.1590304676497799,-0.6403724233616858,-1.1698958980989786
1.35,1.6907667314557322e+18,1.352732275390625,0.7852392247247695,0.8892923043954373,-5.266518319130837,1.6907667314494694e+18,1.34646923828125,-0.031976318359375,1.0487457275390626,-0.81162109375,1.6907667314557322e+18,1.352732275390625,-1.1199487044928966,9.373453111864327,-2.6478742526341974,1.6907667314557322e+18,1.352732275390625,1.4395940780639649,-2.045180916786194,-0.4797903120517731,1.6907667314494694e+18,1.34646923828125,1.4009094476699828,-1.759653961658478,-0.5480778634548187,,,,,,,,,,,,,1.6907667314557322e+18,1.352732275390625,-2.936198425292969,42.50302963256836,-31.884735107421875,1.6907667314484024e+18,1.34540244140625,35.82919921875,65.41137390136718,99.0365966796875,1.6907667314557322e+18,1.352732275390625,1.9314213839807948,0.0841724050728101,0.7379861483314839,-1.1724051470019614,0.1105475633130557,-0.6601286384611675,-1.2730839981458544
1.4,1.6907667315058412e+18,1.4028412109375,-0.8348381136348098,-3.2442609722203017,-1.2564598024673015,1.690766731499578e+18,1.39657822265625,-0.1794891357421875,0.6578216552734375,-0.274932861328125,1.6907667315058412e+18,1.4028412109375,-0.9640153177506476,9.64441068882048,-1.310273960025031,1.6907667315058412e+18,1.4028412109375,4.9836358547210695,-0.9271751284599304,0.9420687437057496,1.690766731499578e+18,1.39657822265625,4.540858936309815,-1.389093428850174,0.7710775941610336,,,,,,,,,,,,,1.6907667315058412e+18,1.4028412109375,0.7043617248535157,45.27196426391602,-27.8578369140625,1.690766731498602e+18,1.3956021484375,39.54768676757813,68.18498840332032,103.1890106201172,1.6907667315058412e+18,1.4028412109375,2.3653630283835634,0.070804324079918,0.740048174910605,-0.8460451857335773,0.021628237758936,-0.6673835078799266,-1.3943353551720905
1.45,1.69076673155595e+18,1.45295029296875,0.9637284197941424,-0.9523737898260354,-3.097617844875306,1.6907667315496873e+18,1.4466872558593749,-0.065069580078125,0.866546630859375,-0.185894775390625,1.69076673155595e+18,1.45295029296875,-1.4279640924723445,9.611004093781114,1.1954546812660805,1.69076673155595e+18,1.45295029296875,3.9483699798583984,-0.381422521919012,0.0577784895896911,1.6907667315496873e+18,1.4466872558593749,4.58128809928894,-0.2999522011727095,0.5435414791107178,,,,,,,,,,,,,1.69076673155595e+18,1.45295029296875,0.0432975769042968,50.30574417114258,-16.797979736328124,1.6907667315487995e+18,1.445799951171875,38.38636474609375,73.33120727539062,114.85904846191406,1.69076673155595e+18,1.45295029296875,-2.3993077922805837,-0.0123629453931335,0.7522652801421046,0.6472673833708595,-0.0791718734235491,-0.6532604114350891,-1.3746095359252823
1.5,1.6907667316060593e+18,1.503059228515625,2.992614946359992,8.474231651033161,-6.496691573083996,1.6907667315997962e+18,1.496796240234375,0.253515625,1.8448883056640624,-0.53428955078125,1.6907667316060593e+18,1.503059228515625,-0.6212182068004645,9.685278939590454,1.2824495672984793,1.6907667316060593e+18,1.503059228515625,-3.303286600112915,1.434455692768097,-1.9493780493736268,1.6907667315997962e+18,1.496796240234375,-2.6707624018192293,1.0992913782596587,-2.195178472995758,,,,,,,,,,,,,1.6907667316060593e+18,1.503059228515625,0.6135910034179688,52.48538589477539,-8.052053833007813,1.690766731598997e+18,1.495997021484375,39.52568054199219,75.15185241699218,122.72608947753906,1.6907667316060593e+18,1.503059228515625,-1.928834240742686,-0.0163817637218457,0.7244377599758621,1.1245477844966538,-0.0785123296977592,-0.6839523752747011,-1.4243408667596626
1.55,1.690766731656168e+18,1.5531680664062502,3.779065300440192,4.36054066203773,-2.534563953666091,1.6907667316499052e+18,1.546905322265625,0.3926483154296875,1.4507110595703123,-0.3398773193359375,1.690766731656168e+18,1.5531680664062502,0.1072026544022886,9.762884508031608,-0.6822854023997392,1.690766731656168e+18,1.5531680664062502,-4.017342758178711,0.3989633321762084,-1.8094487547874452,1.6907667316499052e+18,1.546905322265625,-4.096847152709961,0.8948309779167175,-1.59554842710495,,,,,,,,,,,,,1.690766731656168e+18,1.5531680664062502,4.369221496582031,50.561527252197266,-15.253475952148438,1.6907667316491932e+18,1.54619326171875,43.108892822265624,72.94424438476562,114.48485412597655,1.690766731656168e+18,1.5531680664062502,0.6645156105633034,0.028118330878331,0.7025059204245924,-1.2302433571417717,0.0211941424097146,-0.7100930189587751,-1.490452925520707
1.6,1.690766731706277e+18,1.6032770507812502,-2.2042713112660497,1.178470948410034,4.68041196595788,1.6907667317000143e+18,1.597014306640625,-0.101177978515625,1.0883819580078125,0.2224945068359375,1.690766731706277e+18,1.6032770507812502,1.111797283706367,9.405456971272825,-2.4816070011128484,1.690766731706277e+18,1.6032770507812502,-3.697924518585205,-0.835867029428482,-1.600861954689026,1.6907667317000143e+18,1.597014306640625,-3.7041107177734376,-0.7590009212493897,-1.7242454051971436,,,,,,,,,,,,,1.690766731706277e+18,1.6032770507812502,8.380812835693359,45.95890579223633,-24.841397094726563,1.6907667316993892e+18,1.596389306640625,47.39497375488281,68.16400146484375,105.06783752441406,1.690766731706277e+18,1.6032770507812502,1.1877432721754426,0.1040872350070315,0.6609273438977429,-1.990611100991617,0.0783890847719876,-0.7384842111572004,-1.289342258419317
1.65,1.690766731756386e+18,1.653386083984375,-4.480784881148338,-1.0626011742174626,3.4556327384549377,1.6907667317501233e+18,1.647123291015625,-0.237445068359375,0.7911285400390625,-0.0337188720703125,1.690766731756386e+18,1.653386083984375,2.0870324260643125,8.762323902663587,-3.8522620540761943,1.690766731756386e+18,1.653386083984375,-2.421761417388916,-2.420952320098877,-1.4208695769309998,1.6907667317501233e+18,1.647123291015625,-2.7418293237686155,-2.33076593875885,-1.5045720338821411,,,,,,,,,,,,,1.690766731756386e+18,1.653386083984375,13.511920928955078,39.77931518554688,-32.01084594726562,1.6907667317495864e+18,1.646586474609375,52.52294006347656,61.90223388671875,98.1032958984375,1.690766731756386e+18,1.653386083984375,1.1968666849565637,0.1882407018155111,0.6181321230884489,-2.063935080442284,0.1063923688161943,-0.7552740195533566,-1.1068133310712436
1.7,1.6907667318064952e+18,1.7034951171875,-5.1345881630450485,-6.149907010892629,-1.0657788105663657,1.6907667318002324e+18,1.69723232421875,-0.232684326171875,0.256695556640625,-0.51251220703125,1.6907667318064952e+18,1.7034951171875,2.899870260975957,8.482008714775443,-3.9691075122070303,1.6907667318064952e+18,1.7034951171875,0.5312077224254608,-2.6508008003234864,-0.1574254617094993,1.6907667318002324e+18,1.69723232421875,0.1637920796871185,-2.5166697978973387,-0.2575593695044517,,,,,,,,,,,,,1.6907667318064952e+18,1.7034951171875,19.77234268188477,35.01476821899414,-34.44763336181641,1.6907667317997816e+18,1.69678154296875,58.81031799316406,57.424234008789064,96.14825439453124,1.6907667318064952e+18,1.7034951171875,1.1741160639812795,0.2399057771499691,0.5877623072514522,-2.2022320784803293,0.0799890973830646,-0.7682624057179291,-1.045041257562782
1.75,1.6907667318566042e+18,1.7536041015625,-7.728934677500723,-9.817480255380868,3.9583950379869335,1.690766731850341e+18,1.747341259765625,-0.4876708984375,-0.0940399169921875,0.0989898681640625,1.6907667318566042e+18,1.7536041015625,3.136227006219923,8.824394515938163,-2.884715069681108,1.6907667318566042e+18,1.7536041015625,1.7344281435012818,-0.9750051021575928,1.4989354968070985,1.690766731850341e+18,1.747341259765625,1.8938655614852904,-2.0972748517990114,1.2948867917060851,,,,,,,,,,,,,1.6907667318566042e+18,1.7536041015625,24.58813018798828,35.6322509765625,-30.614547729492188,1.690766731849978e+18,1.7469779785156248,63.4894775390625,58.487847900390626,100.46177673339844,1.6907667318566042e+18,1.7536041015625,1.1009534799674288,0.2490142051546224,0.5827796152075474,-2.4001991543384813,0.0025144473953937,-0.7732080381017072,-1.1206243594968606
1.8,1.690766731906713e+18,1.8037130371093748,-0.1016308209598067,0.1324656365889314,9.694616209160683,1.6907667319004503e+18,1.797450244140625,0.198199462890625,0.8890625,0.68697509765625,1.690766731906713e+18,1.8037130371093748,1.7777517089372128,9.25313454156935,-2.663085236543417,1.690766731906713e+18,1.8037130371093748,1.0089733272790908,3.53279972076416,3.0046828269958494,1.6907667319004503e+18,1.797450244140625,0.8123709619045257,4.042761659622192,2.817331075668335,,,,,,,,,,,,,1.690766731906713e+18,1.8037130371093748,22.643614959716796,39.59279708862304,-26.951821899414064,1.690766731900175e+18,1.7971752441406248,60.634515380859376,62.5418212890625,103.62199096679689,1.690766731906713e+18,1.8037130371093748,1.2455972440000402,0.1920006313793232,0.6391353384272009,-2.1460582116168823,0.0182708205317355,-0.74379261243469,-1.2349335259854084
1.85,1.690766731956822e+18,1.853822021484375,1.4729398735459518,10.735630054757,9.723355572267472,1.6907667319505592e+18,1.84755927734375,0.1305267333984374,2.0941619873046875,0.8180023193359375,1.690766731956822e+18,1.853822021484375,-0.0884627026957925,9.590484452843665,-1.9713196544513103,1.690766731956822e+18,1.853822021484375,1.8205830812454225,3.492402124404907,2.854441738128662,1.6907667319505592e+18,1.84755927734375,1.930507516860962,3.5236368656158445,2.9894402027130127,,,,,,,,,,,,,1.690766731956822e+18,1.853822021484375,11.928218841552734,43.68364944458008,-27.355418395996093,1.6907667319503764e+18,1.847376513671875,49.59988708496094,66.67654113769531,103.35705871582032,1.690766731956822e+18,1.853822021484375,1.746215150765778,0.108317853392066,0.7091775972979392,-1.4998994507475203,0.0349194295491647,-0.6948610824735244,-1.3617136830130605
1.9,1.690766732006931e+18,1.9039310546875,0.192557204875499,1.6501284416520594,3.703363169080615,1.6907667320006682e+18,1.89766826171875,-0.1045501708984375,1.16346435546875,0.2727203369140625,1.690766732006931e+18,1.9039310546875,-1.2224829478723556,9.65996037393868,-1.12836928299658,1.690766732006931e+18,1.9039310546875,1.86951208114624,0.8440068185329437,0.658464579284191,1.6907667320006682e+18,1.89766826171875,1.7504196643829346,1.1313132911920547,1.0472457230091097,1.6907667320004268e+18,1.8974267578125,43.60205078125,1.090000033378601,52.01743664325315,49.27586638373255,62.640621185302734,188.7890625,8.475975680014857,4.0,-122.87168601539253,1.1299999952316284,1.690766732006931e+18,1.9039310546875,1.557457733154297,46.930762481689456,-24.639498901367187,1.690766732000573e+18,1.897573046875,39.46855163574219,69.74864807128907,106.1954559326172,1.690766732006931e+18,1.9039310546875,2.4165779796707403,0.0441092684383113,0.7489217800203998,-0.7348705067006616,0.0371691570630727,-0.6599598047725076,-1.3980338183392047
1.95,1.69076673205704e+18,1.95404013671875,-2.481368136242628,3.3334000927799936,-2.547221862865537,1.690766732050777e+18,1.947777294921875,-0.3666015625,1.3164581298828124,-0.2506622314453125,1.69076673205704e+18,1.95404013671875,-1.1637140211047232,9.73011258686006,-0.0199308566045435,1.69076673205704e+18,1.95404013671875,2.648591184616089,0.2692436650395393,0.149118335545063,1.690766732050777e+18,1.947777294921875,2.5613969802856444,0.1126654028892517,-0.087967050075531,,,,,,,,,,,,,1.69076673205704e+18,1.95404013671875,-1.204486083984375,49.05699996948242,-20.19366455078125,1.6907667320507735e+18,1.9477734863281249,37.41458435058594,71.87301940917969,110.82239685058592,1.69076673205704e+18,1.95404013671875,0.6164655331930373,0.0039834547178943,0.7477712388843389,-0.0216635889159773,-0.0029416608275365,-0.6636556242082401,-1.44630872920618
2.0,1.690766732107149e+18,2.0041491699218748,-1.5148770029629766,10.680378707656264,-10.172412468192578,1.6907667321008865e+18,1.9978862792968752,-0.30003662109375,2.052764892578125,-0.8813385009765625,1.690766732107149e+18,2.0041491699218748,-1.5307867827913164,9.59123684942007,1.3077608629592508,1.690766732107149e+18,2.0041491699218748,2.526116132736206,-0.5658360749483108,1.0002837896347043,1.6907667321008865e+18,1.9978862792968752,2.6233725547790527,-0.4260644912719726,0.8983067035675049,,,,,,,,,,,,,1.690766732107149e+18,2.0041491699218748,-2.0385673522949217,51.26943435668945,-13.685157775878906,1.690766732100973e+18,1.99797314453125,36.336669921875,74.06690979003906,117.45141296386718,1.690766732107149e+18,2.0041491699218748,-2.435980236706999,-0.0438360764859302,0.7583385145832696,0.6944034110127926,-0.0517022556273742,-0.6480297890210138,-1.3631813322060444
2.05,1.6907667321572582e+18,2.054258056640625,-5.186325189188421,11.883792491047382,-14.572120656110048,1.6907667321509957e+18,2.047995263671875,-0.8085235595703125,2.15811767578125,-1.2719268798828125,1.6907667321572582e+18,2.054258056640625,-2.5894129743501546,9.15675050599575,2.3057575068973004,1.6907667321572582e+18,2.054258056640625,1.7968129634857175,1.637260839343071,3.461048984527588,1.6907667321509957e+18,2.047995263671875,1.7621469497680664,0.5874307781457901,3.431480884552002,,,,,,,,,,,,,1.6907667321572582e+18,2.054258056640625,-5.400203704833984,52.36583480834961,-7.407040405273437,1.6907667321511726e+18,2.048172509765626,32.778271484375,75.02955322265625,123.61932678222657,1.6907667321572582e+18,2.054258056640625,-2.3915511652015793,-0.0791473535863073,0.7895790129537792,0.7324278565513427,-0.0914487440682944,-0.600872307102396,-1.2086122260372223
2.1,1.690766732207367e+18,2.104367041015625,19.023691951542496,4.266258216466307,-5.318480444653928,1.6907667322011044e+18,2.098104345703125,1.6233489990234375,1.3278717041015624,-0.1766143798828125,1.690766732207367e+18,2.104367041015625,-3.1516614820736644,8.532844583521484,3.653014090164304,1.690766732207367e+18,2.104367041015625,2.013225531578064,0.0695490837097168,0.4345729082822799,1.6907667322011044e+18,2.098104345703125,2.1772639989852904,1.390340107679367,0.7189972812309862,,,,,,,,,,,,,1.690766732207367e+18,2.104367041015625,-13.039311981201172,51.64683151245117,-1.2299636840820312,1.6907667322013722e+18,2.0983720703125,25.0038330078125,74.19969482421875,129.95753173828126,1.690766732207367e+18,2.104367041015625,-2.3980308008744102,-0.1685373561339273,0.8076329945884673,0.8582608068378248,-0.0901304523278027,-0.5574164050002541,-1.0559561202737786
2.15,1.690766732257476e+18,2.15447607421875,5.441049424224198,-5.052625451533794,-9.037145052406192,1.6907667322512133e+18,2.148213232421875,0.196868896484375,0.357305908203125,-0.520428466796875,1.690766732257476e+18,2.15447607421875,-3.3572259648820753,8.390172610216736,3.807041628672182,1.690766732257476e+18,2.15447607421875,-0.4578786872327328,0.21506227850914,-0.4921102225780487,1.6907667322512133e+18,2.148213232421875,-0.1133493959903716,-0.1607758834958076,-0.3681354669155553,,,,,,,,,,,,,1.690766732257476e+18,2.15447607421875,-15.179805755615234,51.0687858581543,3.3072509765625,1.6907667322515707e+18,2.1485705078125,23.373504638671875,73.69286499023437,134.00543823242188,1.690766732257476e+18,2.15447607421875,-2.3397846494185055,-0.1553355964365809,0.8098337695573761,0.8481458459970288,-0.1237737584018805,-0.5519846782084117,-1.0267207561274243
2.2,1.690766732307585e+18,2.20458505859375,5.634432587755918,-9.445135719997284,-8.824136507976053,1.6907667323013222e+18,2.198322314453125,0.2893218994140625,-0.06002197265625,-0.5706787109375,1.690766732307585e+18,2.20458505859375,-2.836478569778502,8.779159068321585,3.307956147182882,1.690766732307585e+18,2.20458505859375,-2.0287187814712526,0.5205868631601334,-1.228220009803772,1.6907667323013222e+18,2.198322314453125,-1.94160852432251,0.8049341082572937,-1.1630661010742187,,,,,,,,,,,,,1.690766732307585e+18,2.20458505859375,-13.921236801147462,51.47850570678711,2.11893310546875,1.690766732301771e+18,2.1987708984375,24.834222412109376,74.16873779296876,132.48050231933593,1.690766732307585e+18,2.20458505859375,-2.3702455754192435,-0.1488699988229736,0.7980770321892373,0.8618636526439285,-0.0865555233257004,-0.5771425403234801,-1.1100635741661464
2.25,1.6907667323576942e+18,2.2546942871093747,0.3508801901680231,-5.384155745970011,-7.959348880953192,1.6907667323514312e+18,2.2484312500000003,-0.183551025390625,0.371563720703125,-0.59561767578125,1.6907667323576942e+18,2.2546942871093747,-2.2288020144757628,9.32109070575118,1.9784833647616953,1.6907667323576942e+18,2.2546942871093747,-3.77314486503601,-2.2914350032806396,-2.169632411003113,1.6907667323514312e+18,2.2484312500000003,-3.38077335357666,-2.1404576539993285,-1.9543006420135496,,,,,,,,,,,,,1.6907667323576942e+18,2.2546942871093747,-10.54574737548828,52.06370468139649,-2.96119384765625,1.69076673235197e+18,2.248970166015625,28.35716857910156,74.73078308105468,127.08787841796877,1.6907667323576942e+18,2.2546942871093747,-2.4803622833789016,-0.0862040080229318,0.7813687133402357,0.7068843213417245,-0.0544198294612295,-0.6147064163605387,-1.259869088630701
2.3,1.690766732407804e+18,2.3048037597656252,-5.790197266867756,14.091210765876172,-9.1581952102983,1.6907667324015409e+18,2.298540966796875,-0.6796844482421875,2.3639862060546877,-0.97933349609375,1.690766732407804e+18,2.3048037597656252,-1.083166670897156,9.711284435366988,-0.418252176323433,1.690766732407804e+18,2.3048037597656252,-5.495031547546387,7.646006679534912,-2.423573982715607,1.6907667324015409e+18,2.298540966796875,-5.492538547515869,5.673576235771179,-2.751529049873352,,,,,,,,,,,,,1.690766732407804e+18,2.3048037597656252,-4.330484008789062,50.94827041625977,-13.553175354003908,1.69076673240217e+18,2.299169775390625,34.767642211914065,73.375390625,116.01596069335938,1.690766732407804e+18,2.3048037597656252,0.1205229278511234,-0.0260168625318562,0.7394314222398432,-0.3860625214815049,0.0595981595640183,-0.6660025865915096,-1.4332140888356997
2.35,1.6907667324579128e+18,2.354912841796875,-4.741279691635668,24.33925721017599,-1.365115275979936,1.69076673245165e+18,2.3486498535156253,-0.774713134765625,3.453875732421875,-0.3848358154296875,1.6907667324579128e+18,2.354912841796875,-2.304795851484388,9.225325328145622,-2.191620810881555,1.6907667324579128e+18,2.354912841796875,-3.144764447212219,5.042344230413437,5.010386276245117,1.69076673245165e+18,2.3486498535156253,-3.60494647026062,6.570640981197357,4.515860669314861,,,,,,,,,,,,,1.6907667324579128e+18,2.354912841796875,-8.674561309814454,45.73859024047851,-24.74200897216797,1.6907667324523663e+18,2.34936640625,28.811196899414064,67.82560119628906,105.17765502929689,1.6907667324579128e+18,2.354912841796875,1.7781844660965156,-0.0932077754984889,0.7266769292304629,-0.7963635334694217,0.2960784121404968,-0.610254766402716,-1.2361944180970843
2.4,1.690766732503011e+18,2.4000110473632814,20.69725200528204,6.833347744553536,2.129498145932704,1.6907667325017587e+18,2.3987587890625,1.484967041015625,1.5306732177734377,0.0144287109375,1.690766732503011e+18,2.4000110473632814,-3.5566762172069395,8.623767957149445,-3.0039802292395383,1.690766732503011e+18,2.4000110473632814,-1.6437062919139862,-2.9577383641153574,-0.8219811469316483,1.6907667325017587e+18,2.3987587890625,-1.5870947599411012,-2.569724750518799,-0.4582173019647598,,,,,,,,,,,,,1.690766732503011e+18,2.4000110473632814,-21.87447166442871,38.74943161010742,-28.908588409423828,1.6907667325025644e+18,2.3995642578125,16.032769775390626,60.50708923339844,100.9455352783203,1.690766732503011e+18,2.4000110473632814,1.8472166585696792,-0.0547443909602097,0.7493500893670595,-0.7009033812239553,0.3460710493298702,-0.5614889116331704,-1.0745880280107512
2.45,1.690766732548109e+18,2.445108984375,-1.0246017568820716,-0.0586384176427126,8.544397307958006,1.690766732551868e+18,2.44886787109375,-0.4807891845703125,0.714471435546875,0.457720947265625,1.690766732548109e+18,2.445108984375,-1.8740581930691005,8.782331151712537,-3.88734581777364,1.690766732548109e+18,2.445108984375,0.1906135112047195,-4.669878625869751,-2.8140540599822996,1.690766732551868e+18,2.44886787109375,0.3357657514512539,-4.405228853225708,-2.7577227115631104,,,,,,,,,,,,,1.690766732548109e+18,2.445108984375,-17.681282424926756,36.76416015625,-33.63390960693359,1.6907667325527608e+18,2.44976103515625,24.62279052734375,59.664407348632814,95.51327209472656,1.690766732548109e+18,2.445108984375,1.6033695650230766,0.0153955258698077,0.7122741591842746,-1.1274772893416882,0.2959686427153687,-0.6350873517142788,-1.1101068355595405
2.5,1.6907667325982182e+18,2.4952181152343753,-4.962300569868684,-9.296828604962826,6.665572338878512,1.6907667326019768e+18,2.49897685546875,-0.4802642822265625,-0.117041015625,0.2754150390625,1.6907667325982182e+18,2.4952181152343753,-0.3817371463903504,9.052230159526466,-3.743448861944675,1.6907667325982182e+18,2.4952181152343753,0.8448436737060547,-1.8489440202713012,-1.017236077785492,1.6907667326019768e+18,2.49897685546875,0.7870463907718659,-1.8741986513137816,-0.8071426451206207,,,,,,,,,,,,,1.6907667325982182e+18,2.4952181152343753,-5.336466598510742,38.53672866821289,-36.044064331054685,1.6907667326029586e+18,2.499958740234375,35.46993408203125,61.762265014648435,94.81625061035156,1.6907667325982182e+18,2.4952181152343753,1.3810104822964566,0.038319752957357,0.6800956573385024,-1.4711536581580649,0.2382733326516168,-0.6920929114087976,-1.1762297385006333
2.55,1.6907667326483272e+18,2.5453270507812498,-0.7902025133412145,-12.936222750575542,7.325086165828703,1.6907667326520858e+18,2.549085888671875,-0.032659912109375,-0.346246337890625,0.3795623779296875,1.6907667326483272e+18,2.5453270507812498,-0.108251590806432,9.078355365386008,-3.704634270381927,1.6907667326483272e+18,2.5453270507812498,-0.7667652919888497,-2.8241229593753814,1.4761999368667602,1.6907667326520858e+18,2.549085888671875,-0.8688619941473007,-2.50329704284668,1.4460773706436156,,,,,,,,,,,,,1.6907667326483272e+18,2.5453270507812498,0.3858009338378905,39.96994552612305,-34.955857849121095,1.6907667326531548e+18,2.5501548828125,39.96493835449219,62.56255187988281,95.6272216796875,1.6907667326483272e+18,2.5453270507812498,1.447701255625639,0.0832820160132452,0.6853645424797499,-1.5419282826819278,0.1886252796836218,-0.697875697086879,-1.1831785464291995
2.6,1.690766732698436e+18,2.595435986328125,0.0168419241923466,-8.015112035420538,6.819519038009046,1.690766732702195e+18,2.599194873046875,-0.067535400390625,0.1663238525390625,0.3083526611328125,1.690766732698436e+18,2.595435986328125,-0.5112146321873366,8.896807308815719,-4.0892313782605525,1.690766732698436e+18,2.595435986328125,-0.416782858967781,2.134225606918335,0.3763169288635254,1.690766732702195e+18,2.599194873046875,-0.2663423120975495,2.2599090814590452,0.3545637845993042,,,,,,,,,,,,,1.690766732698436e+18,2.595435986328125,1.7131080627441406,38.88658676147461,-36.088232421875,1.690766732703353e+18,2.60035322265625,39.50331115722656,61.11348876953125,94.01467895507812,1.690766732698436e+18,2.595435986328125,1.5537228317819336,0.1034329876872232,0.6969050345972485,-1.4470408854890622,0.2005708173269137,-0.6805473809890941,-1.1366981341988858
2.65,1.6907667327485448e+18,2.6455448242187503,-0.3099382311877608,0.8937974484080076,9.78046622504711,1.690766732752304e+18,2.649303857421875,-0.150408935546875,1.283294677734375,0.6856292724609375,1.6907667327485448e+18,2.6455448242187503,-1.0990495773316176,9.060574443310498,-3.5622455563849207,1.6907667327485448e+18,2.6455448242187503,2.47787082195282,3.4665921211242674,-0.5187635809183121,1.690766732752304e+18,2.649303857421875,2.7069843769073487,3.4351565837860107,-0.6223378688097,,,,,,,,,,,,,1.6907667327485448e+18,2.6455448242187503,-2.655073547363281,38.558675384521486,-36.37645721435547,1.6907667327535478e+18,2.6505478515625,34.34886169433594,61.86754760742187,95.01641540527343,1.6907667327485448e+18,2.6455448242187503,1.5992890177094936,0.0399400891780741,0.7090113016555201,-1.2661834486493893,0.2308887304047397,-0.6643988428517519,-1.1798263530243271
2.7,1.690766732798654e+18,2.69565380859375,-0.4422322959890216,10.639703582918644,7.079254613013863,1.6907667328024128e+18,2.69941279296875,-0.1481414794921875,2.202056884765625,0.450689697265625,1.690766732798654e+18,2.69565380859375,-1.0194876871909202,9.56101379440069,-1.8531911561595649,1.690766732798654e+18,2.69565380859375,3.947681856155396,-2.147457146644592,-0.8908171951770782,1.6907667328024128e+18,2.69941279296875,4.004934406280517,-2.9007700443267823,-0.9243366062641144,,,,,,,,,,,,,1.690766732798654e+18,2.69565380859375,-6.9265789031982425,42.81375350952148,-30.73945007324219,1.690766732803747e+18,2.7007470703125,31.67291259765625,67.03110046386719,102.17695007324218,1.690766732798654e+18,2.69565380859375,1.7421354185799398,-0.0477592104062818,0.7167723922291307,-1.0548317104671605,0.193103765865871,-0.6675410222326053,-1.3527736143564533
2.75,1.690766732848763e+18,2.7457627441406247,-7.431123346601725,22.627923013837336,-4.986805353185851,1.6907667328525215e+18,2.749521630859375,-1.0527130126953126,3.5045562744140626,-0.885406494140625,1.690766732848763e+18,2.7457627441406247,-0.7656053682589531,9.745752405253649,0.1371104594135656,1.690766732848763e+18,2.7457627441406247,4.757783365249634,-8.391414308547974,2.880829870700836,1.6907667328525215e+18,2.749521630859375,4.64956636428833,-7.964873170852661,3.6488770277239384,,,,,,,,,,,,,1.690766732848763e+18,2.7457627441406247,-2.078154754638672,48.33470687866211,-21.743565368652344,1.6907667328539428e+18,2.750942919921875,38.57984619140625,72.39921264648437,112.02254333496094,1.690766732848763e+18,2.7457627441406247,-0.6581277578868893,-0.0094221612982023,0.7306338657749236,-0.0192121602879241,-0.0018767210076247,-0.6782744217175909,-1.4727640078372066
2.8,1.6907667328988718e+18,2.795871875,10.368522367887495,20.53474358022451,-18.787707955907585,1.690766732902631e+18,2.799630615234375,1.9850616455078125,2.4802032470703126,-1.5941131591796875,1.6907667328988718e+18,2.795871875,-3.3178677095097298,8.877035622088313,2.261581534431875,1.6907667328988718e+18,2.795871875,3.2345979690551756,7.183655953407287,4.421679413318634,1.690766732902631e+18,2.799630615234375,3.086953353881836,6.790549802780151,4.026169604063034,,,,,,,,,,,,,1.6907667328988718e+18,2.795871875,-4.89593391418457,51.75255355834961,-10.321150207519532,1.6907667329041403e+18,2.801140380859375,29.11033020019531,74.39141235351562,123.60801391601562,1.6907667328988718e+18,2.795871875,-2.500338235591592,-0.0640141362653256,0.8100864197227337,0.574447832149831,-0.1107772893923876,-0.566287982057322,-1.1405696223170256
2.85,1.6907667329489805e+18,2.8459806152343754,21.86787083733916,-2.0518747788000105,-15.284174700732228,1.6907667329527396e+18,2.8497396972656253,0.851953125,0.54373779296875,-1.077166748046875,1.6907667329489805e+18,2.8459806152343754,-3.467563239388764,8.496945587144493,3.439579896894098,1.6907667329489805e+18,2.8459806152343754,-0.6258704558014869,-3.237178778648377,-0.9726323492825032,1.6907667329527396e+18,2.8497396972656253,-0.8604197800159454,-2.9693388819694517,-1.0439528048038482,,,,,,,,,,,,,1.6907667329489805e+18,2.8459806152343754,-15.596365356445313,51.16557235717774,0.9248260498046876,1.6907667329543368e+18,2.85133681640625,22.917413330078126,73.82821960449219,132.36406860351562,1.6907667329489805e+18,2.8459806152343754,-2.40630886699302,-0.1407614206671518,0.815125276683912,0.7800479037841592,-0.1102794248400128,-0.5500980148977698,-1.0484033142170943
2.9,1.6907667329990897e+18,2.896089697265625,4.359043701478242,-7.456296366302967,-8.157527871233224,1.6907667330028488e+18,2.8998486328125,0.16002197265625,0.098516845703125,-0.521636962890625,1.6907667329990897e+18,2.896089697265625,-2.912137738779187,8.964254237527252,2.67962448799476,1.6907667329990897e+18,2.896089697265625,-2.085016679763794,1.3081044912338258,-1.8394506454467776,1.6907667330028488e+18,2.8998486328125,-2.1245793104171753,1.2738558173179626,-1.947345757484436,1.6907667330004357e+18,2.897435546875,46.96270751953125,0.7300000190734863,22.861595963421895,49.27585733127712,66.00127792358398,191.6015625,4.590695559244442,4.0,-122.87171191547333,1.1299999952316284,1.6907667329990897e+18,2.896089697265625,-13.640597152709962,51.7673957824707,-1.0275436401367188,1.6907667330045343e+18,2.901534130859375,25.99573974609375,74.64309997558594,128.36411743164064,1.6907667329990897e+18,2.896089697265625,-2.4307224045547384,-0.1088226138184999,0.8005425191066617,0.7447802344359711,-0.0853073316271889,-0.5826761923217803,-1.155037917129794
2.95,1.6907667330491986e+18,2.946198583984375,0.5231029306407272,-7.287563835259675,-8.480592768949865,1.6907667330529577e+18,2.9499576171874997,-0.1968353271484375,0.41708984375,-0.8511993408203125,1.6907667330491986e+18,2.946198583984375,-1.7163130953428147,9.510849307497145,1.5336969126974045,1.6907667330491986e+18,2.946198583984375,-3.6928497314453126,-1.6504203602671623,-2.74676456451416,1.6907667330529577e+18,2.9499576171874997,-4.0119309425354,-1.752441656589508,-2.7379307746887207,,,,,,,,,,,,,1.6907667330491986e+18,2.946198583984375,-8.641879653930664,52.35533981323242,-5.936180114746094,1.6907667330547323e+18,2.9517322265624997,31.989718627929687,74.952978515625,122.6851318359375,1.6907667330491986e+18,2.946198583984375,-2.4871670195215674,-0.0715586819613991,0.765472611769791,0.7043895403674352,-0.0365604532240897,-0.6374931958381873,-1.332434590352737
3.0,1.6907667330993075e+18,2.9963076171875,-13.430636499313712,17.751897173460126,-11.616037275716064,1.6907667331030666e+18,3.000066455078125,-1.62967529296875,3.466546630859375,-1.2827972412109374,1.6907667330993075e+18,2.9963076171875,-1.0506322994215789,9.64124152803898,-1.162415601624907,1.6907667330993075e+18,2.9963076171875,-7.0347248077392575,8.987711590528487,-0.305682310461998,1.6907667331030666e+18,3.000066455078125,-7.058595371246338,9.955020093917849,-0.0457915544509887,,,,,,,,,,,,,1.6907667330993075e+18,2.9963076171875,-1.9092079162597655,50.36174545288086,-16.557716369628906,1.6907667331049308e+18,3.00193076171875,36.409603881835935,71.36618041992188,109.82706909179689,1.6907667330993075e+18,2.9963076171875,1.0168650049460992,-0.0112424224004781,0.7322039546806519,-0.7061881445818228,0.1019526026231362,-0.6676964411900889,-1.4001338746255283
3.05,1.6907667331494167e+18,3.0464166015625,-3.874738089778423,30.05846674853325,-3.0300652053800223,1.6907667331531756e+18,3.050175439453125,0.310577392578125,3.4788909912109376,-0.511212158203125,1.6907667331494167e+18,3.0464166015625,-3.422848133158385,8.651913329111933,-2.8518896063044665,1.6907667331494167e+18,3.0464166015625,-2.1331869550049305,4.882443261146546,6.279814195632935,1.6907667331531756e+18,3.050175439453125,-1.6411209940910338,3.669317455589771,6.301030015945434,,,,,,,,,,,,,1.6907667331494167e+18,3.0464166015625,-13.349534225463866,42.12120971679688,-28.62071075439453,1.6907667331551276e+18,3.05212744140625,19.17491760253906,61.721282958984375,100.90919799804688,1.6907667331494167e+18,3.0464166015625,1.7730396483511046,-0.0742813498566652,0.7378346035802462,-0.7263043426536989,0.3580969116696347,-0.5633103316267956,-1.0900644606135512
3.1,1.6907667331995254e+18,3.0965255859375,27.69161030832469,7.350247728900909,1.7223582207259536,1.6907667332032845e+18,3.10028447265625,1.5059967041015625,1.4368255615234375,-0.028619384765625,1.6907667331995254e+18,3.0965255859375,-3.665976710624844,8.140146995939016,-3.8554423207736015,1.6907667331995254e+18,3.0965255859375,-0.414018052816391,-8.540412902832031,-4.8300456766039135,1.6907667332032845e+18,3.10028447265625,-0.4190534472465515,-8.698807621002198,-5.49474995136261,,,,,,,,,,,,,1.6907667331995254e+18,3.0965255859375,-26.659696960449217,33.35030288696289,-31.54854736328125,1.6907667332053248e+18,3.1023248046875,14.55369873046875,55.60493469238281,96.98804626464845,1.6907667331995254e+18,3.0965255859375,1.837455699931099,0.0163354975693444,0.7566831109114475,-0.8259161725658994,0.3358061123390368,-0.5558229519146844,-0.980631707205982
3.15,1.6907667332496346e+18,3.146634423828125,-12.507619269257782,-0.9039311875051258,10.63973327663064,1.6907667332533934e+18,3.1503934570312504,-1.3482635498046875,0.4858306884765625,0.6600372314453125,1.6907667332496346e+18,3.146634423828125,0.595029517753783,8.495046826238035,-4.7676545467942955,1.6907667332496346e+18,3.146634423828125,-0.81212597489357,-3.4231125593185423,-5.819983291625976,1.6907667332533934e+18,3.1503934570312504,-0.9773149967193604,-3.101630520820618,-5.367134857177734,,,,,,,,,,,,,1.6907667332496346e+18,3.146634423828125,-6.311642456054687,34.88161163330078,-38.69604034423829,1.6907667332555218e+18,3.1525216796875,38.78898620605469,57.68760375976562,91.05566101074218,1.6907667332496346e+18,3.146634423828125,1.2134182953604855,0.092726874825597,0.6347330720436885,-1.688731930125741,0.2559025065882354,-0.7215295809905976,-1.048017890022726
3.2,1.6907667332997435e+18,3.196743505859375,-10.552789854097366,-10.607018287891147,13.01879511841774,1.6907667333035023e+18,3.2005023925781253,-0.6716705322265625,-0.292291259765625,0.7503631591796875,1.6907667332997435e+18,3.196743505859375,2.3033287015412744,7.783415975463986,-5.4839726786017415,1.6907667332997435e+18,3.196743505859375,-3.373814010620117,-1.7222227215766908,0.2624842435121536,1.6907667333035023e+18,3.2005023925781253,-3.3119542598724365,-1.3674090372398495,0.4689737856388092,,,,,,,,,,,,,1.6907667332997435e+18,3.196743505859375,10.126174926757812,32.501852416992186,-40.81736602783203,1.6907667333057172e+18,3.2027172363281253,50.81092834472656,53.42209167480469,88.915087890625,1.6907667332997435e+18,3.196743505859375,1.0312029079524123,0.1547409335181541,0.5657874270447608,-1.9686506854055497,0.2497358159416454,-0.7698720590886297,-0.9182174183986552
3.25,1.6907667333498524e+18,3.24685244140625,-3.444120521385371,-6.8679379087412356,11.238636742891073,1.6907667333536115e+18,3.250611474609375,-0.113421630859375,0.1764373779296875,0.4820526123046875,1.6907667333498524e+18,3.24685244140625,1.7005729729929566,7.382003049601911,-6.2173075285661215,1.6907667333498524e+18,3.24685244140625,0.5942173063755035,2.6826288223266603,0.9828846335411072,1.6907667333536115e+18,3.250611474609375,0.9352681398391725,2.84352126121521,0.9364045500755313,,,,,,,,,,,,,1.6907667333498524e+18,3.24685244140625,12.460334014892576,26.83772811889649,-44.16979827880859,1.6907667333559137e+18,3.252913623046875,49.63172607421875,48.94739685058594,85.80979919433594,1.6907667333498524e+18,3.24685244140625,1.1507000636637137,0.1830004710048888,0.5761867442250543,-1.8370526454176657,0.2847739166091591,-0.7436290093023297,-0.8523513258948643
