seconds_elapsed_rounded,accelerometer_time,accelerometer_seconds_elapsed,accelerometer_z,accelerometer_y,accelerometer_x,accelerometeruncalibrated_time,accelerometeruncalibrated_seconds_elapsed,accelerometeruncalibrated_z,accelerometeruncalibrated_y,accelerometeruncalibrated_x,gravity_time,gravity_seconds_elapsed,gravity_z,gravity_y,gravity_x,gyroscope_time,gyroscope_seconds_elapsed,gyroscope_z,gyroscope_y,gyroscope_x,gyroscopeuncalibrated_time,gyroscopeuncalibrated_seconds_elapsed,gyroscopeuncalibrated_z,gyroscopeuncalibrated_y,gyroscopeuncalibrated_x,location_time,location_seconds_elapsed,location_altitude,location_speedAccuracy,location_bearingAccuracy,location_latitude,location_altitudeAboveMeanSeaLevel,location_bearing,location_horizontalAccuracy,location_verticalAccuracy,location_longitude,location_speed,magnetometer_time,magnetometer_seconds_elapsed,magnetometer_z,magnetometer_y,magnetometer_x,magnetometeruncalibrated_time,magnetometeruncalibrated_seconds_elapsed,magnetometeruncalibrated_z,magnetometeruncalibrated_y,magnetometeruncalibrated_x,orientation_time,orientation_seconds_elapsed,orientation_yaw,orientation_qx,orientation_qz,orientation_roll,orientation_qw,orientation_qy,orientation_pitch
0.05,1.6907665605678538e+18,0.06485359700520833,2.329781892375151,1.356552653786043,-0.6876488918433586,1.690766560559085e+18,0.0560850830078125,-0.68536376953125,-0.3283424377441406,0.044261932373046875,1.6907665605678538e+18,0.06485359700520833,-8.529716728953519,-4.642744069954255,1.3624646055986485,1.6907665605678538e+18,0.06485359700520833,-0.5295319755872091,-0.6859181523323059,0.6625553071498871,1.690766560559085e+18,0.0560850830078125,-0.3123452514410019,-0.5126690194010735,0.9777980223298073,1.690766560532166e+18,0.029165771484375,40.93829727172851,-1.0,-1.0,49.276351981616834,59.97686767578125,-1.0,35.0,18.011295318603516,-122.87119923958949,-1.0,1.6907665605678538e+18,0.06485359700520833,-35.01393127441406,-38.229546864827476,11.110636393229166,1.690766560553532e+18,0.05053193359375,3.3705841064453126,-15.132904052734375,142.8725158691406,1.6907665605678538e+18,0.06485359700520833,0.9971334287349366,0.17702856950988452,0.4792033330866732,0.15838597289706557,0.8397912387734771,0.1837247665112223,0.4931850598828422
0.1,1.6907665606079414e+18,0.104941552734375,2.5033813475126028,1.239135844992101,-0.13564946886986493,1.6907665606066898e+18,0.103689599609375,-0.6411407470703125,-0.312945556640625,0.1258270263671875,1.6907665606079414e+18,0.104941552734375,-8.629365163408519,-4.475019040324091,1.2814843974477053,1.6907665606079414e+18,0.104941552734375,-0.8718232870101928,-0.24146258234977722,-1.1415215849876403,1.6907665606066898e+18,0.103689599609375,-0.8796170711517334,-0.2866254150867462,-1.0986348062753677,,,,,,,,,,,,,1.6907665606079414e+18,0.104941552734375,-35.669847106933595,-37.940321350097655,11.307156372070313,1.6907665606055255e+18,0.102525341796875,2.754931640625,-14.962429809570313,143.0630889892578,1.6907665606079414e+18,0.104941552734375,0.9626680706183134,0.17435440176508146,0.46407135021498824,0.14740448105662768,0.8512143307450402,0.17187871354050854,0.47395342160871123
0.15,1.6907665606530406e+18,0.15004058837890627,0.2770952321544289,1.2929265449557452,4.870621146402508,1.6907665606567995e+18,0.15379946289062502,-0.9105316162109375,-0.266802978515625,0.6092864990234375,1.6907665606530406e+18,0.15004058837890627,-8.842501016706228,-3.934853258136287,1.576402783384174,1.6907665606530406e+18,0.15004058837890627,1.0800296068191528,1.0121379271149635,-0.9899137169122696,1.6907665606567995e+18,0.15379946289062502,1.1761642783880233,0.6742030382156372,-0.8373938784003258,,,,,,,,,,,,,1.6907665606530406e+18,0.15004058837890627,-37.4740047454834,-35.44693374633789,12.601341247558594,1.6907665606523192e+18,0.1493193359375,0.9999504089355469,-12.414485931396484,144.33544540405273,1.6907665606530406e+18,0.15004058837890627,0.9640757308220724,0.1409395772322023,0.46794144426719636,0.1763928420606742,0.8554568824821609,0.17100172324663243,0.4128926772463262
0.2,1.6907665606981394e+18,0.19513955078125,-0.3630820846152305,0.647300592778325,-0.5849130809612572,1.6907665607069097e+18,0.2039095703125,-0.9495391845703125,-0.368328857421875,-0.0586700439453125,1.6907665606981394e+18,0.19513955078125,-8.91094771165788,-3.9340905593615765,1.0917357033477724,1.6907665606981394e+18,0.19513955078125,0.4055658161640167,-2.094571661949158,0.25242213122546675,1.6907665607069097e+18,0.2039095703125,-0.12102621793746948,-2.3535109043121336,0.3140890598297119,,,,,,,,,,,,,1.6907665606981394e+18,0.19513955078125,-38.168817138671876,-35.773902893066406,9.590463256835937,1.6907665606991173e+18,0.1961173828125,0.3497802734375,-13.0043212890625,140.86172485351562,1.6907665606981394e+18,0.19513955078125,1.0268021573923416,0.14893435022983167,0.4905858203186189,0.12183345022950239,0.8447748604667502,0.15238886268954221,0.4127945699129699
0.25,1.6907665607482496e+18,0.245249609375,-1.2180360660791396,2.1393886946976184,0.7453682048312202,1.6907665607570194e+18,0.25401953125,-1.020001220703125,-0.176959228515625,0.12904052734375,1.6907665607482496e+18,0.245249609375,-8.917547314505578,-4.070431985244452,0.16688242016770644,1.6907665607482496e+18,0.245249609375,-0.3422463953495026,-1.779742169380188,0.20492693781852722,1.6907665607570194e+18,0.25401953125,-0.08056574016809465,-1.2784592628479003,-0.030400410294532797,,,,,,,,,,,,,1.6907665607482496e+18,0.245249609375,-38.431565856933595,-36.19841842651367,6.511782836914063,1.690766560751112e+18,0.24811196289062498,0.1890655517578125,-13.41536865234375,137.4051544189453,1.6907665607482496e+18,0.245249609375,1.0016046243663423,0.18186821421047566,0.4708311487456472,0.0186688294529628,0.8561281781440225,0.10994151365115887,0.42802148480470736
0.3,1.6907665607983596e+18,0.29535947265624996,-0.509530536944866,1.2815972686246035,-0.19260012704851107,1.6907665608071296e+18,0.304129443359375,-1.00302734375,-0.2339813232421875,-0.085870361328125,1.6907665607983596e+18,0.29535947265624996,-9.021935675932168,-3.8391432785928243,-0.10960805970310232,1.6907665607983596e+18,0.29535947265624996,0.09768720455467701,0.16704781502485272,-1.063158679008484,1.6907665608071296e+18,0.304129443359375,-0.011570792458951462,0.12138571143150326,-1.0104387283325196,,,,,,,,,,,,,1.6907665607983596e+18,0.29535947265624996,-39.24861602783203,-35.55452423095703,4.719033813476562,1.6907665608031043e+18,0.300104150390625,-1.1666229248046875,-12.148263549804687,136.35946350097657,1.6907665607983596e+18,0.29535947265624996,1.005895498273573,0.17791696672738186,0.4712003536086421,-0.01215806015947776,0.8590444020986745,0.09107492764050282,0.4022962152018133
0.35,1.6907665608484695e+18,0.345469580078125,-0.8213989178645612,2.098860694119632,-0.09738966529892758,1.6907665608572396e+18,0.3542396484375,-1.0116058349609376,-0.1161956787109375,0.0189788818359375,1.6907665608484695e+18,0.345469580078125,-9.185735309844016,-3.431922075617313,-0.01831013791963342,1.6907665608484695e+18,0.345469580078125,-0.28544791936874386,0.24177418649196625,-0.7768127083778381,1.6907665608572396e+18,0.3542396484375,-0.2636697798967361,0.2876339107751846,-0.7621132850646972,,,,,,,,,,,,,1.6907665608484695e+18,0.345469580078125,-40.645928955078126,-33.670108795166016,5.085333251953125,1.6907665608551e+18,0.35209999999999997,-2.45701904296875,-10.304592895507813,137.00275268554688,1.6907665608484695e+18,0.345469580078125,0.9963478240433471,0.15667878355326886,0.47002536958251506,-0.0020142590979574603,0.8645310100462822,0.08411209654186266,0.3575504477727325
0.4,1.6907665608985797e+18,0.39557958984375,-0.395409301533103,1.9608537900164724,0.17233952794626353,1.6907665609073495e+18,0.404349560546875,-1.0112518310546874,-0.1129302978515625,0.0196197509765625,1.6907665608985797e+18,0.39557958984375,-9.301436391019225,-3.1046835162517428,0.0812363350637664,1.6907665608985797e+18,0.39557958984375,-0.2571696728467941,-0.2801557831466198,-0.551786196231842,1.6907665609073495e+18,0.404349560546875,-0.27222821712493894,-0.4819879919290543,-0.44382047951221465,,,,,,,,,,,,,1.6907665608985797e+18,0.39557958984375,-42.06634368896484,-32.06078681945801,5.74696044921875,1.6907665609070968e+18,0.404097021484375,-3.7882659912109373,-8.8890380859375,137.29839477539062,1.6907665608985797e+18,0.39557958984375,0.9835449757807984,0.13932525764392015,0.46668854344015764,0.008741387305692799,0.8697345147628859,0.0795334800996202,0.3221435538405353
0.45,1.6907665609486894e+18,0.44568955078125,-1.0962047531336547,1.7729989176130292,-0.30957844700487325,1.6907665609574597e+18,0.4544595703125,-1.018121337890625,-0.1535064697265625,-0.067547607421875,1.6907665609486894e+18,0.44568955078125,-9.332967489123345,-3.00370823659122,-0.18793669268158258,1.6907665609486894e+18,0.44568955078125,-0.35713050961494447,-0.7791192293167114,0.020506688207387918,1.6907665609574597e+18,0.4544595703125,-0.3838779926300049,-0.6942855536937713,-0.018279886245727555,,,,,,,,,,,,,1.6907665609486894e+18,0.44568955078125,-42.684626770019534,-31.428686141967773,4.949923706054688,1.6907665609538903e+18,0.4508902587890625,-4.103858947753906,-8.578636169433594,136.49505996704102,1.6907665609486894e+18,0.44568955078125,0.9679590730795011,0.14182470105418982,0.45826541315073815,-0.020137395769361,0.8751172507445734,0.06331603895459945,0.3112966016289083
0.5,1.6907665609987996e+18,0.49579965820312505,-0.3043192807143927,1.091246604656577,-0.399718155788593,1.6907665610075694e+18,0.5045695800781249,-1.01263427734375,-0.189532470703125,-0.084246826171875,1.6907665609987996e+18,0.49579965820312505,-9.354129402713179,-2.921613656941652,-0.3628051600634679,1.6907665609987996e+18,0.49579965820312505,-0.5129860460758209,-0.2872066915035248,-0.3887698709964752,1.6907665610075694e+18,0.5045695800781249,-0.5474157989025116,-0.2775302559137344,-0.40092909932136533,,,,,,,,,,,,,1.6907665609987996e+18,0.49579965820312505,-42.99021759033203,-30.931096267700195,4.502508544921875,1.690766561000685e+18,0.497685107421875,-4.502560424804687,-7.935791015625,136.18959350585936,1.6907665609987996e+18,0.49579965820312505,0.9445935941001331,0.1428698427730347,0.4470482178856304,-0.03876369424191604,0.8815102149233376,0.05148373183836824,0.30251962230223894
0.55,1.6907665610489096e+18,0.5459095703125,-0.4048547076529264,0.6470226526197791,-0.4122136994201317,1.6907665610576796e+18,0.5546794921875,-1.006781005859375,-0.2167999267578125,-0.0673492431640625,1.6907665610489096e+18,0.5459095703125,-9.406224448513985,-2.7395847726649043,-0.42868980058781797,1.6907665610489096e+18,0.5459095703125,-0.7116305947303772,-0.3655824601650238,-0.45530810952186584,1.6907665610576796e+18,0.5546794921875,-0.7097355127334595,-0.3431576192378998,-0.4487766206264496,,,,,,,,,,,,,1.6907665610489096e+18,0.5459095703125,-43.56095504760742,-29.986591339111328,4.646701049804688,1.6907665610526787e+18,0.549678662109375,-5.210052490234375,-6.823764038085938,136.37095947265624,1.6907665610489096e+18,0.5459095703125,0.9111066377193385,0.13657350217253927,0.4325521393101262,-0.045539617498968975,0.8901977228154296,0.04182964890196364,0.28313313355150943
0.6,1.6907665610990195e+18,0.5960195800781249,-0.3678161273998022,0.7208315175786615,0.5740742477216572,1.6907665611077896e+18,0.6047895996093751,-0.957861328125,-0.1855865478515625,0.013604736328125,1.6907665610990195e+18,0.5960195800781249,-9.449338432384133,-2.5793305562749502,-0.47600177683055395,1.6907665610990195e+18,0.5960195800781249,-0.4513957440853119,-0.14151833057403565,-0.24149520993232723,1.6907665611077896e+18,0.6047895996093751,-0.37602050602436066,-0.0786647729575634,-0.2145320057868957,,,,,,,,,,,,,1.6907665610990195e+18,0.5960195800781249,-44.2867935180664,-28.98239669799805,4.891519165039062,1.690766561104671e+18,0.6016708984375,-5.825631713867187,-5.911007690429687,136.6401336669922,1.6907665610990195e+18,0.5960195800781249,0.877459211171377,0.13066968319629008,0.4178748780384641,-0.05033128209998896,0.8984160484277736,0.03377004283235774,0.26615074548804174
0.65,1.6907665611491292e+18,0.64612939453125,1.1898137125837802,0.3818116272655129,-0.08497340110193936,1.6907665611578995e+18,0.654899365234375,-0.8213653564453125,-0.183587646484375,-0.0976898193359375,1.6907665611491292e+18,0.64612939453125,-9.473302427008747,-2.4906244495311376,-0.472127397695668,1.6907665611491292e+18,0.64612939453125,-0.26079621016979215,-0.15417759492993355,-0.18327762484550472,1.6907665611578995e+18,0.654899365234375,-0.24390943646430965,-0.2204460332170129,-0.16392427682876584,,,,,,,,,,,,,1.6907665611491292e+18,0.64612939453125,-44.732453155517575,-28.404071426391603,5.155294799804688,1.690766561156662e+18,0.653662158203125,-6.243002319335938,-5.466470336914062,136.81800231933593,1.6907665611491292e+18,0.64612939453125,0.8609575753997751,0.12662402377814336,0.4108451267013612,-0.04979567954263088,0.9023337346421538,0.030979429808622182,0.2567865646915623
0.7,1.6907665611992394e+18,0.6962393066406249,2.035556330492496,2.240890102511048,-0.7879200028543918,1.6907665612029983e+18,0.699998291015625,-0.7154884338378906,0.00283050537109375,-0.1416168212890625,1.6907665611992394e+18,0.6962393066406249,-9.463566981127261,-2.4747737064136563,-0.6829577797560765,1.6907665611992394e+18,0.6962393066406249,0.064314841479063,-1.017911571264267,0.15622048527002336,1.6907665612029983e+18,0.699998291015625,0.10251445637550202,-1.1238957941532135,0.20581155270338053,,,,,,,,,,,,,1.6907665611992394e+18,0.6962393066406249,-44.90334548950195,-28.162533950805663,4.373178100585937,1.6907665612034552e+18,0.7004552612304688,-6.290008544921875,-5.2808380126953125,135.69810104370117,1.6907665611992394e+18,0.6962393066406249,0.8543328337033795,0.1305073697621881,0.40646999410735063,-0.0720529827118129,0.9040406516409967,0.02015683904639436,0.2551159861182365
0.75,1.6907665612493494e+18,0.746349365234375,4.214819822556376,3.6982783547100424,-0.4697081711921095,1.6907665612480973e+18,0.7450973632812501,-0.510894775390625,0.127056884765625,-0.23404541015625,1.6907665612493494e+18,0.746349365234375,-9.325811772149802,-2.5504082378166912,-1.5952607893327622,1.6907665612493494e+18,0.746349365234375,0.6842269897460938,-2.6718104124069213,0.26091359257698055,1.6907665612480973e+18,0.7450973632812501,0.6745909929275513,-2.627406859397888,0.2602717459201812,,,,,,,,,,,,,1.6907665612493494e+18,0.746349365234375,-44.83909606933594,-28.57058219909668,-0.3469512939453125,1.6907665612502502e+18,0.747250146484375,-6.253338623046875,-5.771994018554688,130.7925567626953,1.6907665612493494e+18,0.746349365234375,0.876637187703517,0.1540126010754829,0.4090761668649381,-0.16944497230521766,0.8989597012386674,-0.02042864079816198,0.2630945542209834
0.8,1.690766561299459e+18,0.796459130859375,7.176105681577324,4.592166287106574,-0.519946950827837,1.6907665612982072e+18,0.795207177734375,-0.1786376953125,0.2373443603515625,-0.3672119140625,1.690766561299459e+18,0.796459130859375,-8.980106588079929,-2.385550327023566,-3.101971334683597,1.690766561299459e+18,0.796459130859375,1.2501927495002747,-3.053897523880005,-0.7752529166638851,1.6907665612982072e+18,0.795207177734375,1.2285982251167298,-3.047956657409668,-0.7441684290766716,,,,,,,,,,,,,1.690766561299459e+18,0.796459130859375,-44.418154907226565,-28.44288558959961,-6.885887145996094,1.690766561302243e+18,0.7992431640625,-5.696078491210938,-5.067373657226563,122.29824829101562,1.690766561299459e+18,0.796459130859375,0.9200290285142596,0.18135061436581287,0.4163985390381619,-0.33239983099534853,0.8856842895755973,-0.09341779268187718,0.24576280927888955
0.85,1.6907665613495683e+18,0.8465683593750001,5.31635728579402,5.86610585135877,1.5717401984006165,1.6907665613483164e+18,0.8453163085937501,-0.2949920654296875,0.44268798828125,-0.347076416015625,1.6907665613495683e+18,0.8465683593750001,-8.295611932225823,-1.6365690243421493,-4.907521574907005,1.6907665613495683e+18,0.8465683593750001,2.4224351167678835,-4.999809312820434,-0.6646407246589661,1.6907665613483164e+18,0.8453163085937501,2.3887563943862915,-4.916106939315796,-0.6741234064102173,,,,,,,,,,,,,1.6907665613495683e+18,0.8465683593750001,-43.25958938598633,-25.573979568481445,-17.16881561279297,1.6907665613542351e+18,0.8512349609375001,-3.607049560546875,-1.6260894775390624,110.628564453125,1.6907665613495683e+18,0.8465683593750001,0.9857587724044492,0.19601245738786188,0.4352509209567709,-0.5338960813489873,0.8563138551453676,-0.19307268186269916,0.16772265761989447
0.9,1.6907665613996785e+18,0.8966783691406249,0.9675300917124747,7.416675485245586,1.8553940584182738,1.6907665613984264e+18,0.8954264160156249,-0.6035736083984375,0.7394622802734375,-0.594830322265625,1.6907665613996785e+18,0.8966783691406249,-6.2115200019797685,-0.48324685624124475,-7.472460500831604,1.6907665613996785e+18,0.8966783691406249,4.012658929824829,-8.190170001983642,0.5656385898590088,1.6907665613984264e+18,0.8954264160156249,3.9637903213500976,-8.129320621490479,0.4860702961683273,,,,,,,,,,,,,1.6907665613996785e+18,0.8966783691406249,-35.313856506347655,-20.590792083740233,-33.358761596679685,1.690766561406227e+18,0.903226904296875,7.624600219726562,4.1459808349609375,93.26220397949218,1.6907665613996785e+18,0.8966783691406249,1.1003746792370792,0.24210498298125965,0.4636382431163707,-0.8770799302403468,0.7748508497471029,-0.34887144084428573,0.049336970826933224
0.95,1.6907665614497884e+18,0.9467883789062499,-3.867816210786849,5.356685350659639,-4.063522994960546,1.6907665614485363e+18,0.9455362792968749,-0.647869873046875,0.6294677734375,-1.41778564453125,1.6907665614497884e+18,0.9467883789062499,-3.1084684123918414,1.165239645156376,-9.187664699697494,1.6907665614497884e+18,0.9467883789062499,4.869264602661133,-5.136361932754516,1.9433971405029298,1.6907665614485363e+18,0.9455362792968749,4.883570861816406,-5.290948677062988,1.9927270412445068,,,,,,,,,,,,,1.6907665614497884e+18,0.9467883789062499,-17.86109313964844,-12.494327735900878,-48.29713745117188,1.6907665614530186e+18,0.9500186767578125,23.660297393798828,12.098243713378906,81.64715194702148,1.6907665614497884e+18,0.9467883789062499,1.291285061220216,0.3123828549773392,0.5150287626923942,-1.2449662054618842,0.62555748924947,-0.4930516748445609,-0.11929502119575017
1.0,1.6907665614998984e+18,0.996898291015625,-2.7793843420639632,1.1869165298375486,-6.85060052187562,1.6907665614986463e+18,0.995646337890625,-0.491986083984375,0.4375244140625,-1.649676513671875,1.6907665614998984e+18,0.996898291015625,-1.8082650229139623,3.1471570979395507,-9.090233317801951,1.6907665614998984e+18,0.996898291015625,4.25800724029541,-1.9598867177963257,0.7235045969486237,1.6907665614986463e+18,0.995646337890625,4.285556507110596,-1.9695459842681884,0.7081369817256927,,,,,,,,,,,,,1.6907665614998984e+18,0.996898291015625,-8.82302017211914,-1.3890346527099608,-52.732844543457034,1.6907665614998124e+18,0.99681240234375,30.205020141601562,22.377951049804686,78.78515625,1.6907665614998984e+18,0.996898291015625,1.401255538885343,0.30752276509072646,0.5702920554183146,-1.3748347853347789,0.5157839230664376,-0.5594622731503848,-0.32727795857673564
1.05,1.6907665615500083e+18,1.0470083984375,-2.4438186254057284,-1.838193040509522,-9.272200944184661,1.6907665615487565e+18,1.045756396484375,-0.356927490234375,0.28009033203125,-1.7882232666015625,1.6907665615500083e+18,1.0470083984375,-1.27982337620683,4.606459074805379,-8.555174605655669,1.6907665615500083e+18,1.0470083984375,2.7159777164459227,-1.6157599449157716,1.4001729249954225,1.6907665615487565e+18,1.045756396484375,2.741328477859497,-1.5976182222366333,1.3844007015228272,,,,,,,,,,,,,1.6907665615500083e+18,1.0470083984375,-4.532474517822266,7.333740997314453,-53.05457458496094,1.6907665615518067e+18,1.04880654296875,34.739871215820315,31.305239868164062,78.77655029296875,1.6907665615500083e+18,1.0470083984375,1.4945327403448303,0.2958961796145691,0.6152280640215783,-1.4224564747847244,0.43149397395392153,-0.5892144559804116,-0.48930526717736916
1.1,1.6907665616001183e+18,1.09711826171875,-1.3604683854091166,-2.8428501506370307,-8.07530726866424,1.6907665615988662e+18,1.095866357421875,-0.21024169921875,0.261688232421875,-1.6537628173828125,1.6907665616001183e+18,1.09711826171875,-0.9279696356054394,5.46629615213573,-8.085912950735091,1.6907665616001183e+18,1.09711826171875,1.760265874862671,-2.08264319896698,2.2376705169677735,1.6907665615988662e+18,1.095866357421875,1.7939024209976195,-2.101246643066406,2.2340023517608643,,,,,,,,,,,,,1.6907665616001183e+18,1.09711826171875,-0.5318359375,12.806673049926758,-52.171006774902345,1.6907665616038016e+18,1.100801416015625,39.211849975585935,37.019711303710935,79.741064453125,1.6907665616001183e+18,1.09711826171875,1.6217907339837254,0.31178338051192955,0.6507786645003533,-1.4566310637669484,0.3510048316286745,-0.5961591774767444,-0.5914106051962608
1.15,1.6907665616502285e+18,1.1472283203125,1.6120438010251523,-3.434234561117291,-6.408654977712631,1.6907665616489764e+18,1.1459764160156252,0.0727508544921875,0.24266357421875,-1.4249755859375,1.6907665616502285e+18,1.1472283203125,-0.9085675274558366,5.840436923286319,-7.824903468723893,1.6907665616502285e+18,1.1472283203125,0.6677534341812134,-1.1785073161125184,1.778174376487732,1.6907665616489764e+18,1.1459764160156252,0.6900849580764771,-1.1606229543685913,1.776370906829834,,,,,,,,,,,,,1.6907665616502285e+18,1.1472283203125,2.203661346435547,16.473910903930665,-51.30762634277344,1.690766561655796e+18,1.1527959472656248,41.21583251953125,39.897821044921876,80.58175354003906,1.6907665616502285e+18,1.1472283203125,1.7513598664130519,0.3349690946030904,0.6780469025041045,-1.4551861028881574,0.2939271590716538,-0.5843037716439093,-0.6379783206872164
1.2,1.6907665617003384e+18,1.1973384765625,3.223473269544244,-4.554819254652261,-5.499201110489368,1.6907665616990863e+18,1.196086328125,0.2651123046875,0.12232666015625,-1.3615203857421876,1.6907665617003384e+18,1.1973384765625,-0.9151336225862055,5.820962290583252,-7.8385068128538125,1.6907665617003384e+18,1.1973384765625,-0.42477971911430357,-1.0437562108039855,1.3896684765815734,1.6907665616990863e+18,1.196086328125,-0.39347736090421676,-1.0739861726760864,1.4294127583503724,,,,,,,,,,,,,1.6907665617003384e+18,1.1973384765625,4.030800628662109,17.481240463256835,-50.84159851074219,1.6907665617025925e+18,1.1995926513671875,42.962928771972656,40.29316329956055,80.8260269165039,1.6907665617003384e+18,1.1973384765625,1.8622498189711372,0.367327469208701,0.6932613868675602,-1.4545700044539411,0.2569098261759704,-0.5641623105862942,-0.6355184211009631
1.25,1.6907665617504484e+18,1.24744833984375,4.250235068617463,-4.575478362512588,-4.526498000053167,1.6907665617491963e+18,1.24619638671875,0.31611328125,0.0838836669921875,-1.2764495849609374,1.6907665617504484e+18,1.24744833984375,-0.9559930763017386,5.395372721033096,-8.130179845580457,1.6907665617504484e+18,1.24744833984375,-1.5623254776000977,0.39448565393686297,-0.22061320543289184,1.6907665617491963e+18,1.24619638671875,-1.5386549472808837,0.372601592540741,-0.19577589258551598,,,,,,,,,,,,,1.6907665617504484e+18,1.24744833984375,4.530742645263672,15.185913467407227,-51.47274627685547,1.6907665617493885e+18,1.246388525390625,43.071878051757814,37.745751953125,80.12438354492187,1.6907665617504484e+18,1.24744833984375,1.8867236828817848,0.3892784977917687,0.691428624364284,-1.4537739750761893,0.2656277946537322,-0.5474404490268296,-0.5827321915004371
1.3,1.6907665618005583e+18,1.297558349609375,3.1125883126399665,-2.639057821293771,0.4507242446154357,1.6907665617993065e+18,1.29630634765625,0.1783416748046875,0.212542724609375,-0.8028717041015625,1.6907665618005583e+18,1.297558349609375,-1.1015786135786771,4.687835978478789,-8.539773973619342,1.6907665618005583e+18,1.297558349609375,-1.814979338645935,0.7039652556180954,-0.7994152963161468,1.6907665617993065e+18,1.29630634765625,-1.813817548751831,0.7310439050197601,-0.8084637522697449,,,,,,,,,,,,,1.6907665618005583e+18,1.297558349609375,3.584589385986328,12.065114212036132,-52.29518280029297,1.6907665618064118e+18,1.3034119466145835,41.4232432047526,33.15007019042969,78.99645487467448,1.6907665618005583e+18,1.297558349609375,1.8386867301050074,0.3965501216733895,0.6773543886131834,-1.4425376208975917,0.31166270175207805,-0.5353274178414025,-0.49855604869798553
1.35,1.6907665618506683e+18,1.347668359375,-1.121694510633871,-0.832956552284956,2.8466548036170005,1.6907665618494162e+18,1.346416259765625,-0.2322723388671875,0.3222930908203125,-0.606268310546875,1.6907665618506683e+18,1.347668359375,-1.0030695925142616,3.9367997014158966,-8.922210863950252,1.6907665618506683e+18,1.347668359375,-1.5882661104202271,-0.8151468902826309,0.4051159956492484,1.6907665618494162e+18,1.346416259765625,-1.6006386995315551,-0.785293759405613,0.37071606442332267,,,,,,,,,,,,,1.6907665618506683e+18,1.347668359375,2.5318641662597656,7.882629776000977,-53.014784240722655,1.6907665618544346e+18,1.351434423828125,41.3458251953125,29.501766967773438,78.519970703125,1.6907665618506683e+18,1.347668359375,1.810713675432043,0.4185786288232852,0.6583619963421674,-1.4587258431718637,0.34302545899781095,-0.5229818736822975,-0.4132014221350594
1.4,1.6907665619007782e+18,1.3977783203125,-1.615402463803291,-0.14480238023608916,3.4233514649575945,1.6907665618995264e+18,1.3965263671875001,-0.229656982421875,0.338922119140625,-0.573675537109375,1.6907665619007782e+18,1.3977783203125,-0.7346562493743003,3.331395007341802,-9.192988174355625,1.6907665619007782e+18,1.3977783203125,-0.8572425127029419,-0.8364977598190307,1.1962353467941285,1.6907665618995264e+18,1.3965263671875001,-0.8831149756908416,-0.841424024105072,1.1918337106704713,,,,,,,,,,,,,1.6907665619007782e+18,1.3977783203125,4.3286384582519535,3.890583038330078,-53.27987060546875,1.6907665619045944e+18,1.40159453125,43.536041259765625,25.939019775390626,78.38069763183594,1.6907665619007782e+18,1.3977783203125,1.8522782279192491,0.45788359182318095,0.6487525700383076,-1.4910207997896834,0.3414208601041529,-0.5027403448421932,-0.34664072002690466
1.45,1.6907665619508884e+18,1.44788837890625,-0.8816875430931896,2.162746247861683,3.4859834530550238,1.6907665619496364e+18,1.446636328125,-0.1508056640625,0.55308837890625,-0.6057586669921875,1.6907665619508884e+18,1.44788837890625,-0.6966001626417041,3.1547456533724065,-9.259061710435152,1.6907665619508884e+18,1.44788837890625,0.26234158128499985,-0.02751836655661464,0.8167366266250611,1.6907665619496364e+18,1.446636328125,0.23799312561750413,-0.04487053845077753,0.8381912231445312,,,,,,,,,,,,,1.6907665619508884e+18,1.44788837890625,6.306248474121094,2.087386703491211,-53.310786437988284,1.6907665619547535e+18,1.451753466796875,45.19490356445313,24.898406982421875,78.3676971435547,1.6907665619508884e+18,1.44788837890625,1.9091693445710654,0.4784673019416825,0.65436319947943,-1.4956988353187877,0.32756349307153587,-0.4853275922406354,-0.3275208072998431
1.5,1.6907665620009984e+18,1.49799833984375,0.0676904843699187,2.7474678686779734,2.962742019952535,1.6907665619997463e+18,1.4967463867187498,-0.084039306640625,0.6559661865234375,-0.621905517578125,1.6907665620009984e+18,1.49799833984375,-0.8846519312436879,3.4561777466648813,-9.133257636014225,1.6907665620009984e+18,1.49799833984375,1.1193597793579102,0.26836193054914476,0.3508169949054718,1.6907665619997463e+18,1.4967463867187498,1.0980209350585937,0.2830564171075821,0.348679319024086,,,,,,,,,,,,,1.6907665620009984e+18,1.49799833984375,6.417900085449219,2.983194351196289,-53.25912628173828,1.6907665620049116e+18,1.50191171875,44.75686340332031,26.488815307617188,78.45333862304688,1.6907665620009984e+18,1.49799833984375,1.9391741881464934,0.4702804671272595,0.6687693144375878,-1.4742011023699035,0.3127347611409585,-0.48343398998352266,-0.3602135261724168
1.55,1.6907665620511084e+18,1.5481083007812502,0.4162615646518767,5.556316380991936,0.2580326289314031,1.6907665620498563e+18,1.546856396484375,-0.0500091552734375,0.9869598388671875,-0.9108917236328125,1.6907665620511084e+18,1.5481083007812502,-1.0454278772593288,4.088365701341926,-8.849265922344326,1.6907665620511084e+18,1.5481083007812502,1.662144708633423,0.15615771412849422,0.5281451374292374,1.6907665620498563e+18,1.546856396484375,1.6605625867843627,0.15215230211615563,0.5454825535416603,,,,,,,,,,,,,1.6907665620511084e+18,1.5481083007812502,5.7452545166015625,6.168973541259765,-53.01991424560547,1.6907665620550705e+18,1.552070556640625,44.233218383789065,30.21337890625,78.75491638183594,1.6907665620511084e+18,1.5481083007812502,1.97528491740016,0.45387780401968414,0.6875097558535957,-1.4531281877371824,0.28374167139385076,-0.4905684670184951,-0.43014597270341015
1.6,1.6907665621012186e+18,1.5982184570312499,0.5304978924237191,3.915870427538156,-3.435091820920706,1.6907665620999665e+18,1.5969663574218749,-0.0873291015625,0.8743682861328125,-1.2234832763671875,1.6907665621012186e+18,1.5982184570312499,-1.2412764664434641,4.725581713314056,-8.501140817651152,1.6907665621012186e+18,1.5982184570312499,1.0103663325309753,0.8791508913040161,-0.628573527932167,1.6907665620999665e+18,1.5969663574218749,1.041746199131012,0.8642269313335419,-0.6040720552206039,,,,,,,,,,,,,1.6907665621012186e+18,1.5982184570312499,5.104730224609375,10.465259552001953,-52.48413238525391,1.6907665621052255e+18,1.6022254394531248,43.278857421875,34.288046264648436,79.34869384765625,1.6907665621012186e+18,1.5982184570312499,1.9828470961677447,0.42698718637998756,0.7021722405504852,-1.4257333969863613,0.26501682383952513,-0.504270345369451,-0.5028599654728649
1.65,1.6907665621513288e+18,1.648328759765625,-0.1551670931579172,4.35466224229753,1.0693245788013934,1.690766562150077e+18,1.6470768066406252,-0.172943115234375,0.9787139892578125,-0.673760986328125,1.6907665621513288e+18,1.648328759765625,-1.4932705020238457,5.078552504472732,-8.25372521051526,1.6907665621513288e+18,1.648328759765625,0.7683807075023651,1.3418046951293945,-1.2414137601852417,1.690766562150077e+18,1.6470768066406252,0.7418839633464813,1.3496511459350586,-1.2333064556121827,,,,,,,,,,,,,1.6907665621513288e+18,1.648328759765625,3.086652374267578,12.90066032409668,-52.2280990600586,1.690766562155382e+18,1.652381982421875,40.96377258300781,36.174188232421876,79.45319213867188,1.6907665621513288e+18,1.648328759765625,1.9333617466405364,0.3908958634451197,0.7062418303997218,-1.391730130262944,0.2780925245151946,-0.5204740033841079,-0.5444130006062544
1.7,1.6907665622014387e+18,1.698438818359375,-2.6027052067042886,4.019934730029106,1.321125269153714,1.690766562200187e+18,1.6971867675781251,-0.4306854248046875,0.9667816162109375,-0.715277099609375,1.6907665622014387e+18,1.698438818359375,-1.618242451082617,5.709921602434515,-7.802469167884588,1.6907665622014387e+18,1.698438818359375,1.766955804824829,0.3855552598834038,-0.5731666147708893,1.690766562200187e+18,1.6971867675781251,1.763630485534668,0.42955990359187124,-0.6127371117472649,,,,,,,,,,,,,1.6907665622014387e+18,1.698438818359375,0.6421279907226562,15.13991584777832,-51.74864654541015,1.690766562205537e+18,1.70253701171875,38.74172668457031,39.021786499023435,80.27123413085937,1.6907665622014387e+18,1.698438818359375,1.8873519816700537,0.3473341795791474,0.7111585152262804,-1.3662238957684925,0.27697291112066624,-0.5447066560836737,-0.6217504172090111
1.75,1.690766562251549e+18,1.748548828125,0.7783686083029211,0.7528086643368005,-2.3139173447990418,1.6907665622502968e+18,1.74729677734375,-0.09298095703125,0.7261016845703125,-0.949041748046875,1.690766562251549e+18,1.748548828125,-1.6449198547713457,6.354827525935173,-7.281952892736196,1.690766562251549e+18,1.748548828125,1.7771555185317993,-0.18952607363462445,0.5547373116016387,1.6907665622502968e+18,1.74729677734375,1.7646981477737427,-0.17658057808876032,0.5331950336694717,,,,,,,,,,,,,1.690766562251549e+18,1.748548828125,-0.10134506225585933,19.24501762390137,-50.3013412475586,1.6907665622556933e+18,1.7526931640625,38.48922424316406,43.290707397460935,81.8177734375,1.690766562251549e+18,1.748548828125,1.9135447373366674,0.32343102290270653,0.7232785026900554,-1.3484599343495902,0.2461642388595517,-0.5581155405288878,-0.7051901903578836
1.8,1.6907665623016584e+18,1.7986583984375,-0.5873464455880224,-1.325687111789584,-1.7497957366800307,1.6907665623004063e+18,1.7974064453124998,-0.2245819091796875,0.5440887451171875,-0.8866180419921875,1.6907665623016584e+18,1.7986583984375,-1.7660635361658035,6.947990987238883,-6.6882688562375305,1.6907665623016584e+18,1.7986583984375,1.83758864402771,-1.1394876956939697,1.4322417497634887,1.6907665623004063e+18,1.7974064453124998,1.8561461210250854,-1.1197248339653014,1.4229896068572998,,,,,,,,,,,,,1.6907665623016584e+18,1.7986583984375,-0.10253067016601561,23.633659744262694,-48.39445037841797,1.690766562305846e+18,1.8028461914062501,38.6032470703125,47.744912719726564,83.91856384277344,1.6907665623016584e+18,1.7986583984375,2.012097734175798,0.3132359585934784,0.7430675287553736,-1.3124327914699474,0.19378220767070548,-0.5584200056324149,-0.7875709258690491
1.85,1.690766562351768e+18,1.84876787109375,1.62224870566234,-3.237928378971815,-1.3221499360263347,1.6907665623505157e+18,1.847515869140625,-0.0141448974609375,0.4198150634765625,-0.7535552978515625,1.690766562351768e+18,1.84876787109375,-1.8630455960847434,7.324471365705132,-6.247178350694775,1.690766562351768e+18,1.84876787109375,1.5206737518310547,-1.5617779731750487,1.3511680603027343,1.6907665623505157e+18,1.847515869140625,1.518824577331543,-1.5366551160812378,1.349538540840149,,,,,,,,,,,,,1.690766562351768e+18,1.84876787109375,0.644097900390625,27.685769271850585,-46.14758453369141,1.6907665623560049e+18,1.8530048339843752,39.526876831054686,51.51463012695312,86.12256164550782,1.690766562351768e+18,1.84876787109375,2.1451842972510144,0.3220702369717011,0.7593083518686851,-1.2808799154563173,0.134674812982335,-0.5488757522516191,-0.843503606577416
1.9,1.6907665624018778e+18,1.898877783203125,-1.1617109230409561,-4.054395802557468,-3.695743224822283,1.690766562400626e+18,1.897625732421875,-0.286944580078125,0.338922119140625,-1.001544189453125,1.6907665624018778e+18,1.898877783203125,-1.8865565570187566,7.538916548035741,-5.981140577579736,1.6907665624018778e+18,1.898877783203125,0.6304693281650543,-2.266422963142395,2.052661967277527,1.690766562400626e+18,1.897625732421875,0.670607827603817,-2.286924719810486,2.0708829402923583,,,,,,,,,,,,,1.6907665624018778e+18,1.898877783203125,2.139800262451172,30.987558364868164,-43.93018341064453,1.6907665624061578e+18,1.9031580078124999,41.252899169921875,54.54971618652344,88.30942993164062,1.6907665624018778e+18,1.898877783203125,2.2975339463160114,0.3479937949389048,0.7687298265064431,-1.265263578202147,0.07005260752348348,-0.5314816623085747,-0.8768977470381374
1.95,1.690766562451988e+18,1.9489877929687502,3.8441377843314406,-3.310115078782439,0.504133295624256,1.6907665624507359e+18,1.9477358398437499,0.1561370849609375,0.469696044921875,-0.52303466796875,1.690766562451988e+18,1.9489877929687502,-1.8216060628458854,7.510323724566698,-6.0364153055560585,1.690766562451988e+18,1.9489877929687502,0.07875521183013909,-1.009566593170166,0.04829779416322708,1.6907665624507359e+18,1.9477358398437499,0.07702160219196226,-0.9920508801937103,0.060330663621425605,,,,,,,,,,,,,1.690766562451988e+18,1.9489877929687502,3.856206512451172,32.542973327636716,-42.653082275390624,1.6907665624563146e+18,1.953314697265625,42.87907409667969,55.49337463378906,89.12176208496093,1.690766562451988e+18,1.9489877929687502,2.3730690559150833,0.37389853855895144,0.7689686949641755,-1.2777409489581022,0.039212564435571196,-0.5170059089335599,-0.8723475804511404
2.0,1.6907665625020977e+18,1.999097802734375,-0.07079109534680841,0.02354091768085956,-0.21725544667184363,1.6907665625008458e+18,1.997845751953125,-0.148779296875,0.7699462890625,-0.6501556396484375,1.6907665625020977e+18,1.999097802734375,-1.6222086074607074,7.464115398716926,-6.149734927648305,1.6907665625020977e+18,1.999097802734375,-0.5223420202732086,-0.16870169341564184,0.14958011806011196,1.6907665625008458e+18,1.997845751953125,-0.4989599028602242,-0.19561679810285573,0.15367680490016933,,,,,,,,,,,,,1.6907665625020977e+18,1.999097802734375,5.55159912109375,32.74132232666015,-42.36294860839844,1.6907665625064689e+18,2.0034689453125,44.465841674804686,55.52790222167969,89.27919921875,1.6907665625020977e+18,1.999097802734375,2.37865612463999,0.3906393473637242,0.7627472294988588,-1.3128794801531416,0.030313564591320098,-0.5144712345786093,-0.865089900609677
2.05,1.690766562552208e+18,2.049207763671875,3.1162443655425305,1.784670416897535,1.3312829736483096,1.6907665625509558e+18,2.047955859375,0.144610595703125,0.92196044921875,-0.556744384765625,1.690766562552208e+18,2.049207763671875,-1.5167081346867977,7.231892801442146,-6.4455967611408225,1.690766562552208e+18,2.049207763671875,-0.8395628690719604,-0.2838163137435913,-0.6495246708393096,1.6907665625509558e+18,2.047955859375,-0.8352949857711792,-0.29097155630588534,-0.6169677022844553,,,,,,,,,,,,,1.690766562552208e+18,2.049207763671875,6.064189910888672,31.686394882202148,-43.02968292236328,1.6907665625566275e+18,2.053627587890625,44.89692077636719,54.003964233398435,88.33319702148438,1.690766562552208e+18,2.049207763671875,2.355073179066378,0.4037563721846403,0.7585255226912627,-1.3395021991380478,0.04393509345670532,-0.5095311081392466,-0.8293308524536197
2.1,1.6907665626023178e+18,2.0993177734375,0.9425424239024519,-0.6987686804002523,-5.3269551352715485,1.6907665626010657e+18,2.0980658203124998,-0.018017578125,0.604656982421875,-1.2766082763671875,1.6907665626023178e+18,2.0993177734375,-1.2897614904405175,6.923602863531113,-6.821493319143653,1.6907665626023178e+18,2.0993177734375,-1.7745513677597047,2.054242718219757,-2.004736828804016,1.6907665626010657e+18,2.0980658203124998,-1.736065411567688,1.9960875272750855,-1.9702510356903076,,,,,,,,,,,,,1.6907665626023178e+18,2.0993177734375,7.297288513183593,29.555366897583006,-44.36290740966797,1.6907665626067825e+18,2.1037824707031247,45.84315490722656,51.48762512207031,86.67811279296875,1.6907665626023178e+18,2.0993177734375,2.2460777692584992,0.4041258233468398,0.7466120701305566,-1.3838712954341863,0.08831730661700786,-0.5204542852488206,-0.7840417157740711
2.15,1.6907665626524278e+18,2.14942783203125,-3.143809862564355,-1.7465539782798287,-4.0269217539852855,1.6907665626511757e+18,2.14817578125,-0.552923583984375,0.4611114501953125,-1.0981231689453126,1.6907665626524278e+18,2.14942783203125,-1.444946879133582,6.214254570736289,-7.440376912637353,1.6907665626524278e+18,2.14942783203125,-2.536983776092529,1.3799454987049102,-1.1310600101947785,1.6907665626511757e+18,2.14817578125,-2.5559599876403807,1.4763876676559449,-1.2074872553348541,,,,,,,,,,,,,1.6907665626524278e+18,2.14942783203125,5.404469299316406,24.785261154174805,-47.391909790039065,1.6907665626569382e+18,2.1539381835937497,43.10587158203125,45.87685546875,83.2758056640625,1.6907665626524278e+18,2.14942783203125,2.0856525448104093,0.3866070289248872,0.7351473819355828,-1.3789816602947225,0.18094410073280426,-0.5261555018964285,-0.6867502714436832
2.2,1.6907665627025377e+18,2.19953779296875,0.15110323394596606,0.2619836461925506,6.2237455695635076,1.690766562701286e+18,2.198285888671875,-0.0394805908203125,0.600494384765625,-0.1543975830078125,1.6907665627025377e+18,2.19953779296875,-1.4759346641412376,5.5650244712001085,-7.937634944890737,1.6907665627025377e+18,2.19953779296875,-1.083083200454712,0.03951791524887085,-0.21969617307186126,1.690766562701286e+18,2.198285888671875,-1.0948408484458922,0.04936456382274627,-0.2070954918861389,,,,,,,,,,,,,1.6907665627025377e+18,2.19953779296875,3.5110183715820313,19.094748306274415,-50.181593322753905,1.6907665627070927e+18,2.204092529296875,42.038815307617185,40.915948486328126,81.1154998779297,1.6907665627025377e+18,2.19953779296875,2.0481348423440258,0.40253614824917616,0.7259716551830125,-1.3869293130791684,0.2194731835928922,-0.5125476627136266,-0.6034922782500389
2.25,1.6907665627526477e+18,2.2496478515625,2.0437723701739308,0.6847739404129981,5.466464611344337,1.6907665627513958e+18,2.24839580078125,0.05732421875,0.569415283203125,-0.30150146484375,1.6907665627526477e+18,2.2496478515625,-1.3332630707757174,5.097911343389451,-8.268518524308202,1.6907665627526477e+18,2.2496478515625,-1.122341477870941,-0.9800208806991577,0.7518421292304993,1.6907665627513958e+18,2.24839580078125,-1.1324714779853822,-0.9536579489707947,0.7268808424472809,,,,,,,,,,,,,1.6907665627526477e+18,2.2496478515625,3.7795127868652343,16.05866584777832,-51.11730041503906,1.690766562757245e+18,2.25424501953125,42.69749450683594,38.09070739746094,80.34902648925781,1.6907665627526477e+18,2.2496478515625,2.044792770131828,0.4255190806509147,0.7167788974029563,-1.4108313269024424,0.23280957327719673,-0.500813325179886,-0.5467619813215074
2.3,1.690766562802758e+18,2.2997578125,-0.5507505676010995,-2.3170322619491817,2.639950795384645,1.6907665628015058e+18,2.29850576171875,-0.1907501220703125,0.24183349609375,-0.6281158447265625,1.690766562802758e+18,2.2997578125,-0.9611577509754895,4.695222756955325,-8.553718795437216,1.690766562802758e+18,2.2997578125,-0.5342331767082215,-1.7161082744598388,0.937300729751587,1.6907665628015058e+18,2.29850576171875,-0.5450610280036926,-1.7177781820297242,0.9434710264205932,,,,,,,,,,,,,1.690766562802758e+18,2.2997578125,5.810823822021485,13.473698043823243,-51.60975799560547,1.690766562807403e+18,2.3044030761718752,45.33094482421875,35.82041931152344,80.0871795654297,1.690766562802758e+18,2.2997578125,2.0918506399749557,0.46648870372411927,0.707623809055523,-1.4588041432128354,0.21958501569325012,-0.4829268392813183,-0.49928626254527614
2.35,1.6907665628528678e+18,2.349867822265625,-2.7894028718966246,-1.1930323239171503,1.0978536893844604,1.690766562851616e+18,2.3486158203125003,-0.344329833984375,0.349676513671875,-0.7643157958984375,1.6907665628528678e+18,2.349867822265625,-0.7871752635147422,4.5216607891550655,-8.66577526572585,1.6907665628528678e+18,2.349867822265625,-0.1720585063099861,0.4826559491455555,0.40163407772779464,1.690766562851616e+18,2.3486158203125003,-0.17987527549266813,0.42355398647487164,0.4286105867475271,,,,,,,,,,,,,1.6907665628528678e+18,2.349867822265625,9.037255096435548,12.402246475219727,-51.39175720214844,1.6907665628575555e+18,2.35455546875,47.89054870605469,35.16280822753906,80.25284729003906,1.6907665628528678e+18,2.349867822265625,2.130660023635176,0.4883152369701456,0.7050935005913542,-1.480222970268765,0.20728282364594303,-0.4705280666829192,-0.47921558664897257
2.4,1.6907665629029778e+18,2.39997783203125,-0.563623595468998,1.904113373401761,2.7391127127867936,1.6907665629017257e+18,2.3987257812499996,-0.1885711669921875,0.688427734375,-0.587115478515625,1.6907665629029778e+18,2.39997783203125,-1.2858971723886579,4.600064931401908,-8.562619193347095,1.6907665629029778e+18,2.39997783203125,0.6697302997112274,1.6147818088531494,-0.7727057635784149,1.6907665629017257e+18,2.3987257812499996,0.6369599953293801,1.6171700477600097,-0.7478917419910431,,,,,,,,,,,,,1.6907665629029778e+18,2.39997783203125,7.6948402404785154,12.270247268676759,-51.76813659667969,1.6907665629077066e+18,2.40470654296875,45.312887573242186,35.300228881835935,79.78683166503906,1.6907665629029778e+18,2.39997783203125,2.122548494408825,0.4632879236340671,0.7187968612595131,-1.4216289740644221,0.22103778155280965,-0.4686674302524006,-0.4882792423884248
2.45,1.6907665629530877e+18,2.450087744140625,0.04402203862577675,3.2509854873958224,0.5435246933877468,1.690766562951836e+18,2.44883583984375,-0.1498016357421875,0.865618896484375,-0.809039306640625,1.6907665629530877e+18,2.450087744140625,-1.6273075380349158,5.245826536496877,-8.118868177971244,1.6907665629530877e+18,2.450087744140625,1.7399338245391847,1.2839438676834107,-1.6571730136871339,1.690766562951836e+18,2.44883583984375,1.7351211071014405,1.309812307357788,-1.6304932355880737,,,,,,,,,,,,,1.6907665629530877e+18,2.450087744140625,4.1974845886230465,14.034053421020507,-51.705744934082034,1.6907665629578634e+18,2.45486357421875,41.9580078125,37.869476318359375,80.20682067871094,1.6907665629530877e+18,2.450087744140625,2.06845789044509,0.4128221266060847,0.7286827008245784,-1.3728614174011338,0.22801180579735575,-0.49621134575670023,-0.5646950740777393
2.5,1.690766563003198e+18,2.500197802734375,1.9584907433730365,2.812893169981837,-4.316705611964464,1.6907665630019459e+18,2.4989458984375,0.0574462890625,0.9028717041015625,-1.23236083984375,1.690766563003198e+18,2.500197802734375,-1.4423008069911598,6.041881988077163,-7.584332145298719,1.690766563003198e+18,2.500197802734375,1.244672417640686,1.1152553319931031,-2.4461780548095704,1.6907665630019459e+18,2.4989458984375,1.2728294849395752,1.1132492542266845,-2.4389568328857423,,,,,,,,,,,,,1.690766563003198e+18,2.500197802734375,2.29986572265625,17.96389808654785,-50.573770141601564,1.6907665630030013e+18,2.5000013427734373,40.742767333984375,41.52495574951172,81.32498550415039,1.690766563003198e+18,2.500197802734375,1.9583347709875933,0.3601493837109959,0.7203942649542128,-1.3830358469205521,0.23351363951530874,-0.5443595288856755,-0.6640234874046643
2.55,1.690766563053308e+18,2.5503078125000003,1.1175776060604303,0.3449489296489954,-5.062009249046445,1.6907665630520558e+18,2.549055810546875,0.0102935791015625,0.6767669677734375,-1.232354736328125,1.690766563053308e+18,2.5503078125000003,-1.0535323609381169,6.451830336381197,-7.308022335207463,1.690766563053308e+18,2.5503078125000003,0.3659500658512115,0.770377230644226,-2.399454689025879,1.6907665630520558e+18,2.549055810546875,0.36401215195655817,0.7884087085723877,-2.3969919204711916,,,,,,,,,,,,,1.690766563053308e+18,2.5503078125000003,1.8484970092773438,20.622978591918944,-49.65887298583984,1.6907665630481388e+18,2.545138671875,40.41964416503906,43.5920654296875,82.06306762695313,1.690766563053308e+18,2.5503078125000003,1.8092236819071725,0.31764836397595164,0.698515708705187,-1.4277752469203775,0.2562902336284281,-0.5875091975542335,-0.7180718661011953
2.6,1.6907665631034179e+18,2.6004177734375,0.5942068328768014,-1.031002973000407,0.49756455553233614,1.6907665631021658e+18,2.5991658203125,0.0122039794921875,0.59058837890625,-0.63763427734375,1.6907665631034179e+18,2.6004177734375,-0.39907943045342337,6.821739052146077,-7.027240815755723,1.6907665631034179e+18,2.6004177734375,1.4207041382789611,-0.26642551720142366,-1.93532075881958,1.6907665631021658e+18,2.5991658203125,1.3844751596450806,-0.22902710437774654,-1.974003005027771,,,,,,,,,,,,,1.6907665631034179e+18,2.6004177734375,2.488325500488281,21.66284294128418,-49.185011291503905,1.690766563098288e+18,2.59528818359375,41.18305358886719,44.636358642578124,82.53627014160156,1.6907665631034179e+18,2.6004177734375,1.6550241239785297,0.284048042517571,0.6705659060978604,-1.5147146208105826,0.2657475373784116,-0.6314404445504391,-0.7695256555328668
2.65,1.6907665631535283e+18,2.65052822265625,-0.7819825025641918,-1.5980033514261245,1.1736048036783933,1.690766563152276e+18,2.6492761230468753,-0.0556396484375,0.6059600830078125,-0.5100189208984375,1.6907665631535283e+18,2.65052822265625,0.2079725054429832,7.539304553666115,-6.253801334418059,1.6907665631535283e+18,2.65052822265625,2.8059277057647707,-1.6680538296699523,0.040050640702247606,1.690766563152276e+18,2.6492761230468753,2.773702383041382,-1.6109099745750428,0.0014434866607188957,,,,,,,,,,,,,1.6907665631535283e+18,2.65052822265625,5.096615600585937,24.943906784057617,-47.33735961914063,1.6907665631484431e+18,2.645443310546875,43.91725463867188,48.15648193359375,84.55505676269532,1.6907665631535283e+18,2.65052822265625,1.586996937199276,0.2568940973263742,0.6626932461864828,-1.6051923205287353,0.22314919199006242,-0.6667215684559011,-0.8779204063303171
2.7,1.690766563203638e+18,2.700638134765625,-1.315351478831768,-3.221568078896999,1.0610615435600281,1.6907665632023864e+18,2.69938623046875,-0.0812957763671875,0.5294281005859375,-0.36981201171875,1.690766563203638e+18,2.700638134765625,0.5886811940165981,8.490337800990343,-4.838752457681,1.690766563203638e+18,2.700638134765625,3.9489135265350344,-2.572194528579712,1.1861817121505738,1.6907665632023864e+18,2.69938623046875,3.911833477020264,-2.594524884223938,1.1709295630455017,,,,,,,,,,,,,1.690766563203638e+18,2.700638134765625,8.749881744384766,31.208566665649414,-42.64047546386719,1.6907665631985956e+18,2.695595556640625,47.663262939453126,54.628335571289064,89.51563415527343,1.690766563203638e+18,2.700638134765625,1.619685701641107,0.24073045828265,0.6735455213693962,-1.6938132022664358,0.12329379568893754,-0.687032129622208,-1.04954221409408
2.75,1.6907665632537477e+18,2.75074775390625,-1.285863986158371,-5.167695365972518,1.228607115228027,1.690766563252496e+18,2.749495703125,-0.0918243408203125,0.4261749267578125,-0.1251068115234375,1.6907665632537477e+18,2.75074775390625,0.331026716041835,9.420096789617538,-2.572023565036356,1.6907665632537477e+18,2.75074775390625,5.841032695770264,-1.1200750470161438,1.5183104038238526,1.690766563252496e+18,2.749495703125,5.807007598876953,-1.1173694849014282,1.5086763381958008,,,,,,,,,,,,,1.6907665632537477e+18,2.75074775390625,11.24942626953125,39.4875732421875,-34.250361633300784,1.690766563248748e+18,2.7457479980468746,49.86964721679688,63.055337524414064,98.22562255859376,1.6907665632537477e+18,2.75074775390625,1.7134736707432228,0.18577817305305075,0.6941139690648155,-1.6893091946786627,0.0033852913219083,-0.6941001386382176,-1.3020735560740886
2.8,1.6907665633038572e+18,2.8008572265625,0.6378951752622799,-0.15905939519524565,-0.9831995892050116,1.6907665633026053e+18,2.799605224609375,0.0345977783203125,1.079156494140625,-0.0345733642578125,1.6907665633038572e+18,2.8008572265625,-0.39308799979906056,9.74224001321852,0.4690745202375949,1.6907665633038572e+18,2.8008572265625,6.758357429504395,-3.4619949102401733,1.3855539441108704,1.6907665633026053e+18,2.799605224609375,6.727444744110107,-3.35051908493042,1.411190664768219,,,,,,,,,,,,,1.6907665633038572e+18,2.8008572265625,9.718541717529297,48.0629638671875,-20.855801391601563,1.690766563298901e+18,2.795901025390625,48.131787109375,71.51348266601562,112.04866638183594,1.6907665633038572e+18,2.8008572265625,-0.06787522467315124,0.10613416271010882,0.7046222859632567,0.20303615572359918,-0.14470424062904952,-0.6843659621648852,-1.4715481995180724
2.85,1.690766563353967e+18,2.8509671875,1.2850353971536457,11.457827307730913,-2.521905781431794,1.6907665633527153e+18,2.84971513671875,0.002349853515625,2.12823486328125,0.040606689453125,1.690766563353967e+18,2.8509671875,-1.1994724691933392,9.143439773523806,3.2902649784435325,1.690766563353967e+18,2.8509671875,3.756838631629944,-5.820506477355957,-0.9854675143957138,1.6907665633527153e+18,2.84971513671875,4.012402462959289,-5.827881717681885,-0.8854177594184875,,,,,,,,,,,,,1.690766563353967e+18,2.8509671875,8.020364379882812,52.16740264892578,-2.2835021972656255,1.690766563349056e+18,2.846055908203125,46.499325561523435,75.13396911621093,130.96979675292968,1.690766563353967e+18,2.8509671875,-1.306285290299073,0.08140389651563548,0.6666257628712936,1.2211454836288351,-0.33812928585218616,-0.6572514577780753,-1.2050324856821697
2.9,1.6907665634040773e+18,2.901077197265625,1.1669252674622832,3.255256881104708,1.838697775161266,1.6907665634028252e+18,2.8998251953125,0.0453369140625,1.166156005859375,0.56468505859375,1.6907665634040773e+18,2.901077197265625,-1.1112000192394853,9.255134892380237,3.0382609036996957,1.6907665634040773e+18,2.901077197265625,-1.9110611438751222,4.441703414916992,0.5463014781475066,1.6907665634028252e+18,2.8998251953125,-1.9507264614105224,4.074281501770019,0.39838933870196347,,,,,,,,,,,,,1.6907665634040773e+18,2.901077197265625,8.723265838623046,51.73875427246094,7.725924682617188,1.6907665633992113e+18,2.896211181640625,47.46090087890625,74.566162109375,139.42416381835938,1.6907665634040773e+18,2.901077197265625,-1.2138690275314257,0.12276137180325877,0.652929959341032,1.220852191441678,-0.3593515453149985,-0.654093195034462,-1.2344946364433407
2.95,1.690766563454187e+18,2.95118720703125,6.670974840896129,-0.9387849418389796,1.1028288766746221,1.6907665634529352e+18,2.949935107421875,0.5970947265625,0.898052978515625,0.379791259765625,1.690766563454187e+18,2.95118720703125,-0.6904385420459509,9.415994731900096,2.6430793611209094,1.690766563454187e+18,2.95118720703125,-1.3717252969741822,4.5862144947052,0.1938421458005905,1.6907665634529352e+18,2.949935107421875,-1.3779990673065186,4.78981647491455,0.2717280864715576,1.6907665634509932e+18,2.9479931640625,41.000396728515625,-1.0,-1.0,49.27634458805382,60.03896713256836,-1.0,35.0,16.706876754760742,-122.87119807687677,-1.0,1.690766563454187e+18,2.95118720703125,8.260107421875,52.42900695800781,1.7889190673828126,1.690766563449366e+18,2.946366162109375,46.66864013671875,75.34721374511719,132.9248260498047,1.690766563454187e+18,2.95118720703125,-1.4403889686112865,0.03382989299018002,0.6929631912970354,1.3179759713076802,-0.2325787860447852,-0.6806700120976358,-1.2882039200381694
3.0,1.6907665635042972e+18,3.001297119140625,1.1507464906603098,0.3390950598281622,2.823807245801687,1.690766563503045e+18,3.0000452636718746,0.0807281494140625,0.99013671875,0.5146148681640625,1.6907665635042972e+18,3.001297119140625,-0.0397772790221218,9.5255545922935,2.3220504700504243,1.6907665635042972e+18,3.001297119140625,0.00887016952037809,-1.5259555101394653,-1.8528062582015992,1.690766563503045e+18,3.0000452636718746,-0.024909929931163775,-1.5041877031326294,-1.8471951961517334,,,,,,,,,,,,,1.6907665635042972e+18,3.001297119140625,8.542512512207031,52.477761840820314,-2.9569122314453127,1.6907665634995233e+18,2.996523193359375,47.35136108398437,75.29183654785156,128.49832763671876,1.6907665635042972e+18,3.001297119140625,-1.2421304987058275,0.03759019904498054,0.6784099813505297,1.5535712447396894,-0.20400051082167714,-0.704554778737148,-1.3308102675619173
3.05,1.6907665635544072e+18,3.0514072265625,-2.4426536148273943,-0.4818998365062475,-1.1397258272738753,1.690766563553155e+18,3.0501552246093753,-0.203997802734375,0.93011474609375,0.0878021240234375,1.6907665635544072e+18,3.0514072265625,0.5854710436375811,9.48460637892902,2.4194264392708242,1.6907665635544072e+18,3.0514072265625,-0.002252350747585319,1.3992967836558818,-0.5123707760125399,1.690766563553155e+18,3.0501552246093753,0.029246513545513154,1.3096005380153657,-0.5711770132184029,,,,,,,,,,,,,1.6907665635544072e+18,3.0514072265625,13.014389038085938,51.58177947998047,-2.6413604736328127,1.6907665635496799e+18,3.0466798828125,51.93104248046875,74.35281677246094,129.12046508789064,1.6907665635544072e+18,3.0514072265625,-0.9643664155134697,0.04623572504825646,0.6522191387818994,1.8077389558610544,-0.211393571772211,-0.7263971639572407,-1.3138377678173876
3.1,1.6907665636045174e+18,3.1015171386718747,-1.6108700810706615,1.8705986418128013,-3.8822069351282713,1.690766563603265e+18,3.100265185546875,-0.0518890380859375,1.1806396484375,-0.1836334228515625,1.6907665636045174e+18,3.1015171386718747,0.699607133211866,9.570782674934268,2.0105699486306308,1.6907665636045174e+18,3.1015171386718747,-1.0095648407936095,4.512932014465332,1.2112269282341004,1.690766563603265e+18,3.100265185546875,-1.0043195962905884,4.507177305221558,1.1921391844749452,,,,,,,,,,,,,1.6907665636045174e+18,3.1015171386718747,13.81236572265625,51.20570831298828,-3.965362548828125,1.6907665635998372e+18,3.096837109375,52.252096557617186,74.0649658203125,127.42254028320312,1.6907665636045174e+18,3.1015171386718747,-1.0248564995995035,0.0036813967592631397,0.6655186847043614,1.9071233150520595,-0.1432416389628715,-0.7316726436934206,-1.3518966351368988
3.15,1.690766563654627e+18,3.1516271484375,7.663726350722312,2.798057770612836,-4.438436854762434,1.6907665636533752e+18,3.150375244140625,0.855560302734375,1.2772705078125,-0.319384765625,1.690766563654627e+18,3.1516271484375,0.6439740056388825,9.691145785797238,1.33273837470144,1.690766563654627e+18,3.1516271484375,-1.512626338005066,0.6856264591217041,-0.5097466826438903,1.6907665636533752e+18,3.150375244140625,-1.4940486907958985,0.8064594507217407,-0.43074132800102233,,,,,,,,,,,,,1.690766563654627e+18,3.1516271484375,10.041822814941407,51.42685546875,-8.963887023925782,1.6907665636499965e+18,3.14699658203125,48.33964233398437,74.28480529785156,122.30675964355468,1.690766563654627e+18,3.1516271484375,-1.0524218464546897,-0.027821245167340063,0.6800925584655801,2.0332615221759673,-0.06723003452419024,-0.7293766917140801,-1.4179404143481982
3.2,1.6907665637047373e+18,3.2017371582031253,-0.5955520223276316,1.765063916056156,-0.8258026181031763,1.6907665637034852e+18,3.20048515625,0.045965576171875,1.1497650146484375,-0.019268798828125,1.6907665637047373e+18,3.2017371582031253,1.2021830579393356,9.714504800266027,0.5200332335652783,1.6907665637047373e+18,3.2017371582031253,-1.755417799949646,0.26903744116425515,-1.0604085206985474,1.6907665637034852e+18,3.20048515625,-1.750091290473938,0.2379269614815712,-1.077937114238739,,,,,,,,,,,,,1.6907665637047373e+18,3.2017371582031253,11.024320220947265,50.46402282714844,-13.363064575195313,1.6907665637001546e+18,3.197154541015625,49.869024658203124,73.18056945800781,117.9775177001953,1.6907665637047373e+18,3.2017371582031253,-0.3470779876858391,0.0062036220334148,0.6609872896399622,2.7277595769114953,-0.040880069799729,-0.7491111174705837,-1.4336509526039067
3.25,1.6907665637548472e+18,3.2518472167968753,1.0940879071101546,-0.2969198181128502,-0.23299666865350677,1.6907665637535954e+18,3.25059521484375,0.2856292724609375,0.947406005859375,-0.0738067626953125,1.6907665637548472e+18,3.2518472167968753,1.6709456626835464,9.651484338920712,-0.37917081719007106,1.6907665637548472e+18,3.2518472167968753,-1.7519753217697143,0.013768560066819169,-1.1108545064926147,1.6907665637535954e+18,3.25059521484375,-1.7575758934020995,0.052905669808387776,-1.0946536779403686,,,,,,,,,,,,,1.6907665637548472e+18,3.2518472167968753,13.446366882324218,48.447732543945314,-17.861607360839844,1.6907665637503104e+18,3.2473102539062504,52.174566650390624,71.12656860351562,113.43860473632813,1.6907665637548472e+18,3.2518472167968753,0.2624431791695296,0.03403286195738546,0.643960208443872,-2.9322462792604673,-0.00335796559775038,-0.7641500783822817,-1.3938851045297789
3.3,1.6907665638049564e+18,3.301956396484375,-0.06196867265701291,-1.155919626288414,-0.8040757202678174,1.6907665638037043e+18,3.3007043945312504,0.23660888671875,0.8305419921875,-0.1930755615234375,1.6907665638049564e+18,3.301956396484375,2.3654304113803803,9.453983277128339,-1.0561889544745533,1.6907665638049564e+18,3.301956396484375,-1.3601144313812257,-1.5426681399345399,-1.6223639488220214,1.6907665638037043e+18,3.3007043945312504,-1.3727003335952759,-1.4966250300407409,-1.6098856449127197,,,,,,,,,,,,,1.6907665638049564e+18,3.301956396484375,16.337382507324218,45.95873870849609,-21.80095520019531,1.6907665638004682e+18,3.2974682128906254,55.23658142089844,68.60072631835938,109.6132568359375,1.6907665638049564e+18,3.301956396484375,0.5121640426254934,0.07511465400142074,0.6157877037860435,-2.722609849370504,0.009879420634623399,-0.7840431215689861,-1.3033266195091713
