seconds_elapsed_rounded,accelerometer_time,accelerometer_seconds_elapsed,accelerometer_z,accelerometer_y,accelerometer_x,accelerometeruncalibrated_time,accelerometeruncalibrated_seconds_elapsed,accelerometeruncalibrated_z,accelerometeruncalibrated_y,accelerometeruncalibrated_x,gravity_time,gravity_seconds_elapsed,gravity_z,gravity_y,gravity_x,gyroscope_time,gyroscope_seconds_elapsed,gyroscope_z,gyroscope_y,gyroscope_x,gyroscopeuncalibrated_time,gyroscopeuncalibrated_seconds_elapsed,gyroscopeuncalibrated_z,gyroscopeuncalibrated_y,gyroscopeuncalibrated_x,location_time,location_seconds_elapsed,location_bearingAccuracy,location_speedAccuracy,location_verticalAccuracy,location_horizontalAccuracy,location_speed,location_bearing,location_altitude,location_longitude,location_latitude,magnetometer_time,magnetometer_seconds_elapsed,magnetometer_z,magnetometer_y,magnetometer_x,magnetometeruncalibrated_time,magnetometeruncalibrated_seconds_elapsed,magnetometeruncalibrated_z,magnetometeruncalibrated_y,magnetometeruncalibrated_x,orientation_time,orientation_seconds_elapsed,orientation_qz,orientation_qy,orientation_qx,orientation_qw,orientation_roll,orientation_pitch,orientation_yaw
0.0,1.6888761796709604e+18,29.99996061197917,-9.314827919006348,-7.302818616231282,12.019745826721191,1.6888761796709604e+18,29.999960327148436,-8.189136505126953,-18.046369552612305,15.97717571258545,1.6888761796709604e+18,29.999960327148436,4.547120571136475,-8.509125232696533,1.7652278542518616,1.6888761796752852e+18,30.004285319010418,0.8240063190460205,1.8471038341522217,-2.04125706354777,1.6888761796709604e+18,29.999960327148436,0.6992116272449493,1.2451723888516426,-1.5644259452819824,,,,,,,,,,,,1.6888761796700324e+18,29.999032470703128,-37.65407943725586,35.33851928710938,-9.913719749450683,1.6888761796700324e+18,29.999032470703128,-293.2806762695312,130.19352111816406,-143.0401123046875,1.6888761796709604e+18,29.999960327148436,0.8563149571418762,-0.5083110630512238,0.0853469967842101,0.0301485126838087,-0.3606922328472137,1.0462235808372498,-2.861796259880066
0.05,1.6888761797228628e+18,30.051862955729167,-7.975722471872966,0.2693142890930176,7.0106329917907715,1.688876179714214e+18,30.04321427408854,-6.2624155680338545,-8.759924252827963,8.41236686706543,1.688876179714214e+18,30.04321427408854,3.1017425060272217,-9.209848721822103,1.1068968971570332,1.68887617972719e+18,30.05618994140625,-1.3154982527097066,2.844137668609619,-5.634875615437825,1.688876179714214e+18,30.04321427408854,-0.2306016013026238,2.942385196685791,-5.142263571421306,,,,,,,,,,,,1.688876179720033e+18,30.0490330078125,-30.556119537353517,42.00459976196289,-4.572559833526611,1.688876179720033e+18,30.0490330078125,-286.18271484375,136.85960083007814,-137.69895629882814,1.688876179714214e+18,30.04321427408854,0.8100144863128662,-0.581053614616394,0.0222946222250659,0.0615564448138077,-0.3410510718822479,1.2226539452870686,-2.744372606277466
0.1,1.6888761797747704e+18,30.103770670572917,-11.140175501505531,-26.015682856241863,2.420541445414225,1.6888761797661204e+18,30.095120524088543,-9.555537939071655,-32.34019470214844,8.319644927978517,1.6888761797661204e+18,30.095120524088543,0.8607776264349619,-9.58366839090983,1.8618722359339397,1.688876179770448e+18,30.099448120117188,-1.9575939774513245,2.0852649211883545,-2.8303678035736084,1.6888761797661204e+18,30.095120524088543,-2.1352286140124,2.283974304795265,-3.586033503214518,,,,,,,,,,,,1.6888761797700326e+18,30.099032617187497,-19.705439376831055,47.38235855102539,-5.633959865570068,1.6888761797700326e+18,30.099032617187497,-275.33203125,142.23735961914062,-138.76035766601564,1.6888761797661204e+18,30.095120524088543,0.7238817811012268,-0.6732728679974874,-0.0095456332589189,0.1474460686246554,-1.102644443511963,1.357392152150472,-1.8151521682739256
0.15,1.688876179826679e+18,30.155679199218753,18.314865271250408,-8.443142890930176,-9.49024740854899,1.688876179818029e+18,30.14702897135417,9.191031455993652,-21.53779665629069,-9.20140012105306,1.688876179818029e+18,30.14702897135417,-1.8415956497192385,-9.354491551717125,2.029850959777832,1.6888761798137009e+18,30.14270084635417,-0.2965241695443789,-4.143448034922282,-6.422789891560872,1.688876179818029e+18,30.14702897135417,-0.2912809078892072,-4.102520068486531,-6.508870919545491,,,,,,,,,,,,1.6888761798200335e+18,30.149033398437503,-5.180119919776916,49.91507873535157,-7.5883996963500975,1.6888761798200335e+18,30.149033398437503,-260.8067138671875,144.77008056640625,-140.714794921875,1.688876179818029e+18,30.14702897135417,0.6265530586242676,-0.7676645517349243,0.0198111483672012,0.1182180965940157,-2.2292961279551187,1.2773635784784954,-0.7716392278671265
0.2,1.6888761798785823e+18,30.207582438151046,12.16892353693644,4.633333206176758,2.070591926574707,1.6888761798699323e+18,30.198932373046876,11.76092290878296,-6.175077637036641,3.3322048584620156,1.6888761798699323e+18,30.198932373046876,-3.5680366357167563,-8.90424919128418,2.05211595694224,1.688876179865608e+18,30.194607828776043,0.5935573851068815,2.512488762537638,-1.964644432067871,1.6888761798699323e+18,30.198932373046876,0.6394740839799246,2.627636830012003,-1.6673566897710164,,,,,,,,,,,,1.6888761798700337e+18,30.19903364257813,5.953599834442139,50.48359832763672,-7.978799819946289,1.6888761798700337e+18,30.19903364257813,-249.672998046875,145.3385986328125,-141.10519714355468,1.6888761798699323e+18,30.198932373046876,0.5525799592336019,-0.824315587679545,0.0055184874994059,0.1207665428519248,-2.622596104939779,1.143698771794637,-0.3519386053085327
0.25,1.6888761799218345e+18,30.25083435058594,15.747382640838625,7.408748149871826,-6.646426796913148,1.6888761799218342e+18,30.250834391276044,9.988439381122587,-1.971685881416003,-3.1258241335550943,1.6888761799218342e+18,30.250834391276044,-3.321398893992106,-8.950201352437338,2.236627737681071,1.688876179917507e+18,30.24650708007813,-0.3709479123353957,0.0311541457970937,1.299463078379631,1.6888761799218342e+18,30.250834391276044,-0.3816380600134532,0.2998839020729065,1.5689055522282918,,,,,,,,,,,,1.6888761799200384e+18,30.249038476562497,5.3338398933410645,50.53971862792969,-7.768959808349609,1.6888761799200384e+18,30.249038476562497,-250.29275512695312,145.39471740722655,-140.89535522460938,1.6888761799218342e+18,30.250834391276044,0.5590471824010214,-0.8169557452201843,-0.0047664140195896,0.1404257168372472,-2.549275159835815,1.1550880670547483,-0.3820549547672272
0.3,1.6888761799650888e+18,30.29408870442708,0.6789639790852865,6.024843056996663,-7.116801579793294,1.6888761799737388e+18,30.302738850911457,-3.733800292015076,-1.94436776638031,-3.1415767669677734,1.6888761799737388e+18,30.302738850911457,-1.7469727198282878,-9.356939315795898,2.3381097316741943,1.6888761799694103e+18,30.298410481770834,0.9431250095367432,3.1951815684636435,2.594701051712036,1.6888761799737388e+18,30.302738850911457,1.0411688884099324,2.7088310370842614,2.5704191525777182,1.6888761799737408e+18,30.30274072265625,0.0,0.0,1.3547366857528689,7.03000020980835,1.927524209022522,180.68011474609375,23.299999237060547,-122.7500396,49.1923035,1.6888761799700362e+18,30.29903623046875,-2.305799961090088,50.57143936157227,-6.868599987030029,1.6888761799700362e+18,30.29903623046875,-257.93239440917966,145.4264373779297,-139.9949981689453,1.6888761799737388e+18,30.302738850911457,0.6130762298901876,-0.7649070024490356,-0.0464013423770665,0.1905276775360107,-2.204691251118978,1.272984544436137,-0.5964251557985941
0.35,1.6888761800169935e+18,30.34599373372396,-1.049030105272929,4.908727486928305,-1.8504894574483235,1.688876180025638e+18,30.354638102213546,-2.1714864671230316,-8.696314732233683,0.6939185659090678,1.688876180025638e+18,30.354638102213546,-0.3530971904595693,-9.587444305419922,1.984515110651652,1.6888761800213169e+18,30.350317138671873,0.2182316109538079,-1.8197166919708252,3.66758402188619,1.688876180025638e+18,30.354638102213546,0.1300634009142717,-1.7883079648017883,3.8710530598958335,,,,,,,,,,,,1.688876180020041e+18,30.34904091796875,-9.82343978881836,49.89067916870117,-5.089839839935303,1.688876180020041e+18,30.34904091796875,-265.4500366210938,144.7456787109375,-138.2162353515625,1.688876180025638e+18,30.354638102213546,0.6747978528340658,-0.7173964977264404,-0.0317829443762699,0.167321150501569,-1.7235862414042156,1.362354596455892,-1.1338902711868286
0.4,1.6888761800688927e+18,30.397892415364584,-1.311926285425822,-23.00173505147298,2.7444233894348145,1.6888761800775416e+18,30.406541748046877,2.1888345082600913,-33.94757207234701,6.993223667144775,1.6888761800775416e+18,30.406541748046877,1.951720714569092,-9.393691698710125,1.9338614145914712,1.6888761800732214e+18,30.4022216796875,0.1214094360669453,-2.1474458376566568,5.3615132967631025,1.6888761800775416e+18,30.406541748046877,-0.1652390360832213,-2.157270550727844,5.265098571777344,,,,,,,,,,,,1.6888761800700385e+18,30.399038427734375,-21.554959869384767,46.40147933959961,-5.853559970855713,1.6888761800700385e+18,30.399038427734375,-277.1815551757812,141.25647583007813,-138.9799560546875,1.6888761800775416e+18,30.406541748046877,0.7640304565429688,-0.6300910512606303,0.0173617952192823,0.1311199938257534,-0.7859274744987488,1.2829430103302002,-2.192994991938273
0.45,1.6888761801207974e+18,30.449797526041664,0.7011218070983887,-19.92883046468099,5.683984915415446,1.688876180120793e+18,30.44979296875,2.7134608030319214,-29.032116889953613,8.919844627380371,1.688876180120793e+18,30.44979296875,3.6547471284866337,-8.692565441131592,2.669452428817749,1.6888761801251244e+18,30.454124186197916,-0.8817330896854401,-0.9381362994511924,5.0896782875061035,1.688876180120793e+18,30.44979296875,-1.117196153849363,-1.221195966005325,5.171356201171875,,,,,,,,,,,,1.6888761801200338e+18,30.449033837890624,-31.946918869018553,39.80127944946289,-10.745759582519533,1.6888761801200338e+18,30.449033837890624,-287.5735107421875,134.65627746582032,-143.87215881347657,1.688876180120793e+18,30.44979296875,0.8199194967746735,-0.5521838963031769,0.0780504904687404,0.126942466944456,-0.6218030750751495,1.0886427760124209,-2.448641300201416
0.5,1.6888761801727004e+18,30.501700195312495,-6.259961764017741,-6.684903621673584,-0.6390590270360311,1.6888761801640502e+18,30.493050292968743,3.0520452658335366,-16.900705973307293,2.6165515581766763,1.6888761801640502e+18,30.493050292968743,5.236991723378499,-7.837543487548828,2.6903305848439536,1.688876180177027e+18,30.50602718098958,0.8729773362477621,-2.106059710184733,3.058704137802124,1.6888761801640502e+18,30.493050292968743,0.7773260275522867,-1.229366312424342,3.8484001954396567,,,,,,,,,,,,1.6888761801700326e+18,30.49903276367187,-39.70611953735352,31.35399971008301,-12.578199768066408,1.6888761801700326e+18,30.49903276367187,-295.33271484375,126.20899658203123,-145.70459594726563,1.6888761801640502e+18,30.493050292968743,0.8712964852650961,-0.4690158466498057,0.1019132956862449,0.0987467492620149,-0.4672593772411346,0.92321248849233,-2.6792585849761963
0.55,1.6888761802245972e+18,30.553597493489587,-10.300557295481363,13.350764433542889,-4.30594531695048,1.6888761802159567e+18,30.544957031250004,-5.882156287630399,2.5742783546447754,-0.940977523724238,1.6888761802159567e+18,30.544957031250004,5.711887200673421,-7.253156503041585,3.302269617716471,1.6888761802202803e+18,30.54928039550781,0.3200170248746872,-3.786677360534668,1.9943222999572752,1.6888761802159567e+18,30.544957031250004,0.4613050669431686,-3.551570494969686,1.9759454329808552,,,,,,,,,,,,1.6888761802200343e+18,30.549034228515627,-41.3628791809082,26.852199935913085,-16.440719604492188,1.6888761802200343e+18,30.549034228515627,-296.9894775390625,121.7071975708008,-149.5671142578125,1.6888761802159567e+18,30.544957031250004,0.8898336291313171,-0.4209997157255808,0.1686496337254841,0.039881066729625,-0.5164457559585571,0.8281369209289551,-2.821244796117147
0.6,1.688876180276507e+18,30.6055068359375,-9.926812489827476,17.33799680074056,-0.6434017817179362,1.688876180267854e+18,30.596854166666663,-5.247460047403972,11.642278353373207,3.3461631139119468,1.688876180267854e+18,30.596854166666663,5.620404084523519,-7.099216461181641,3.770673910776774,1.6888761802635308e+18,30.592530761718752,0.0399098582565784,-0.5530366798241932,-0.5857179959615072,1.688876180267854e+18,30.596854166666663,0.0143044266539315,-0.3746130963166554,-0.9024515648682911,,,,,,,,,,,,1.6888761802700316e+18,30.599031591796876,-41.353118896484375,25.25887985229492,-20.447199630737305,1.6888761802700316e+18,30.599031591796876,-296.97971801757814,120.11387786865234,-153.57359619140624,1.688876180267854e+18,30.596854166666663,0.8880436221758524,-0.4100811382134755,0.2068653951088587,0.0180925422658522,-0.5845956603686014,0.805033008257548,-2.845818201700846
0.65,1.68887618032841e+18,30.65741023763021,-3.0435538291931152,8.839757283528646,-2.920701742172241,1.68887618031976e+18,30.648760009765624,-0.8693922559420267,2.4099711825450263,0.99022975564003,1.68887618031976e+18,30.648760009765624,4.7034064928690595,-7.908955256144206,3.3623290061950684,1.688876180315436e+18,30.644435953776043,0.8631525834401449,1.9409734010696411,-3.632968346277873,1.68887618031976e+18,30.648760009765624,0.9597711165746052,2.1150700648625693,-3.679954051971435,,,,,,,,,,,,1.6888761803200356e+18,30.64903559570312,-38.59347915649414,30.72691993713379,-18.53179988861084,1.6888761803200356e+18,30.64903559570312,-294.220068359375,125.58191680908205,-151.65819702148437,1.68887618031976e+18,30.648760009765624,0.8606769839922587,-0.4749383827050527,0.1767853448788325,0.0372676346451043,-0.6117500265439352,0.9360609451929728,-2.7383368015289307
0.7,1.6888761803716562e+18,30.700656127929687,15.86570405960083,-5.352033615112304,-5.1122002601623535,1.6888761803716628e+18,30.70066300455729,19.380468050638836,-14.917654355367022,-2.512663225332896,1.6888761803716628e+18,30.70066300455729,4.172266960144043,-8.55573844909668,2.359027067820231,1.6888761803673352e+18,30.696335205078125,0.930042326450348,1.8555540839831035,-0.5895867745081583,1.6888761803716628e+18,30.70066300455729,0.9241882165273032,1.7252870599428811,0.0619519154230753,,,,,,,,,,,,1.688876180370038e+18,30.699037988281248,-35.148199462890624,36.38283920288086,-12.19755973815918,1.688876180370038e+18,30.699037988281248,-290.77479248046876,131.2378356933594,-145.32395629882814,1.6888761803716628e+18,30.70066300455729,0.8438354134559631,-0.5227853854497274,0.1075280606746673,0.0536389611661433,-0.5051183899243673,1.0567506551742554,-2.7153077920277915
0.75,1.6888761804149164e+18,30.74391617838542,-15.754434744517008,-10.500840822855633,0.7409311135609938,1.6888761804235666e+18,30.75256681315104,-16.42592986424764,-15.092329978942873,4.576073964436849,1.6888761804235666e+18,30.75256681315104,3.754942019780477,-8.761837005615234,2.243416945139567,1.688876180419242e+18,30.748241861979167,0.41813725233078,-0.8862127264340719,-2.3048455119132996,1.6888761804235666e+18,30.75256681315104,0.5102761387825012,-0.695470134417216,-2.76615047454834,,,,,,,,,,,,1.6888761804200384e+18,30.749038427734376,-34.72851905822754,37.33687973022461,-12.08287982940674,1.6888761804200384e+18,30.749038427734376,-290.35511474609376,132.19187927246094,-145.20927734375,1.6888761804235666e+18,30.75256681315104,0.8319687048594157,-0.5414156119028727,0.1111776406566301,0.0380088426172732,-0.5339637100696564,1.1034648815790813,-2.714040915171305
0.8,1.6888761804668183e+18,30.795818603515624,-6.326215982437134,6.5406263669331866,4.186842203140259,1.6888761804754688e+18,30.80446883138021,-2.3575285275777182,-4.0955152312914525,6.884549379348755,1.6888761804754688e+18,30.80446883138021,2.550102949142456,-9.370944023132324,1.305980642636617,1.6888761804711447e+18,30.800144775390624,0.9728029171625776,4.549775282541911,-2.929913361867269,1.6888761804754688e+18,30.80446883138021,0.5266676147778829,4.792543252309163,-3.17466668287913,1.6888761804927685e+18,30.821768310546876,0.0,0.0,1.3547366857528689,7.084000110626221,1.9684278964996336,180.26925659179688,23.299999237060547,-122.7500373,49.1922882,1.6888761804700357e+18,30.799035791015623,-30.080319213867188,42.08755874633789,-6.4293999671936035,1.6888761804700357e+18,30.799035791015623,-285.70692138671876,136.94255676269532,-139.55579833984376,1.6888761804754688e+18,30.80446883138021,0.7922839522361755,-0.6044356226921082,0.0320860324524498,0.0639326410988966,-0.4577398200829823,1.27057949701945,-2.638496160507202
0.85,1.6888761805187208e+18,30.84772094726563,-9.723846713701883,-19.77186679840088,10.144857406616213,1.6888761805273702e+18,30.85637003580729,-10.870792547861734,-34.36671574910482,9.077372074127195,1.6888761805273702e+18,30.85637003580729,0.6764038056135178,-9.607210795084637,1.7602343956629436,1.6888761805230436e+18,30.85204337565104,-2.1177171071370444,2.2783745924631753,-4.374456882476807,1.6888761805273702e+18,30.85637003580729,-1.925294558207194,1.2855151096979778,-4.3815328280131025,,,,,,,,,,,,1.68887618052004e+18,30.84903979492187,-21.005959701538085,46.85287857055664,-3.3208399772644044,1.68887618052004e+18,30.84903979492187,-276.63255615234374,141.70787658691407,-136.44723815917968,1.6888761805273702e+18,30.85637003580729,0.7131956617037455,-0.6792995731035868,-0.0352133847773074,0.1656781385342279,-1.178156356016795,1.369608759880066,-1.6768879095713298
0.9,1.6888761805706217e+18,30.899621663411455,12.380792617797852,-14.677323977152506,-9.881254037221272,1.6888761805706266e+18,30.89962646484375,7.377371311187742,-24.676880836486816,-8.936893701553345,1.6888761805706266e+18,30.89962646484375,-1.8744572401046753,-9.425137519836426,1.8502486944198608,1.6888761805749522e+18,30.903952311197916,-0.1957823038101196,-4.839783549308777,-5.741827964782715,1.6888761805706266e+18,30.89962646484375,0.0287106707692146,-6.328563928604126,-6.510830640792847,,,,,,,,,,,,1.6888761805700362e+18,30.89903618164062,-7.036959767341614,49.92727890014648,-5.807199859619141,1.6888761805700362e+18,30.89903618164062,-262.66355895996094,144.78228149414062,-138.93359985351563,1.6888761805706266e+18,30.89962646484375,0.6280185878276825,-0.76947882771492,0.017276789760217,0.1072008758783339,-2.3283305168151855,1.298514187335968,-0.6848852038383484
0.95,1.6888761806225252e+18,30.95152498372396,15.921799023946129,1.955860455830892,-0.1594015757242838,1.688876180613879e+18,30.942879069010417,17.293328603108723,-8.52981448173523,-0.4205386141935984,1.688876180613879e+18,30.942879069010417,-3.497046152750651,-8.977237701416016,1.8359970649083457,1.688876180626855e+18,30.955854736328124,0.2709696516394615,3.1550680001576743,-1.5130622585614522,1.688876180613879e+18,30.942879069010417,0.1226821144421895,2.2658010025819144,-2.530712922414144,,,,,,,,,,,,1.6888761806200374e+18,30.949037451171876,5.148399925231933,50.615359497070315,-7.241919803619385,1.6888761806200374e+18,30.949037451171876,-250.4781921386719,145.4703582763672,-140.36831665039062,1.688876180613879e+18,30.942879069010417,0.5603521466255188,-0.8217966357866923,0.021037505493344,0.0971796189745266,-2.6610752741495767,1.1621110439300537,-0.3703387975692749
1.0,1.688876180674427e+18,31.003427001953128,11.096910953521729,8.729988733927408,-4.5309089819590245,1.6888761806657815e+18,30.994781575520832,5.4159544219340505,0.3882355292638142,0.2079761823018392,1.6888761806657815e+18,30.994781575520832,-3.462439775466919,-8.92031160990397,2.1570584774017334,1.6888761806701102e+18,30.999109985351566,-0.3811799138784408,-1.9029216766357424,1.3864350616931915,1.6888761806657815e+18,30.994781575520832,-0.2597195357084274,-0.6270022392272949,1.0408125979204972,,,,,,,,,,,,1.6888761806700344e+18,30.999034423828125,5.3387199401855465,50.38843994140625,-7.568879890441894,1.6888761806700344e+18,30.999034423828125,-250.28787841796876,145.24343872070312,-140.69527893066407,1.6888761806657815e+18,30.994781575520832,0.5548019607861837,-0.8212506373723348,-0.000887038729464,0.1320836047331491,-2.586888551712036,1.1474925676981609,-0.3619918823242187
1.05,1.6888761807263347e+18,31.0553349609375,1.8783740202585857,7.153697808583577,-5.529825846354167,1.6888761807176758e+18,31.04667578125,2.733002225557963,-3.130210816860199,-4.656831661860148,1.6888761807176758e+18,31.04667578125,-2.3250048557917276,-9.278942426045736,2.1261136531829834,1.6888761807133553e+18,31.042355305989584,0.7116580108801523,2.747519095738729,2.397595167160034,1.6888761807176758e+18,31.04667578125,0.8316421111424764,2.847039302190145,2.538399616877238,,,,,,,,,,,,1.6888761807200325e+18,31.049032128906248,-0.4562799513339996,50.63243865966797,-6.700239944458008,1.6888761807200325e+18,31.049032128906248,-256.08287353515624,145.48743896484376,-139.8266387939453,1.6888761807176758e+18,31.04667578125,0.6003524462381998,-0.784842292467753,-0.0176719843875616,0.1496810217698414,-2.3928984006245932,1.247889717419942,-0.5083564519882202
1.1,1.688876180778234e+18,31.107234375,-4.576988220214844,-3.637163480122884,-1.7371573448181152,1.688876180769586e+18,31.0985859375,-3.9150567054748535,-8.554739574591318,-0.0538385100662707,1.688876180769586e+18,31.0985859375,-0.5417330637574196,-9.622886021931969,1.7472908894220989,1.688876180765264e+18,31.094264160156246,0.669966439406077,-0.6262386838595072,4.033746798833211,1.688876180769586e+18,31.0985859375,0.5930483639240265,-0.8522587915261587,4.1563271681467695,,,,,,,,,,,,1.6888761807700332e+18,31.09903305664063,-9.620919895172118,49.89067916870117,-4.504239940643311,1.6888761807700332e+18,31.09903305664063,-265.2475219726563,144.7456787109375,-137.6306365966797,1.688876180769586e+18,31.0985859375,0.6716138124465942,-0.7240689794222513,-0.0330655835568904,0.150429551800092,-1.8287043571472168,1.3811616897583008,-1.051419734954834
1.15,1.6888761808214907e+18,31.15049060058594,2.332576632499695,-22.516263008117676,5.676758289337158,1.6888761808214917e+18,31.150491455078125,3.0073791344960537,-31.665417353312176,8.334001700083414,1.6888761808214917e+18,31.150491455078125,1.6870640516281128,-9.485312143961588,1.7302730480829875,1.6888761808171625e+18,31.146162597656247,-0.3144429127375285,-2.9095002015431723,5.099554061889648,1.6888761808214917e+18,31.150491455078125,-0.64690629641215,-2.876920779546102,5.046306769053142,,,,,,,,,,,,1.6888761808200356e+18,31.14903559570313,-20.813199615478517,46.159918212890624,-5.099599838256836,1.6888761808200356e+18,31.14903559570313,-276.43980102539064,141.0149169921875,-138.2259948730469,1.6888761808214917e+18,31.150491455078125,0.7586933374404907,-0.6404337882995605,0.0206772998596231,0.1091040273507435,-0.8026271263758341,1.3187872171401978,-2.212924400965373
1.2,1.68887618086474e+18,31.19373982747396,1.4632242520650227,-20.370866775512695,7.653110424677531,1.6888761808733934e+18,31.202393391927085,3.994418541590373,-27.315467198689777,7.7513494292895,1.6888761808733934e+18,31.202393391927085,3.8052422205607095,-8.650386174519857,2.5394420623779297,1.6888761808690696e+18,31.198069580078123,-0.9957103729248048,-0.0756963857760032,4.8626909255981445,1.6888761808733934e+18,31.202393391927085,-0.6431392729282379,-0.0190386349956194,4.90346622467041,,,,,,,,,,,,1.6888761808700385e+18,31.19903828125,-31.18807907104492,39.84519882202149,-10.601799774169924,1.6888761808700385e+18,31.19903828125,-286.8146728515625,134.70020141601563,-143.7281982421875,1.6888761808733934e+18,31.202393391927085,0.8259714444478353,-0.5448147455851237,0.0775923480590183,0.1166102811694145,-0.5858433246612549,1.080934762954712,-2.498909711837769
1.25,1.68887618091665e+18,31.24565006510417,-5.727276086807251,-6.045132001241048,-1.9439044793446856,1.688876180925298e+18,31.25429817708333,-3.9282171726226807,-11.304491678873696,0.4839483698209126,1.688876180925298e+18,31.25429817708333,5.305793285369873,-7.821673234303792,2.613893906275431,1.6888761809209772e+18,31.249977132161455,0.6010913948218027,-2.007506787776947,2.9561805725097656,1.688876180925298e+18,31.25429817708333,0.567290186882019,-2.4627031882603965,2.7891088326772056,,,,,,,,,,,,1.688876180920038e+18,31.24903774414063,-39.235199737548825,32.02011947631836,-11.453359603881836,1.688876180920038e+18,31.24903774414063,-294.8617858886719,126.87511749267578,-144.5797607421875,1.688876180925298e+18,31.25429817708333,0.8748739759127299,-0.4644126395384471,0.1054575120409329,0.084426999092102,-0.4495593706766764,0.9196561177571616,-2.7236358324686685
1.3,1.6888761809685476e+18,31.297547607421876,-9.28713345527649,12.779924233754477,-4.895733992258708,1.6888761809771935e+18,31.30619376627604,-2.604986310005188,8.340581973393759,-0.3802593946456909,1.6888761809771935e+18,31.30619376627604,5.500613371531169,-7.285523732503255,3.585491975148519,1.688876180972875e+18,31.30187524414062,-0.0114537229140599,-3.3478469848632812,1.575828750928243,1.6888761809771935e+18,31.30619376627604,-0.0472911521792411,-2.974353869756063,1.371901512145996,,,,,,,,,,,,1.6888761809700406e+18,31.299040576171876,-40.25511932373047,27.313359451293945,-17.587519454956055,1.6888761809700406e+18,31.299040576171876,-295.8817199707031,122.1683578491211,-150.713916015625,1.6888761809771935e+18,31.30619376627604,0.8842218915621439,-0.4250277479489644,0.1902671257654825,0.0316125918179749,-0.5706280867258707,0.8328974843025208,-2.812244415283203
1.35,1.6888761810204529e+18,31.349452799479167,-10.487309137980144,16.951396942138672,-1.2682626247406006,1.6888761810204534e+18,31.349453491210937,-5.157729387283325,9.915258884429932,2.8683961629867554,1.6888761810204534e+18,31.349453491210937,5.275898218154907,-7.283551931381226,3.9153956174850464,1.6888761810247764e+18,31.35377661132813,0.1990911612908045,-0.2038762668768564,-1.7099136511484785,1.6888761810204534e+18,31.349453491210937,0.0872773751616478,-0.3859141059219838,-1.3563499748706818,1.6888761810117998e+18,31.3407998046875,0.0,0.0,1.3648110628128052,7.229000091552734,2.010467767715454,179.71099853515625,25.11452949673884,-122.7500331,49.1922733,1.6888761810200384e+18,31.349038476562495,-39.50115966796875,27.04007911682129,-21.22067985534668,1.6888761810200384e+18,31.349038476562495,-295.1277587890625,121.89507751464843,-154.34707641601562,1.6888761810204534e+18,31.349453491210937,0.8779567778110504,-0.4273108392953872,0.214336983859539,0.0244875727221368,-0.6319571435451508,0.8328231573104858,-2.7985092401504517
1.4,1.6888761810723553e+18,31.40135546875,-2.7272493839263916,7.452711900075276,-4.263091882069905,1.688876181063706e+18,31.392705891927083,-1.150349497795105,0.7459624409675598,-0.4556333422660827,1.688876181063706e+18,31.392705891927083,4.36547835667928,-8.024260520935059,3.5423954327901206,1.6888761810766797e+18,31.40567960611979,1.4350752035776777,2.2956824898719788,-2.788956125577291,1.688876181063706e+18,31.392705891927083,1.1591168244679768,1.3697125713030498,-3.2978578408559165,,,,,,,,,,,,1.6888761810700362e+18,31.39903623046875,-36.055878448486325,32.683799743652344,-18.817279434204103,1.6888761810700362e+18,31.39903623046875,-291.68247680664064,127.53880004882812,-151.9436767578125,1.688876181063706e+18,31.392705891927083,0.8509594996770223,-0.4866599142551422,0.1930072804292042,0.0311925361553827,-0.6732045610745748,0.9559515913327536,-2.70936910311381
1.45,1.6888761811242565e+18,31.453256591796872,7.462661107381185,-14.318893432617188,-4.638590097427368,1.6888761811156083e+18,31.444608479817703,16.926628351211548,-20.537596702575684,-2.8153551816940308,1.6888761811156083e+18,31.444608479817703,4.554554303487142,-8.358535130818685,2.2951910495758057,1.6888761811285857e+18,31.45758561197917,0.6469062765439352,0.2204714218775431,1.5829555590947468,1.6888761811156083e+18,31.444608479817703,1.280780831972758,2.20944877465566,1.977421720822652,,,,,,,,,,,,1.6888761811200384e+18,31.44903862304687,-37.23684005737304,34.457679748535156,-11.914519691467286,1.6888761811200384e+18,31.44903862304687,-292.8634338378906,129.31267700195312,-145.04091796875,1.6888761811156083e+18,31.444608479817703,0.8559399843215942,-0.5023095806439718,0.1110776513814925,0.0413373385866482,-0.4633454084396362,1.017362634340922,-2.780780871709188
1.5,1.6888761811761644e+18,31.505164143880208,-16.45720926920573,5.040975570678711,3.2079528172810874,1.6888761811675098e+18,31.496509928385414,-17.228522300720215,-6.656832695007324,5.872385422388713,1.6888761811675098e+18,31.496509928385414,4.189826011657715,-8.528162002563477,2.3912758827209473,1.688876181171837e+18,31.5008369140625,1.226541094481945,-0.0957531929016113,-2.7937158346176147,1.6888761811675098e+18,31.496509928385414,0.8538368741671244,-0.8428922096888224,-2.8000025749206543,,,,,,,,,,,,1.6888761811700367e+18,31.49903671875,-35.88507919311523,35.497119140625,-13.419999885559085,1.6888761811700367e+18,31.49903671875,-291.5116760253906,130.35211791992188,-146.54639892578126,1.6888761811675098e+18,31.496509928385414,0.8460027376810709,-0.5159394343694051,0.1305517057577768,0.020182750498255,-0.510108490784963,1.0514127016067505,-2.7932098706563315
1.55,1.688876181228066e+18,31.557065917968753,-4.592310786247253,-3.675103505452473,9.547813097635904,1.688876181219416e+18,31.54841593424479,-4.527818500995636,-7.856235166390737,7.888537963231404,1.688876181219416e+18,31.54841593424479,2.5462327003479004,-9.318647384643556,1.552531321843465,1.68887618121509e+18,31.544090087890627,0.1689042846361796,3.2116240660349527,-4.800637324651082,1.688876181219416e+18,31.54841593424479,-0.325845718383789,3.4198273022969565,-5.097670475641887,,,,,,,,,,,,1.6888761812200394e+18,31.549039501953125,-29.52887954711914,41.75327835083008,-8.35699987411499,1.6888761812200394e+18,31.549039501953125,-285.1554748535156,136.6082733154297,-141.4833953857422,1.688876181219416e+18,31.54841593424479,0.7938272356987,-0.6012481451034546,0.0676715324322382,0.038279869283239,-0.5541460414727529,1.2544614871342976,-2.6298338572184243
1.6,1.6888761812713185e+18,31.600318359375,-12.45056438446045,-33.463802337646484,4.6173996925354,1.6888761812713165e+18,31.60031648763021,-9.2789675394694,-40.523048400878906,7.147959550221761,1.6888761812713165e+18,31.60031648763021,0.356724997361501,-9.58099047342936,1.9763797124226887,1.6888761812669942e+18,31.595994140625,-1.2997175852457683,3.150130271911621,-4.895321289698283,1.6888761812713165e+18,31.60031648763021,-1.011134684085846,2.347351551055908,-5.011996587117513,,,,,,,,,,,,1.688876181270037e+18,31.599037109375,-19.336999893188477,47.13835906982422,-6.214679908752442,1.688876181270037e+18,31.599037109375,-274.9635986328125,141.99335632324218,-139.34107666015626,1.6888761812713165e+18,31.60031648763021,0.7064496477444967,-0.6916419863700867,-0.0028298158819476,0.1452435851097106,-1.3686942259470622,1.3571603298187256,-1.5618785619735718
1.65,1.688876181314565e+18,31.643565266927084,12.584585984547934,-9.97826639811198,-11.462886492411297,1.688876181323219e+18,31.65221883138021,16.481762568155926,-14.218152205149332,-8.800602197647095,1.688876181323219e+18,31.65221883138021,-2.824155807495117,-9.21185334523519,1.6708770195643108,1.6888761813188964e+18,31.64789607747396,0.3324634035428365,-2.800359010696411,-6.059834082921346,1.688876181323219e+18,31.65221883138021,0.3591378629207611,-2.2493075927098594,-5.618025779724121,,,,,,,,,,,,1.688876181320041e+18,31.64904091796875,-3.103680038452149,50.16395874023438,-5.970679759979248,1.688876181320041e+18,31.64904091796875,-258.7302764892578,145.01895446777343,-139.09707641601562,1.688876181323219e+18,31.65221883138021,0.5902200142542521,-0.8003539443016052,0.0118546527810394,0.096149981021881,-2.579188028971354,1.2312486171722412,-0.4414230485757192
1.7,1.6888761813664748e+18,31.695474853515623,13.167412122090658,4.635889212290446,2.714166164398194,1.6888761813751194e+18,31.704119222005207,6.597809632619222,-3.0705897013346353,5.737390518188477,1.6888761813751194e+18,31.704119222005207,-3.7489938735961914,-8.852865854899088,1.9418293237686155,1.6888761813707958e+18,31.69979565429687,-0.0511090606451034,2.426509459813436,-0.8140797813733419,1.6888761813751194e+18,31.704119222005207,-0.1618283887704213,2.1788035929203033,-0.5545129179954529,,,,,,,,,,,,1.6888761813700362e+18,31.699036328124997,6.631919956207275,50.23959884643555,-6.346439838409424,1.6888761813700362e+18,31.699036328124997,-248.994677734375,145.09459838867187,-139.47283935546875,1.6888761813751194e+18,31.704119222005207,0.5427095492680868,-0.8298618197441101,-0.0159684716102977,0.1275495414932568,-2.6670397917429605,1.131385048230489,-0.2661695033311843
1.75,1.6888761814183777e+18,31.74737760416667,14.64179833730062,4.596930980682373,-6.853845516840617,1.688876181427028e+18,31.756027913411454,11.563315550486246,-4.805186748504639,-6.272984027862549,1.688876181427028e+18,31.756027913411454,-3.0633065700531006,-9.030890146891275,2.2577290534973145,1.688876181422705e+18,31.75170499674479,-0.1806124995152155,1.0864238888025284,1.9864319165547688,1.688876181427028e+18,31.756027913411454,-0.0287615656852722,1.6168584823608398,2.178141832351685,,,,,,,,,,,,1.6888761814200333e+18,31.749033349609373,4.836079883575439,50.07367858886719,-7.646959781646728,1.6888761814200333e+18,31.749033349609373,-250.7905151367187,144.92867431640624,-140.7733581542969,1.688876181427028e+18,31.756027913411454,0.568633516629537,-0.8085684577624003,-0.0110017235856502,0.1482570717732111,-2.501622756322225,1.1764801343282063,-0.409823328256607
1.8,1.688876181470281e+18,31.799280924479167,-3.3641900221506753,8.700557867685953,-5.901773770650228,1.6888761814702828e+18,31.799282592773437,-5.477769136428833,-0.0678963065147399,-3.388236880302429,1.6888761814702828e+18,31.799282592773437,-1.6749013662338257,-9.401462078094482,2.230993866920471,1.6888761814746015e+18,31.803601562500003,1.0435105760892232,1.403004765510559,2.878244400024414,1.6888761814702828e+18,31.799282592773437,1.223028540611267,2.1901809573173523,2.7096455097198486,,,,,,,,,,,,1.6888761814700385e+18,31.79903837890625,-2.5839599311351775,50.30059814453125,-6.048759841918946,1.6888761814700385e+18,31.79903837890625,-258.21055297851564,145.1555969238281,-139.17515563964844,1.6888761814702828e+18,31.799282592773437,0.6151828765869141,-0.7615960538387299,-0.0592334438115358,0.1944835558533668,-2.210297107696533,1.28771710395813,-0.5668348670005798
1.85,1.6888761815221809e+18,31.851180582682293,-4.044774055480957,-4.962832609812419,-2.678307294845581,1.6888761815135345e+18,31.842534505208334,-5.440879821777344,-11.07079299290975,-1.2853445410728452,1.6888761815135345e+18,31.842534505208334,-0.4832119693358738,-9.61564795176188,1.8229426145553589,1.6888761815265096e+18,31.855509521484375,0.866919606924057,-2.4497732321421304,4.311639626820882,1.6888761815135345e+18,31.842534505208334,0.6942483385403951,-2.3656774361928306,3.78649910291036,1.6888761815308365e+18,31.85983642578125,0.0,0.0,1.3648110628128052,7.25,2.0324113368988037,179.53065490722656,25.11452949673884,-122.7500308,49.192265,1.688876181520038e+18,31.84903793945313,-11.702239799499512,49.26847915649414,-4.599399852752685,1.688876181520038e+18,31.84903793945313,-267.3288330078125,144.12348022460938,-137.72579956054688,1.6888761815135345e+18,31.842534505208334,0.6711349089940389,-0.7214955488840739,-0.0398634361724058,0.1623508284489313,-1.7884355783462524,1.3774912754694622,-1.0647229154904685
1.9,1.6888761815740838e+18,31.90308406575521,4.767590920130412,-26.027102788289387,10.35277779897054,1.6888761815654328e+18,31.894432942708335,7.74058198928833,-31.526235580444336,9.120443105697632,1.6888761815654328e+18,31.894432942708335,1.7192169427871704,-9.469642957051596,1.7476977904637654,1.6888761815784148e+18,31.90741471354167,-1.98139230410258,-2.229759951432546,4.916090806325276,1.6888761815654328e+18,31.894432942708335,-1.1549425621827445,-2.661743481953939,5.182275136311849,,,,,,,,,,,,1.6888761815700406e+18,31.899040625,-23.53135986328125,44.84231872558594,-6.739279794692993,1.6888761815700406e+18,31.899040625,-279.1579528808594,139.69731750488282,-139.8656768798828,1.6888761815654328e+18,31.894432942708335,0.7596394618352255,-0.638807992140452,0.0204441777120033,0.1112745677431424,-0.7977463603019714,1.3146707614262898,-2.2143306732177734
1.95,1.6888761816259932e+18,31.954993082682293,-2.6862123012542725,-14.882673263549805,0.5058566729227701,1.6888761816173417e+18,31.946341715494793,1.7625132699807484,-27.422943751017257,6.50748082002004,1.6888761816173417e+18,31.946341715494793,3.874859174092611,-8.598684310913086,2.611736456553141,1.6888761816216653e+18,31.950665405273437,0.3918700441718101,-0.2766456007957458,5.3042192459106445,1.6888761816173417e+18,31.946341715494793,-0.1749110917250315,-0.3026837209860483,5.000441074371338,,,,,,,,,,,,1.688876181620038e+18,31.949038232421877,-34.49427947998047,37.056278991699216,-11.61683979034424,1.688876181620038e+18,31.949038232421877,-290.1208740234375,131.9112762451172,-144.7432373046875,1.6888761816173417e+18,31.946341715494793,0.8283434311548868,-0.5405941208203634,0.0831179097294807,0.1154479061563809,-0.5905477305253347,1.0689799189567566,-2.503934065500895
2.0,1.688876181677891e+18,32.00689135742188,-12.792091687520346,-0.4251616795857747,-0.2136321862538655,1.688876181669244e+18,31.998243977864583,-5.374279499053955,-11.358729044596354,3.2360931237538657,1.688876181669244e+18,31.998243977864583,5.446761290232341,-7.725924809773763,2.607577085494995,1.6888761816649157e+18,31.993915608723956,0.5241732994715372,-1.4096224705378215,3.1279355684916177,1.688876181669244e+18,31.998243977864583,0.5042183597882589,-1.7786869009335835,2.944115956624349,,,,,,,,,,,,1.6888761816700385e+18,31.99903837890625,-41.218919372558595,29.72895927429199,-12.126799964904786,1.6888761816700385e+18,31.99903837890625,-296.84551391601565,124.5839584350586,-145.2531982421875,1.688876181669244e+18,31.998243977864583,0.879093070824941,-0.4565707544485728,0.1056023985147475,0.0841336970527966,-0.4388855795065562,0.9033019145329794,-2.7350192864735923
2.05,1.688876181721147e+18,32.05014672851563,-4.339719772338867,19.416199684143063,-4.49882435798645,1.6888761817211502e+18,32.05015030924479,-1.9507487614949544,11.216954072316488,-0.4853442112604777,1.6888761817211502e+18,32.05015030924479,5.745306173960368,-7.161008358001709,3.4508207639058432,1.688876181716823e+18,32.04582307942709,0.190589955697457,-3.0774372220039368,1.5957836210727692,1.6888761817211502e+18,32.05015030924479,0.1531744624177614,-2.752100626627604,1.3700688953200977,,,,,,,,,,,,1.688876181720032e+18,32.04903198242188,-41.53123931884765,26.02259941101074,-17.59971923828125,1.688876181720032e+18,32.04903198242188,-297.1578308105469,120.87759704589844,-150.7261169433594,1.6888761817211502e+18,32.05015030924479,0.8911303281784058,-0.4146918555100758,0.1800271322329838,0.0346703839798767,-0.534229040145874,0.8137873411178589,-2.829179366429647
2.1,1.6888761817643948e+18,32.09339461263021,-10.624847412109377,17.955127080281574,-3.265465259552002,1.6888761817730496e+18,32.102049479166666,-4.749752918879191,8.525826454162598,0.1794616977373758,1.6888761817730496e+18,32.102049479166666,5.318763097127278,-7.369422276814778,3.6792239348093663,1.6888761817687232e+18,32.097723063151044,0.0761036326487859,-0.1043561498324076,-1.924378216266632,1.6888761817730496e+18,32.102049479166666,0.1242601697643597,0.0572177171707153,-2.1339559157689414,,,,,,,,,,,,1.6888761817700406e+18,32.099040625,-40.18679962158203,26.76679916381836,-19.876239776611328,1.6888761817700406e+18,32.099040625,-295.8133972167969,121.62179718017578,-153.00263671875,1.6888761817730496e+18,32.102049479166666,0.8789972464243571,-0.4328143000602722,0.19686421751976,0.0311661511659621,-0.5990573565165201,0.8461364507675171,-2.7938760916392007
2.15,1.6888761818163028e+18,32.14530305989583,-1.5340585708618164,6.133530616760254,-3.8562145233154297,1.688876181824952e+18,32.1539520670573,5.3840502599875135,-4.496313052872817,-0.2893321414788564,1.688876181824952e+18,32.1539520670573,4.5055311520894366,-8.184630870819092,2.9603970050811768,1.688876181820632e+18,32.14963191731771,1.1006264487902324,2.4690664211908975,-2.7054712772369385,1.688876181824952e+18,32.1539520670573,1.1056151588757832,2.4839816888173423,-2.683225631713867,,,,,,,,,,,,1.6888761818200356e+18,32.14903544921875,-37.24415969848633,32.20067863464355,-16.670079612731932,1.6888761818200356e+18,32.14903544921875,-292.87074584960936,127.05567932128906,-149.79647827148438,1.688876181824952e+18,32.1539520670573,0.8544837236404419,-0.4948529700438182,0.1486050064365068,0.0456454505523045,-0.5707061886787415,0.9842191338539124,-2.7234511375427246
2.2,1.6888761818682053e+18,32.197205322265624,3.585352897644043,-8.270297050476074,-3.810304323832194,1.688876181876858e+18,32.20585807291667,2.6454648971557604,-17.3661101659139,-0.7680960421760877,1.688876181876858e+18,32.20585807291667,4.298925399780273,-8.50108814239502,2.3360539277394614,1.688876181872528e+18,32.201528076171876,0.8701266249020895,-0.3736968139807383,0.3236567974090576,1.688876181876858e+18,32.20585807291667,0.7810420989990234,-0.6913467248280843,0.3900374968846639,,,,,,,,,,,,1.6888761818700362e+18,32.199036083984375,-35.34339904785156,35.61424026489258,-12.66359977722168,1.6888761818700362e+18,32.199036083984375,-290.96998901367186,130.46923828125,-145.78999938964844,1.688876181876858e+18,32.20585807291667,0.8486526409784952,-0.51447065671285,0.1165158177415529,0.0368298223863045,-0.4893023570378621,1.04444416364034,-2.7690958182017007
2.25,1.688876181920102e+18,32.24910196940104,-14.53264300028483,-3.189268430074056,6.506331205368042,1.6888761819201106e+18,32.24911059570313,-10.169496297836304,-13.973187446594238,11.72542953491211,1.6888761819201106e+18,32.24911059570313,3.795548915863037,-8.746583461761475,2.300406813621521,1.688876181924432e+18,32.25343172200521,1.0350602169831593,1.1071423689524331,-2.000990867614746,1.6888761819201106e+18,32.24911059570313,0.7748062051832676,0.3782019615173341,-1.9672915935516355,,,,,,,,,,,,1.6888761819200353e+18,32.24903530273438,-35.028639221191405,36.5780387878418,-13.107679748535157,1.6888761819200353e+18,32.24903530273438,-290.6552368164063,131.43303527832032,-146.23407897949218,1.6888761819201106e+18,32.24911059570313,0.8341028690338135,-0.5367276072502136,0.1248028948903083,0.022538125514984,-0.5341635942459106,1.0969970226287842,-2.7563775777816772
2.3,1.6888761819720087e+18,32.301008626302085,-6.227168242136638,0.8294097582499186,5.638465921084086,1.688876181963357e+18,32.29235668945312,-4.46560537815094,-5.945565938949585,5.575276533762614,1.688876181963357e+18,32.29235668945312,2.9543256759643555,-9.22783629099528,1.4399479627609253,1.6888761819763384e+18,32.30533862304688,-1.2086986899375916,3.5910731156667075,-4.321973403294881,1.688876181963357e+18,32.29235668945312,0.0802778502305348,3.642334938049317,-3.582164764404297,,,,,,,,,,,,1.6888761819700362e+18,32.29903642578125,-30.629319381713863,41.17499923706055,-6.714879894256592,1.6888761819700362e+18,32.29903642578125,-286.255908203125,136.02999572753907,-139.84127807617188,1.688876181963357e+18,32.29235668945312,0.8065779010454813,-0.5854451258977255,0.0539691175023714,0.0474275952825943,-0.4450229008992513,1.223867932955424,-2.7062081495920816
2.35,1.6888761820239145e+18,32.35291455078125,-7.249878724416097,-26.50491460164388,2.5375917752583823,1.6888761820152635e+18,32.34426334635416,-6.078567107518514,-33.08336512247721,8.130213141441345,1.6888761820152635e+18,32.34426334635416,1.018602927525838,-9.532363573710125,2.0133344729741416,1.6888761820282386e+18,32.357238362630206,-0.7831292549769083,1.4798210660616558,-4.807713031768799,1.6888761820152635e+18,32.34426334635416,-1.717396716276805,2.6444356441497803,-4.464559396107991,,,,,,,,,,,,1.6888761820200394e+18,32.34903959960938,-21.39879951477051,46.054998779296874,-6.841759872436524,1.6888761820200394e+18,32.34903959960938,-277.0253967285156,140.90999755859374,-139.96815185546876,1.6888761820152635e+18,32.34426334635416,0.7307629783948263,-0.6669062574704488,0.0085721337236463,0.1407943988839785,-1.0846834381421406,1.3333297967910769,-1.8682964245478313
2.4,1.6888761820758198e+18,32.40481974283854,14.430875301361086,-6.232125600179036,-9.085702260335289,1.6888761820671685e+18,32.396168701171874,7.570093234380088,-19.120646794637043,-8.43370262781779,1.6888761820671685e+18,32.396168701171874,-1.8509427905082705,-9.400150934855144,1.872598886489868,1.6888761820714995e+18,32.40049951171875,0.1664607673883438,-3.301879405975342,-6.603758811950684,1.6888761820671685e+18,32.396168701171874,0.1805616021156311,-2.4450390736262,-6.252002239227295,1.6888761820498673e+18,32.3788671875,0.0,0.0,1.3653714656829834,7.348999977111816,2.089991807937622,179.13587951660156,25.209333752448075,-122.750027,49.1922494,1.688876182070038e+18,32.399037890624996,-7.603039968013763,49.63691940307617,-6.346439933776855,1.688876182070038e+18,32.399037890624996,-263.22963256835936,144.49191589355468,-139.47283630371095,1.6888761820671685e+18,32.396168701171874,0.625036875406901,-0.7685235540072123,-0.0045138481073081,0.1266835406422614,-2.283902565638224,1.292368491490682,-0.6701042354106903
2.45,1.6888761821277222e+18,32.45672224934896,11.83643380800883,4.773055076599121,0.7062126398086548,1.688876182119066e+18,32.44806583658854,12.525828202565512,-6.189833402633667,2.3435703118642173,1.688876182119066e+18,32.44806583658854,-3.390814304351806,-8.974992752075195,2.03995935122172,1.6888761821147423e+18,32.443742594401044,-0.0246382245483497,2.5729135274887085,-1.6644041339556377,1.688876182119066e+18,32.44806583658854,0.0330376252532005,2.786716421445211,-1.3251194556554158,,,,,,,,,,,,1.688876182120039e+18,32.449038574218754,4.182160043716431,50.6812385559082,-6.89543981552124,1.688876182120039e+18,32.449038574218754,-251.44443359375,145.53623657226564,-140.02183837890624,1.688876182119066e+18,32.44806583658854,0.5569864908854166,-0.8185856540997823,-0.0177900806690255,0.1368591710925101,-2.6025544007619223,1.1614373524983723,-0.3150774041811625
2.5,1.688876182170969e+18,32.49996936035156,15.96627140045166,7.463756561279297,-7.832173705101013,1.688876182170975e+18,32.499975097656254,8.725626826286316,-2.368894418080648,-4.116452693939208,1.688876182170975e+18,32.499975097656254,-3.0588560104370117,-9.01871649424235,2.3380180199941,1.6888761821666516e+18,32.49565169270833,-0.4554509421189626,-0.176183716704448,1.3254248797893524,1.688876182170975e+18,32.499975097656254,-0.4135048761963844,0.0743219057718912,1.5128586888313291,,,,,,,,,,,,1.6888761821700367e+18,32.499036523437496,3.162239897251129,50.16395874023438,-7.6152397155761715,1.6888761821700367e+18,32.499036523437496,-252.4643524169922,145.01895751953126,-140.74163818359375,1.688876182170975e+18,32.499975097656254,0.566199521223704,-0.8082851966222128,-0.0202134310578306,0.159309556086858,-2.4876786867777505,1.1727652549743652,-0.3941586514314015
2.55,1.688876182214226e+18,32.54322607421875,-1.3158029516537983,6.193770090738933,-6.94597593943278,1.6888761822228754e+18,32.551875244140625,-3.8263228237628937,-1.320040504137675,-2.9369903008143106,1.6888761822228754e+18,32.551875244140625,-1.6925300757090251,-9.37299633026123,2.319433053334554,1.6888761822185562e+18,32.547556070963545,1.044885019461314,2.3185899828871093,2.36903715133667,1.6888761822228754e+18,32.551875244140625,1.1270463864008586,1.799761692682902,2.4505368868509927,,,,,,,,,,,,1.6888761822200335e+18,32.549033789062506,-3.6868399381637578,50.415280151367185,-6.3488799095153805,1.6888761822200335e+18,32.549033789062506,-259.3134338378906,145.27027893066406,-139.47527770996095,1.6888761822228754e+18,32.551875244140625,0.6134450833002726,-0.7622350454330444,-0.0562363925079504,0.1977803409099578,-2.192331155141195,1.278883973757426,-0.5841079751650492
2.6,1.6888761822661263e+18,32.59512622070313,0.8655895392100016,6.398993174235026,-1.3273470004399617,1.688876182274778e+18,32.60377807617187,-0.405384028951327,-7.369096517562866,0.8081758096814156,1.688876182274778e+18,32.60377807617187,-0.1102389444907506,-9.598651568094889,1.9574082692464192,1.6888761822704525e+18,32.599452311197915,0.2534072647492091,-1.721316436926524,3.981008768081665,1.688876182274778e+18,32.60377807617187,0.1778126942614714,-1.6626734137535095,4.058079719543457,,,,,,,,,,,,1.688876182270035e+18,32.5990349609375,-12.343960189819336,49.292877960205075,-5.036159896850586,1.688876182270035e+18,32.5990349609375,-267.970556640625,144.1478759765625,-138.1625549316406,1.688876182274778e+18,32.60377807617187,0.6832130750020345,-0.7083735863367716,-0.0348174485067526,0.1710640490055083,-1.6031499703725178,1.3670414288838704,-1.2446744441986084
2.65,1.688876182318032e+18,32.64703230794271,0.6525015036265055,-22.79488722483317,1.664161761601766,1.6888761823266816e+18,32.65568155924479,4.461218595504762,-33.82494099934896,5.367300788561503,1.6888761823266816e+18,32.65568155924479,2.0795036951700845,-9.374486287434896,1.9013262192408245,1.6888761823223626e+18,32.65136271158854,0.0399607419967651,-1.280526300271352,4.952640692392985,1.6888761823266816e+18,32.65568155924479,-0.2144137024879455,-1.086983819802602,4.87088680267334,,,,,,,,,,,,1.6888761823200315e+18,32.649031738281245,-23.602119064331056,45.34251937866211,-5.958479881286621,1.6888761823200315e+18,32.649031738281245,-279.2287109375,140.19751586914063,-139.08487854003906,1.6888761823266816e+18,32.65568155924479,0.766158938407898,-0.6251847346623739,0.0059490172813336,0.1441716055075327,-0.7438161174456278,1.275235295295715,-2.199826955795288
2.7,1.6888761823699374e+18,32.698937337239585,-2.0686935583750405,-20.29567273457845,5.924529234568278,1.688876182378582e+18,32.70758219401042,1.469791372617086,-26.848865509033203,7.154140949249268,1.688876182378582e+18,32.70758219401042,4.029995918273926,-8.593979199727377,2.398552497227987,1.6888761823742605e+18,32.70326049804688,-0.4663956065972646,-0.5832744836807251,4.4911831219991045,1.688876182378582e+18,32.70758219401042,-0.1544470886389413,-0.762308935324351,4.616257747014363,,,,,,,,,,,,1.688876182370039e+18,32.699038916015624,-32.68623924255371,39.07416000366211,-8.530239868164063,1.688876182370039e+18,32.699038916015624,-288.3128356933594,133.92915954589844,-141.6566375732422,1.688876182378582e+18,32.70758219401042,0.8274859189987183,-0.5377181569735209,0.0474816722174485,0.1501324921846389,-0.5314873258272806,1.068049669265747,-2.4602198600769043
2.75,1.6888761824218378e+18,32.75083764648437,-4.202335278193156,-7.196711699167888,-1.0934408903121948,1.6888761824218404e+18,32.75084033203125,1.3746766448020935,-15.447763442993164,1.6845471262931824,1.6888761824218404e+18,32.75084033203125,5.369365453720093,-7.869989633560181,2.332304000854492,1.688876182426167e+18,32.7551669108073,1.236289421717326,-2.167909860610962,2.899573723475138,1.6888761824218404e+18,32.75084033203125,1.2521210312843325,-1.974087476730347,3.1581733226776123,,,,,,,,,,,,1.6888761824200369e+18,32.749036816406246,-40.53083953857422,31.920080184936523,-9.967399978637696,1.6888761824200369e+18,32.749036816406246,-296.1574340820313,126.77507934570312,-143.0937957763672,1.6888761824218404e+18,32.75084033203125,0.8738388419151306,-0.4671960473060608,0.0749063491821288,0.1106896847486495,-0.402032196521759,0.9274740219116212,-2.686282992362976
2.8,1.68887618247374e+18,32.802739827473964,-10.40272045135498,12.462931950887045,-3.342283566792806,1.688876182465095e+18,32.79409488932291,-5.106482863426208,1.454437255859375,-0.6171488364537557,1.688876182465095e+18,32.79409488932291,5.566792170206706,-7.537581125895183,2.882744312286377,1.6888761824780628e+18,32.80706315104167,0.3103195404012998,-3.808643023173014,1.3627894520759585,1.688876182465095e+18,32.79409488932291,0.547487976650397,-4.090913693110148,1.6344208717346191,,,,,,,,,,,,1.688876182470039e+18,32.799038964843746,-41.43119888305664,28.17711944580078,-14.561919975280762,1.688876182470039e+18,32.799038964843746,-297.05780029296875,123.03211669921876,-147.68831787109374,1.688876182465095e+18,32.79409488932291,0.8848752379417419,-0.4403678874174754,0.1376707603534062,0.0540344777206579,-0.4699968298276265,0.8719804883003235,-2.7978870073954263
2.85,1.6888761825256476e+18,32.85464754231771,-10.128920237223308,17.126753489176433,0.5467132727305094,1.688876182516999e+18,32.84599886067708,-4.8181478182474775,10.870593388875326,4.55613358815511,1.688876182516999e+18,32.84599886067708,5.270467281341553,-7.451308409372966,3.5855024655659995,1.6888761825213238e+18,32.85032385253906,0.2929098904132843,-1.2851077318191528,-1.5588517487049105,1.688876182516999e+18,32.84599886067708,0.3150028487046559,-1.4134912888209026,-1.1452196339766183,,,,,,,,,,,,1.6888761825200325e+18,32.849032421875,-39.72807998657227,27.69399948120117,-19.571239852905272,1.6888761825200325e+18,32.849032421875,-295.35466918945315,122.5489990234375,-152.69763793945313,1.688876182516999e+18,32.84599886067708,0.8779568672180176,-0.4352288444836933,0.1979507356882095,0.0189191736280917,-0.5916344920794169,0.8583913445472717,-2.82090163230896
2.9,1.6888761825775465e+18,32.90654679361979,-0.7957692941029867,7.637581507364909,-1.5408462285995483,1.6888761825689006e+18,32.89790063476563,1.7676976919174194,0.6614160339037577,2.0849461356798806,1.6888761825689006e+18,32.89790063476563,4.325183550516765,-8.194772243499756,3.185793081919352,1.688876182564572e+18,32.89357161458333,1.31427659591039,2.2227350920438766,-2.8558459281921387,1.6888761825689006e+18,32.89790063476563,1.4205162326494851,2.71295436223348,-2.7611618041992188,1.688876182568899e+18,32.89789916992188,0.0,0.0,1.3653714656829834,7.440999984741211,2.113957643508911,179.03077697753906,25.209333752448075,-122.7500258,49.1922389,1.6888761825700383e+18,32.89903852539062,-36.29011917114258,32.55935897827148,-18.59523983001709,1.6888761825700383e+18,32.89903852539062,-291.9167175292969,127.4143569946289,-151.7216339111328,1.6888761825689006e+18,32.89790063476563,0.849989652633667,-0.4949287374814351,0.175846536954244,0.0238811516513426,-0.6238410075505575,0.9861384431521096,-2.7430986563364663
2.95,1.688876182620802e+18,32.94980187988281,9.250858545303345,-1.4843106269836426,-5.757094860076904,1.6888761826208038e+18,32.9498037109375,11.205787976582846,-8.707880338033041,-3.5517464304963746,1.6888761826208038e+18,32.9498037109375,4.389597574869792,-8.5566193262736,1.9277430375417073,1.688876182616475e+18,32.94547517903646,0.8778133392333983,1.8758145173390703,0.2416481177012126,1.6888761826208038e+18,32.9498037109375,0.735379954179128,1.3227269252141316,0.433561623096466,,,,,,,,,,,,1.6888761826200325e+18,32.949032714843746,-36.241319274902345,36.075399017333986,-10.062559700012208,1.6888761826200325e+18,32.949032714843746,-291.8679138183594,130.9303985595703,-143.18895568847657,1.6888761826208038e+18,32.9498037109375,0.8509972294171652,-0.5158367951711019,0.0875553414225577,0.0436103617151577,-0.4056037366390228,1.055909315745036,-2.8002774715423584
3.0,1.6888761826640568e+18,32.99305672200521,-12.150727907816568,-6.09129269917806,-1.622227668762207,1.688876182672701e+18,33.00170084635417,-10.091330687204996,-17.646069526672363,3.8660038312276206,1.688876182672701e+18,33.00170084635417,3.636016925175985,-8.890027046203613,1.940875967343648,1.6888761826683814e+18,32.997381510416666,0.4040873646736145,-0.6123414834340412,-2.6676994959513345,1.688876182672701e+18,33.00170084635417,0.4378885726133982,0.0192422866821289,-2.753525972366333,,,,,,,,,,,,1.6888761826700334e+18,32.99903354492187,-34.5430793762207,37.43935852050781,-10.738439559936523,1.6888761826700334e+18,32.99903354492187,-290.169677734375,132.2943572998047,-143.86483764648438,1.688876182672701e+18,33.00170084635417,0.8289871414502462,-0.548554539680481,0.10339551170667,0.0221718521788716,-0.4835971196492513,1.1323046684265137,-2.7757840156555176
3.05,1.688876182715956e+18,33.04495589192708,-8.394234816233316,-0.2346618970235189,7.31063969930013,1.6888761827246093e+18,33.05360945638021,-3.789233962694804,-8.566703796386719,8.875776767730713,1.6888761827246093e+18,33.05360945638021,2.7601802349090576,-9.299607594807943,1.4147133032480876,1.688876182720286e+18,33.04928621419271,-0.0059050271908442,2.9442177017529807,-2.250478466351827,1.6888761827246093e+18,33.05360945638021,-0.1857030491034189,2.5865052143732705,-2.517121116320292,,,,,,,,,,,,1.6888761827200376e+18,33.04903764648437,-31.139279556274413,41.2799186706543,-7.6298798561096195,1.6888761827200376e+18,33.04903764648437,-286.765869140625,136.13491516113282,-140.75627746582032,1.6888761827246093e+18,33.05360945638021,0.7994312246640524,-0.5955200592676798,0.04136748239398,0.0627203211188315,-0.4633331894874573,1.2448145151138306,-2.6477272510528564
3.1,1.6888761827678546e+18,33.09685465494792,-3.360822021961212,-12.422677993774414,9.522363980611166,1.6888761827765125e+18,33.10551212565104,-3.968895157178243,-24.84088897705078,8.962117989857992,1.6888761827765125e+18,33.10551212565104,0.7947873038550218,-9.574517250061035,1.877355972925822,1.6888761827721782e+18,33.10117838541667,-1.4578299125035603,1.977421720822652,-4.855818589528401,1.6888761827765125e+18,33.10551212565104,-1.4593570629755657,1.914909799893697,-4.82883898417155,,,,,,,,,,,,1.6888761827700357e+18,33.09903559570312,-23.16291961669922,45.77927780151367,-6.688039970397949,1.6888761827700357e+18,33.09903559570312,-278.7895141601563,140.63427734375,-139.81443481445314,1.6888761827765125e+18,33.10551212565104,0.7263497511545817,-0.675316572189331,0.0164259509183466,0.1206627935171126,-1.1559768915176392,1.35256560643514,-1.8371802965799968
3.15,1.6888761828197663e+18,33.1487666015625,-2.655206044514974,-18.265907923380535,-11.517127990722656,1.6888761828284137e+18,33.15741349283854,2.248056968053182,-23.57109800974528,-10.81615670522054,1.6888761828284137e+18,33.15741349283854,-1.661653200785319,-9.409133911132812,2.0650972922643027,1.6888761828240883e+18,33.15308829752604,-0.0748819063107172,-1.7702874739964802,-5.157382488250732,1.6888761828284137e+18,33.15741349283854,-0.0139989877740541,-1.7933985193570454,-5.246772448221843,,,,,,,,,,,,1.688876182820034e+18,33.14903388671875,-10.101599740982056,49.144039154052734,-7.014999866485596,1.688876182820034e+18,33.14903388671875,-265.7281982421875,143.99903869628906,-140.14139709472656,1.6888761828284137e+18,33.15741349283854,0.6331439812978109,-0.7624548474947611,0.0131186746681729,0.1256876985232035,-2.2016929388046265,1.2925994396209717,-0.7790029942989349
3.2,1.688876182871664e+18,33.200663736979166,18.31502119700114,0.9905557632446288,-2.5608569383621216,1.6888761828716677e+18,33.20066784667969,14.062618255615234,-9.423832893371582,0.5374878048896788,1.6888761828716677e+18,33.20066784667969,-3.343070864677429,-8.987518310546875,2.067170262336731,1.6888761828759954e+18,33.20499536132812,0.4261294205983479,1.7756325403849285,-2.431650916735331,1.6888761828716677e+18,33.20066784667969,0.31795534491539,1.8641316294670105,-2.6261860728263855,,,,,,,,,,,,1.6888761828700385e+18,33.19903828125,3.1915199935436247,50.4957992553711,-7.554239749908447,1.6888761828700385e+18,33.19903828125,-252.4350769042969,145.35079650878907,-140.68063659667968,1.6888761828716677e+18,33.20066784667969,0.5622632205486298,-0.8173952698707581,0.0031850659288466,0.1246935352683067,-2.5885398387908936,1.164283275604248,-0.3773413449525833
3.25,1.6888761829235612e+18,33.252561360677085,15.419711748758951,7.485487143198649,-0.0502661863962809,1.6888761829149153e+18,33.243915201822915,9.270392974217732,-1.2432707548141482,4.686542669932048,1.6888761829149153e+18,33.243915201822915,-3.447028319040934,-8.947102546691895,2.0731393496195474,1.6888761829278874e+18,33.25688745117188,-0.4404338418195645,-0.0425060192743937,1.0686069875955582,1.6888761829149153e+18,33.243915201822915,-0.0306959946950276,-0.1315905501445134,0.2302452822526296,,,,,,,,,,,,1.6888761829200307e+18,33.249030615234375,5.165479898452759,50.5128791809082,-7.1003998756408695,1.6888761829200307e+18,33.249030615234375,-250.46111450195312,145.36788024902344,-140.22679748535157,1.6888761829149153e+18,33.243915201822915,0.5535926421483358,-0.8205178181330363,-0.0203908984549343,0.1404116650422413,-2.6022352377573648,1.15377672513326,-0.3063580592473348
