,seconds_elapsed_rounded,accelerometer_time,accelerometer_seconds_elapsed,accelerometer_z,accelerometer_y,accelerometer_x,accelerometeruncalibrated_time,accelerometeruncalibrated_seconds_elapsed,accelerometeruncalibrated_z,accelerometeruncalibrated_y,accelerometeruncalibrated_x,gravity_time,gravity_seconds_elapsed,gravity_z,gravity_y,gravity_x,gyroscope_time,gyroscope_seconds_elapsed,gyroscope_z,gyroscope_y,gyroscope_x,gyroscopeuncalibrated_time,gyroscopeuncalibrated_seconds_elapsed,gyroscopeuncalibrated_z,gyroscopeuncalibrated_y,gyroscopeuncalibrated_x,location_time,location_seconds_elapsed,location_bearingAccuracy,location_speedAccuracy,location_verticalAccuracy,location_horizontalAccuracy,location_speed,location_bearing,location_altitude,location_longitude,location_latitude,magnetometer_time,magnetometer_seconds_elapsed,magnetometer_z,magnetometer_y,magnetometer_x,magnetometeruncalibrated_time,magnetometeruncalibrated_seconds_elapsed,magnetometeruncalibrated_z,magnetometeruncalibrated_y,magnetometeruncalibrated_x,orientation_time,orientation_seconds_elapsed,orientation_qz,orientation_qy,orientation_qx,orientation_qw,orientation_roll,orientation_pitch,orientation_yaw,totalacceleration_time,totalacceleration_seconds_elapsed,totalacceleration_z,totalacceleration_y,totalacceleration_x
0,0.0,,,,,,,,,,,,,,,,,,,,,,,,,,1.6887028212731105e+18,0.028110595703125,0.0,0.0,3.1501922607421875,7.644000053405762,0.2521136701107025,212.9472503662109,44.10000228881836,-122.7533104,49.188405,,,,,,,,,,,,,,,,,,,,,,,,
1,0.1,1.6887028213769539e+18,0.131953857421875,-0.34195590019226074,-0.8965516090393066,-0.4486738592386246,1.6887028213596498e+18,0.11464990234375,7.7255271673202515,4.1696431040763855,0.4788636341691017,1.6887028213769539e+18,0.131953857421875,8.445385932922363,4.941475868225098,0.7009417116641998,1.6887028213509993e+18,0.10599916992187501,-0.1903456091880798,0.3959628462791443,-0.3411376953125,1.6887028213596498e+18,0.11464990234375,-0.17703638225793833,0.3767511397600174,-0.3911064714193344,,,,,,,,,,,,1.688702821356771e+18,0.11177110072544642,-50.71365574428013,-2.175085663795471,6.791914190564837,1.688702821356771e+18,0.11177110072544642,-308.13364955357144,92.44811248779297,-126.09048352922711,1.6887028213855987e+18,0.1405987548828125,0.19177344441413874,0.0207057129591703,0.25776150822639465,0.9467562437057495,-0.06876725703477855,-0.5190046429634094,-0.4179800897836685,1.6887028213509993e+18,0.10599916992187501,7.623652553558349,4.255156469345093,0.5270191788673401
2,0.2,1.6887028214461555e+18,0.20115555826822917,1.295202096303304,-0.9226672252019247,-1.1778175036112468,1.6887028214461555e+18,0.20115555826822917,9.864311854044596,3.8294134934743247,-0.7469594702124596,1.6887028214461555e+18,0.20115555826822917,8.563263734181723,4.769585212071736,0.368170623977979,1.6887028214461555e+18,0.20115555826822917,-0.15141822521885231,0.3903174325823784,-0.17763452231884,1.6887028214461555e+18,0.20115555826822917,-0.15233451873064038,0.39472075055042904,-0.1752419676631689,,,,,,,,,,,,1.6887028214417743e+18,0.1967744384765625,-50.629998779296876,-0.663679976761341,8.605879640579223,1.6887028214417743e+18,0.1967744384765625,-308.04999389648435,93.95951919555664,-124.27651824951172,1.6887028214461555e+18,0.20115541992187502,0.19103931486606593,0.0349782951176166,0.24602598547935486,0.9495820283889771,-0.031474120542407,-0.501347029209137,-0.4051569998264313,1.6887028214461555e+18,0.20115555826822917,9.8583296140035,3.8467615445454917,-0.8097710454215606
3,0.30000000000000004,1.6887028215499602e+18,0.3049603271484375,2.6550447146097818,-2.0924211343129477,-2.4477049112319946,1.6887028215499602e+18,0.3049603271484375,11.337592601776123,2.460818668206533,-2.2889342506726584,1.6887028215499602e+18,0.3049603271484375,8.676701863606771,4.570744276046753,0.09608327721556027,1.6887028215499602e+18,0.3049603271484375,0.346971457824111,0.6212245176235834,-0.4506149326140682,1.6887028215499602e+18,0.3049603271484375,0.34608061114947003,0.6256278306245804,-0.4482478378340602,,,,,,,,,,,,1.6887028215417787e+18,0.2967787353515625,-50.49823837280273,0.3001199893653393,9.6550799369812,1.6887028215417787e+18,0.2967787353515625,-307.9182373046875,94.9233169555664,-123.2273178100586,1.6887028215413046e+18,0.2963046875,0.19549171378215147,0.045850745712717335,0.23479738334814704,0.9509823421637217,-0.005156689944366616,-0.4832410514354706,-0.40685414771238965,1.6887028215499602e+18,0.3049603271484375,11.331610520680746,2.478166709343592,-2.351745843887329
4,0.4,1.6887028216451123e+18,0.4001123046875,-0.6004513740539551,-2.7986521244049074,-2.552094030380249,1.6887028216451123e+18,0.4001123046875,8.010332775115966,1.8807586193084718,-2.5417758941650392,1.6887028216451123e+18,0.4001123046875,8.604938125610351,4.696915245056152,-0.052369274944067026,1.6887028216451123e+18,0.4001123046875,0.7412544369697571,0.07076874375343323,1.1819937348365783,1.6887028216451123e+18,0.4001123046875,0.7403686761856079,0.07516696751117703,1.1843761011958123,,,,,,,,,,,,1.6887028216417743e+18,0.3967742919921875,-49.524679565429686,-0.7051599949598313,12.91613998413086,1.6887028216417743e+18,0.3967742919921875,-306.9446716308594,93.91803741455078,-119.96625747680665,1.6887028216451113e+18,0.4001114095052083,0.2323632836341857,0.06669355556368825,0.2372488106290499,0.9406093756357828,0.016669314405589768,-0.49775872627894086,-0.48048029839992523,1.6887028216451123e+18,0.4001123046875,8.004350757598877,1.8981065273284912,-2.604587507247925
5,0.5,1.6887028217402642e+18,0.4952639973958333,-1.4946896235148113,-1.6445575555165612,-1.7792848944664001,1.6887028217402642e+18,0.4952639973958333,6.567998965581258,3.9091742833455405,-2.1429720918337503,1.6887028217402642e+18,0.4952639973958333,8.056842565536499,5.5712363719940186,-0.4263745948652892,1.6887028217402642e+18,0.4952639973958333,0.602618565162023,1.4431436856587727,0.2131664877136549,1.6887028217402642e+18,0.4952639973958333,0.6017022629578909,1.4475470284620922,0.21553365016976986,,,,,,,,,,,,1.6887028217417746e+18,0.496774658203125,-47.654419326782225,-7.01499981880188,16.615179538726807,1.6887028217417746e+18,0.496774658203125,-305.0744110107422,87.60819854736329,-116.26721801757813,1.6887028217489124e+18,0.5039124348958334,0.2698418398698171,0.11345283811291056,0.27441397309303284,0.9155752062797546,0.07244285009801382,-0.5997261007626852,-0.550839364528656,1.6887028217402642e+18,0.4952639973958333,6.56201696395874,3.9265222549438477,-2.2057836453119912
6,0.6000000000000001,1.6887028218440694e+18,0.5990694580078125,0.23901859919230142,-0.7241138219833374,-1.8609782059987385,1.6887028218440694e+18,0.5990694580078125,8.83280579249064,3.939882238705953,-2.3663021524747214,1.6887028218440694e+18,0.5990694580078125,8.58794116973877,4.681500673294067,-0.5680113782485327,1.6887028218440694e+18,0.5990694580078125,0.8058330615361532,0.18107064355475208,-1.6188692649205525,1.6887028218440694e+18,0.5990694580078125,0.8049422303835551,0.18547395639082728,-1.6164766748746235,,,,,,,,,,,,1.6887028218417782e+18,0.5967781005859375,-47.061499404907224,-3.62095992565155,19.546839332580568,1.6887028218417782e+18,0.5967781005859375,-304.4814880371094,91.00223693847656,-113.3355583190918,1.6887028218440658e+18,0.5990656249999999,0.31626462936401367,0.11192142963409421,0.22054789960384363,0.9155598640441894,0.07509645968675607,-0.494790655374527,-0.6459574818611145,1.6887028218440694e+18,0.5990694580078125,8.826823472976685,3.9572301308314004,-2.429113785425822
7,0.7000000000000001,1.688702821947875e+18,0.702875,0.35878149668375653,1.8290767272313433,-3.7741805414358773,1.688702821947875e+18,0.702875,9.083752791086832,6.156234165032704,-4.787639172747731,1.688702821947875e+18,0.702875,8.719125270843506,4.344661792119344,-1.0761459370454152,1.688702821947875e+18,0.702875,1.1537208346029122,1.5156839489936829,0.9202175823350748,1.688702821947875e+18,0.702875,1.1528299643347661,1.5200872421264648,0.9225846715271473,,,,,,,,,,,,1.6887028219417787e+18,0.696778564453125,-45.10949935913086,-1.9385799773037433,23.480119705200195,1.6887028219417787e+18,0.696778564453125,-302.5294982910156,92.68461837768555,-109.40227813720703,1.6887028219392207e+18,0.694220703125,0.3644666125377019,0.13702579215168953,0.1840645223855972,0.9019514918327332,0.12532532960176465,-0.44750966131687164,-0.7392882605393728,1.688702821947875e+18,0.702875,9.077770948410034,6.173581928014755,-4.850451017419497
8,0.8,1.688702822051678e+18,0.806677734375,1.3041988213857014,-0.8879119157791138,-2.280409355958303,1.688702822051678e+18,0.806677734375,8.83300511042277,5.107878724733989,-3.95304266611735,1.688702822051678e+18,0.806677734375,7.522960265477498,6.013295253117879,-1.7353207071622212,1.688702822051678e+18,0.806677734375,0.3013347374896208,1.4104369580745697,1.8505399127801259,1.688702822051678e+18,0.806677734375,0.3004438864688078,1.4148657321929932,1.8529324332873027,,,,,,,,,,,,1.6887028220417754e+18,0.7967752441406251,-39.98671951293945,-12.485479736328125,28.866419410705568,1.6887028220417754e+18,0.7967752441406251,-297.4067138671875,82.13771743774414,-104.0159782409668,1.6887028220430234e+18,0.7980232340494792,0.41629763940970105,0.22612832983334855,0.24321831266085306,0.8455095092455546,0.2282680223385493,-0.6440058847268423,-0.8371998965740204,1.688702822051678e+18,0.806677734375,8.827023029327393,5.125226696332295,-4.015854358673096
9,0.9,1.6887028221468244e+18,0.9018244628906251,-1.230452060699463,-5.262361526489258,1.8796472311019898,1.6887028221468244e+18,0.9018244628906251,6.431787586212158,0.5533402033150195,0.3287738263607025,1.6887028221468244e+18,0.9018244628906251,7.65639362335205,5.8332061767578125,-1.6135607957839966,1.6887028221468244e+18,0.9018244628906251,1.7425236225128173,-1.7682411074638367,-2.598651313781738,1.6887028221468244e+18,0.9018244628906251,1.7416073620319366,-1.7638428270816804,-2.596268892288208,1.688702822099e+18,0.854,0.0,0.0,4.108354091644287,87.9489974975586,0.0,0.0,43.400001525878906,-122.7538295,49.1876069,1.6887028221417807e+18,0.8967809082031251,-37.446679306030276,-14.777859783172607,31.113659286499022,1.6887028221417807e+18,0.8967809082031251,-294.8666748046875,79.8453384399414,-101.76873931884765,1.688702822146826e+18,0.9018259277343751,0.441803440451622,0.22446612517038977,0.23642478634913763,0.8334916631380717,0.21525387528041995,-0.6322670777638754,-0.8982691963513693,1.6887028221468244e+18,0.9018244628906251,6.4258056640625,0.5706882067024707,0.26596222519874574
10,1.0,1.6887028222419804e+18,0.9969805908203124,-0.1855012575785319,-5.136921087900798,0.47934462626775104,1.6887028222419804e+18,0.9969805908203124,8.983553568522135,-1.9041882703701656,1.5248262137174606,1.6887028222419804e+18,0.9969805908203124,9.163208802541098,3.2502373854319253,0.9827941805124283,1.6887028222419804e+18,0.9969805908203124,0.20046561956405637,-0.7827220062414805,-2.9566386540730796,1.6887028222419804e+18,0.9969805908203124,0.19957477351029715,-0.7782932370901108,-2.9542970657348633,,,,,,,,,,,,1.6887028222417772e+18,0.9967770507812499,-46.69793930053711,-4.235839939117431,18.98441982269287,1.6887028222417772e+18,0.9967770507812499,-304.11793823242186,90.38735733032226,-113.89797744750976,1.6887028222506273e+18,1.0056273600260417,0.5061303277810415,0.041582154110074016,0.15906560048460958,0.8455239733060201,-0.09690117773910358,-0.3164702256520589,-1.0947082837422688,1.6887028222419804e+18,0.9969805908203124,8.977571487426758,-1.8868403832117717,1.4620146453380585
11,1.1,1.6887028223457815e+18,1.1007815348307293,-3.4671314557393393,-4.493755459785461,-3.4088836709658303,1.6887028223457815e+18,1.1007815348307293,6.162316004435222,-4.073082645734151,-4.583252330621083,1.6887028223457815e+18,1.1007815348307293,9.62360143661499,0.43817734469970065,-1.237056131164233,1.6887028223457815e+18,1.1007815348307293,-2.2925517559051514,2.902068098386129,-3.230637232462565,1.6887028223457815e+18,1.1007815348307293,-2.293442686398824,2.906445940335592,-3.228270093599955,,,,,,,,,,,,1.6887028223417774e+18,1.0967773193359374,-41.14083976745606,12.014559674263001,26.240979385375976,1.6887028223417774e+18,1.0967773193359374,-298.5608367919922,106.6377571105957,-106.6414176940918,1.688702822345779e+18,1.1007790527343748,0.445634788274765,0.07456599399447439,-0.0099209699779749,0.8898450255393981,0.14051472917199131,-0.04735035225749016,-0.92856924533844,1.6887028223457815e+18,1.1007815348307293,6.156333843866984,-4.055734634399414,-4.646064043045044
12,1.2000000000000002,1.6887028224495862e+18,1.2045862630208333,0.8117154439290365,-1.916858394940694,-7.744874477386475,1.6887028224495862e+18,1.2045862630208333,9.322935263315836,-5.123432000478108,-11.190732955932617,1.6887028224495862e+18,1.2045862630208333,8.50537379582723,-3.189068913459778,-3.5085464318593345,1.6887028224495862e+18,1.2045862630208333,-1.7330501675605774,2.6003260612487793,-2.966565251350403,1.6887028224495862e+18,1.2045862630208333,-1.733915537595749,2.6047293742497764,-2.9641981522242227,,,,,,,,,,,,1.6887028224417756e+18,1.196775732421875,-26.0152795791626,29.648439407348633,31.369859504699708,1.6887028224417756e+18,1.196775732421875,-283.43528137207034,124.27163619995117,-101.51253814697266,1.6887028224409326e+18,1.1959328206380209,0.3525902380545934,0.11428208028276758,-0.21011994282404578,0.9023760259151459,0.38249631226062775,0.30524401615063346,-0.8079934318860372,1.6887028224495862e+18,1.2045862630208333,9.316953659057617,-5.1060841878255205,-11.253544330596924
13,1.3,1.6887028225447357e+18,1.2997356933593749,6.084431838989258,3.1613752841949463,-6.667899322509766,1.6887028225447357e+18,1.2997356933593749,12.525230026245117,-2.24075870513916,-11.635458946228027,1.6887028225447357e+18,1.2997356933593749,6.434952163696289,-5.384629535675049,-5.030247688293457,1.6887028225447357e+18,1.2997356933593749,0.39825359880924227,2.106813144683838,-2.2745261907577516,1.6887028225447357e+18,1.2997356933593749,0.3973983883857727,2.111241936683655,-2.2721132755279543,,,,,,,,,,,,1.6887028225417818e+18,1.296781787109375,-7.693319970369339,37.49791946411133,33.53291969299316,1.6887028225417818e+18,1.296781787109375,-265.1133178710937,132.1211181640625,-99.3494773864746,1.688702822544736e+18,1.2997357584635416,0.303002009789149,0.1708110744754473,-0.37951697905858356,0.8560839196046194,0.6785950362682343,0.5769418080647787,-0.8921287655830383,1.6887028225447357e+18,1.2997356933593749,12.519248008728027,-2.2234108686447143,-11.698270416259765
14,1.4000000000000001,1.6887028226398904e+18,1.3948906250000002,1.8084981441497805,3.739275495211283,-2.9719196955362954,1.6887028226398904e+18,1.3948906250000002,6.263213353852431,-1.6316059430440266,-9.772686640421549,1.6887028226398904e+18,1.3948906250000002,4.448869228363037,-5.353376944859822,-6.863454818725586,1.6887028226398904e+18,1.3948906250000002,0.08172869433959319,3.831321398417155,1.2772428790728252,1.6887028226398904e+18,1.3948906250000002,0.0808632845679919,3.8356991608937583,1.2796608904997508,,,,,,,,,,,,1.6887028226417725e+18,1.3967725341796875,4.765320014767349,37.771199798583986,34.999359130859375,1.6887028226417725e+18,1.3967725341796875,-252.65467681884766,132.39439544677734,-97.88303833007812,1.6887028226485353e+18,1.4035355631510418,0.22365983078877127,0.32663271327813465,-0.41970387597878767,0.8150533636411031,1.0306106805801392,0.5708214243253072,-0.8634541432062784,1.6887028226398904e+18,1.3948906250000002,6.257231111327807,-1.6142580608526866,-9.835498015085856
15,1.5,1.6887028227436925e+18,1.4986927083333335,-3.518218676249186,0.1667996644973755,-0.5057757695515951,1.6887028227436925e+18,1.4986927083333335,-0.04287142306566246,-4.316951076189677,-8.448757727940878,1.6887028227436925e+18,1.4986927083333335,3.469501177469889,-4.466246128082275,-8.005669673283895,1.6887028227436925e+18,1.4986927083333335,1.4306718508402507,0.31154127543171245,-0.469780832529068,1.6887028227436925e+18,1.4986927083333335,1.4297810196876526,0.3159700389951467,-0.46741372098525363,,,,,,,,,,,,1.688702822741778e+18,1.4967778564453125,9.745359802246094,34.416199684143066,37.52231979370117,1.688702822741778e+18,1.4967778564453125,-247.6746368408203,129.03939895629884,-95.36007919311524,1.6887028227436908e+18,1.49869072265625,0.23353751003742218,0.3994614541530609,-0.40969101786613465,0.7859151482582092,1.171834111213684,0.4749979734420776,-0.8961064338684082,1.6887028227436925e+18,1.4986927083333335,-0.048853459457556404,-4.299603263537089,-8.511569102605185
16,1.6,1.6887028228474941e+18,1.602494099934896,-3.7798903981844583,-1.7907665967941284,1.2605652809143066,1.6887028228474941e+18,1.602494099934896,-0.9674979796012243,-5.431707382202148,-7.346962531407674,1.6887028228474941e+18,1.602494099934896,2.806546370188395,-3.6234360933303833,-8.670215288798014,1.6887028228474941e+18,1.602494099934896,1.2881366312503815,-0.5208898906906446,-2.8732300996780396,1.6887028228474941e+18,1.602494099934896,1.2872203538815181,-0.5165120040376981,-2.8708630204200745,,,,,,,,,,,,1.688702822841778e+18,1.5967780029296876,14.96695966720581,26.32027988433838,42.724399948120116,1.688702822841778e+18,1.5967780029296876,-242.45303497314453,120.94347763061523,-90.15799865722656,1.6887028228388483e+18,1.5938482259114586,0.32395945986111957,0.41056194404761,-0.4355113555987676,0.731040487686793,1.2616403897603352,0.3795071840286255,-1.1137385269006093,1.6887028228474941e+18,1.602494099934896,-0.9734799812237421,-5.414359490076701,-7.40977414449056
17,1.7000000000000002,1.6887028229513009e+18,1.7063007812500002,-1.8491450548171997,-1.0813796122868855,3.039957125981649,1.6887028229513009e+18,1.7063007812500002,0.4016951123873393,-5.241278568903605,-5.492923816045125,1.6887028229513009e+18,1.7063007812500002,2.244994103908539,-4.1423942645390825,-8.595568339029947,1.6887028229513009e+18,1.7063007812500002,-0.4974988326430321,-0.11377366135517757,-1.9082921048005421,1.6887028229513009e+18,1.7063007812500002,-0.49841513484716415,-0.10937031855185823,-1.9059759378433228,,,,,,,,,,,,1.6887028229417766e+18,1.696776708984375,19.49925994873047,20.387419509887696,44.81791877746582,1.6887028229417766e+18,1.696776708984375,-237.92073516845704,115.01061782836913,-88.06447830200196,1.6887028229426445e+18,1.697644490559896,0.4091581851243973,0.3430670400460561,-0.5177323867877325,0.6676457623640696,1.3196232120196025,0.4229859262704849,-1.4306200742721558,1.6887028229513009e+18,1.7063007812500002,0.39571305612723034,-5.223930676778157,-5.555735270182292
18,1.8,1.6887028230464515e+18,1.801451416015625,0.04484739303588867,-0.6530094146728518,-6.4384260177612305,1.6887028230464515e+18,1.801451416015625,1.9706090927124023,-5.53663272857666,-14.672070693969726,1.6887028230464515e+18,1.801451416015625,1.9199156761169434,-4.866118717193603,-8.296332168579102,1.6887028230464515e+18,1.801451416015625,-0.7742411375045777,0.0112704586237669,9.162798523901783e-05,1.6887028230464515e+18,1.801451416015625,-0.7751574516296387,0.015699238516390324,0.0025045461952686392,,,,,,,,,,,,1.688702823041774e+18,1.79677412109375,21.66109981536865,22.079559516906738,43.21971893310547,1.688702823041774e+18,1.79677412109375,-235.75889434814454,116.70275802612305,-89.66267852783203,1.6887028230464479e+18,1.8014476318359376,0.39736377199490863,0.3085919767618179,-0.5579281548659006,0.6598869363466898,1.3544841607411702,0.5134111742178599,-1.5000366767247517,1.6887028230464515e+18,1.801451416015625,1.9646270155906678,-5.519284725189209,-14.734882164001466
19,1.9000000000000001,1.6887028231416046e+18,1.8966046549479165,-1.47160005569458,2.557021419207255,-1.1363303661346438,1.6887028231416046e+18,1.8966046549479165,-0.2409771805008252,-1.586341659228007,-9.859625816345215,1.6887028231416046e+18,1.8966046549479165,1.2247768342494965,-4.125858465830485,-8.785982926686605,1.6887028231416046e+18,1.8966046549479165,1.8809813658396404,1.0863729566335678,-0.08992445655167103,1.6887028231416046e+18,1.8966046549479165,1.880090485016505,1.0907762497663498,-0.0875318981707096,,,,,,,,,,,,1.688702823141775e+18,1.8967752441406251,25.0185396194458,18.870959663391112,43.30999946594238,1.688702823141775e+18,1.8967752441406251,-232.40145721435547,113.49415817260743,-89.5723976135254,1.6887028231502548e+18,1.9052547200520833,0.40714992582798004,0.36277102927366894,-0.5595292150974274,0.6232500572999319,1.4499850670496623,0.41411359608173365,-1.5244995951652527,1.6887028231416046e+18,1.8966046549479165,-0.24695922434329987,-1.5689937969048817,-9.922437389691671
20,2.0,1.688702823245406e+18,2.0004058837890626,-2.973195811112722,6.5182052453358965,5.516658862431844,1.688702823245406e+18,2.0004058837890626,-1.292523021499316,2.4314069946606955,-3.1368908484776816,1.688702823245406e+18,2.0004058837890626,1.674826741218567,-4.06929353872935,-8.71623706817627,1.688702823245406e+18,2.0004058837890626,-1.9686405410369237,-2.315382887919744,-0.32762739186485607,1.688702823245406e+18,2.0004058837890626,-1.9695058812697728,-2.310979594786962,-0.32520939037203783,,,,,,,,,,,,1.6887028232417777e+18,1.9967777587890623,23.752179527282713,17.201999568939208,44.57025909423828,1.6887028232417777e+18,1.9967777587890623,-233.66781616210938,111.82519760131837,-88.31213760375977,1.6887028232454057e+18,2.0004056640625,0.42698357701301576,0.33886231184005733,-0.5511060953140259,0.6303395390510559,1.3924466371536255,0.41823638677597047,-1.5401951789855957,1.688702823245406e+18,2.0004058837890626,-1.2985050852100055,2.448754832148552,-3.1997023820877075
21,2.1,1.6887028233492124e+18,2.10421240234375,1.092002868652344,-6.424492359161377,-1.6550251245498657,1.6887028233492124e+18,2.10421240234375,5.336991486450036,-12.565808296203613,-7.8380891879399615,1.6887028233492124e+18,2.10421240234375,4.239142616589864,-6.123811483383179,-6.245751778284709,1.6887028233492124e+18,2.10421240234375,-4.069355249404907,-1.9267453554396827,2.5458827316761017,1.6887028233492124e+18,2.10421240234375,-4.0702459414800005,-1.922341998045643,2.548326184352239,,,,,,,,,,,,1.6887028233417782e+18,2.09677802734375,10.578619766235352,30.337739944458008,40.30269889831543,1.6887028233417782e+18,2.09677802734375,-246.84137268066405,124.9609359741211,-92.57969818115234,1.6887028233405576e+18,2.0955574544270834,0.3776540110508601,0.19305796424547825,-0.5105114926894506,0.7441774308681488,1.026353696982066,0.6561879714330038,-1.3188023964564006,1.6887028233492124e+18,2.10421240234375,5.331009442607562,-12.548460404078165,-7.900900999704997
22,2.2,1.6887028234443628e+18,2.19936298828125,-2.2352806091308595,-1.7701708793640134,-0.10240342617034921,1.6887028234443628e+18,2.19936298828125,3.894199180603027,-8.638329124450683,-3.446382391452789,1.6887028234443628e+18,2.19936298828125,6.123633766174317,-6.850653743743896,-3.406666374206543,1.6887028234443628e+18,2.19936298828125,-0.9123578011989594,-2.0861047744750976,0.07254025042057036,1.6887028234443628e+18,2.19936298828125,-0.9132435530424118,-2.0817065954208376,0.07492261677980418,,,,,,,,,,,,1.6887028234417777e+18,2.196777734375,-4.692119908332825,42.656079864501955,27.70131950378418,1.6887028234417777e+18,2.196777734375,-262.1121124267578,137.27927856445314,-105.18107757568359,1.688702823444362e+18,2.199361735026042,0.28546907504399616,0.065883617537717,-0.43123061458269757,0.8527293701966604,0.5246667166550955,0.7727553447087606,-0.8632647097110748,1.6887028234443628e+18,2.19936298828125,3.8882172107696533,-8.620981025695801,-3.5091941475868227
23,2.3000000000000003,1.6887028235395164e+18,2.2945164388020833,-3.4260071913401284,3.8485710620880127,1.3928335507710774,1.6887028235395164e+18,2.2945164388020833,2.891925573348999,-3.218446135520935,-1.1181460916996002,1.6887028235395164e+18,2.2945164388020833,6.312086741129558,-7.04951278368632,-2.573667049407959,1.6887028235395164e+18,2.2945164388020833,-0.04291328539450964,-0.38377609352270764,-0.7682139488557974,1.6887028235395164e+18,2.2945164388020833,-0.04382958014806112,-0.3793727631370227,-0.7658213836451372,,,,,,,,,,,,1.6887028235417748e+18,2.296774658203125,-7.734799909591675,43.389299392700195,25.706619644165038,1.6887028235417748e+18,2.296774658203125,-265.15479431152346,138.0124984741211,-107.17577667236328,1.6887028235481628e+18,2.3031626383463544,0.30993917087713874,0.002236778479224683,-0.4279618759950002,0.8487807313601176,0.40215879678726196,0.8115460872650146,-0.8751746316750845,1.6887028235395164e+18,2.2945164388020833,2.8859435319900513,-3.2010982433954873,-1.180957665046056
24,2.4000000000000004,1.6887028236433196e+18,2.398319783528646,4.245061715443929,0.7200707594553629,-0.3933324217796326,1.6887028236433196e+18,2.398319783528646,8.75783077875773,-7.662216901779175,-2.645763869086901,1.6887028236433196e+18,2.398319783528646,4.506923119227092,-8.36478304862976,-2.3151188691457114,1.6887028236433196e+18,2.398319783528646,-1.149801102777322,0.2624684671560924,-1.8662188003460567,1.6887028236433196e+18,2.398319783528646,-1.150691953798135,0.2668972164392472,-1.8638517210880916,,,,,,,,,,,,1.6887028236417805e+18,2.396780322265625,3.9979399092495442,46.03791961669922,22.3235595703125,1.6887028236417805e+18,2.396780322265625,-253.42205657958985,140.66111907958984,-110.55883712768555,1.6887028236433188e+18,2.39831875,0.25233531594276426,-0.01069225918035956,-0.5254061639308929,0.8116847395896911,0.5068504095077515,1.0340417504310608,-0.895450747013092,1.6887028236433196e+18,2.398319783528646,8.751848419507345,-7.6448690096537275,-2.708575561642647
25,2.5,1.6887028237471224e+18,2.5021227213541666,-6.7371829350789385,-9.26895268758138,1.3291775782903035,1.6887028237471224e+18,2.5021227213541666,-3.8744784990946446,-18.27259047826131,-1.1272188524405162,1.6887028237471224e+18,2.5021227213541666,2.8568585316340127,-8.986133416493734,-2.519083817799886,1.6887028237471224e+18,2.5021227213541666,-1.2338969173530738,5.767611543337504,-0.9223047271370888,1.6887028237471224e+18,2.5021227213541666,-1.2347877323627472,5.772014896074931,-0.9199121569593748,,,,,,,,,,,,1.6887028237417756e+18,2.4967756103515626,13.233339786529541,47.09199981689453,16.039339447021483,1.6887028237417756e+18,2.4967756103515626,-244.18665618896483,141.71519622802734,-116.84305877685547,1.6887028237384732e+18,2.4934730631510416,0.14948879679044083,0.0573202931943039,-0.5816888411839803,0.7900290489196777,0.7277090946833292,1.1502830982208252,-0.8633080124855042,1.6887028237471224e+18,2.5021227213541666,-3.880460182825724,-18.255242824554443,-1.190030465523402
26,2.6,1.6887028238509243e+18,2.6059242350260416,-2.951019008954366,5.211725473403931,2.501015782356262,1.6887028238509243e+18,2.6059242350260416,-1.0861420614334445,-4.135794440905253,0.17298113772024712,1.6887028238509243e+18,2.6059242350260416,1.8590309023857117,-9.330015341440836,-2.3907219568888345,1.6887028238509243e+18,2.6059242350260416,-0.3462333207329114,0.17124588958298162,0.17905987240374088,1.6887028238509243e+18,2.6059242350260416,-0.3471241717537244,0.17564921236286557,0.18145243078470227,,,,,,,,,,,,1.6887028238417772e+18,2.5967770751953125,19.70299949645996,47.81057929992676,7.622559833526611,1.6887028238417772e+18,2.5967770751953125,-237.7169967651367,142.43377532958985,-125.25983657836915,1.688702823842276e+18,2.597275919596354,0.020875886703530883,0.1460741261641184,-0.6232317090034485,0.7679678698380789,0.9458425343036652,1.2569160262743633,-0.7663410703341166,1.6887028238509243e+18,2.6059242350260416,-1.0921241308872898,-4.11844668785731,0.11016954481601715
27,2.7,1.688702823946079e+18,2.70107900390625,-1.8900146484375,-0.4179901123046875,-0.4596786737442017,1.688702823946079e+18,2.70107900390625,-0.5108676373958587,-10.02568759918213,-1.8445073127746583,1.688702823946079e+18,2.70107900390625,1.3733009815216064,-9.590192794799805,-1.4475160360336303,1.688702823946079e+18,2.70107900390625,-1.3652532696723938,-0.5384777203202248,-1.492007851600647,1.688702823946079e+18,2.70107900390625,-1.366139030456543,-0.5340794816613197,-1.48962544798851,,,,,,,,,,,,1.6887028239417761e+18,2.6967760986328124,21.84043960571289,47.6019588470459,3.9430399537086487,1.6887028239417761e+18,2.6967760986328124,-235.57955474853514,142.22515716552735,-128.93935775756836,1.6887028239460772e+18,2.701077189127604,-0.009405161448133451,0.10938340549667673,-0.6503825783729553,0.750883569320043,0.8912402292092642,1.3691954414049785,-0.7220450341701508,1.688702823946079e+18,2.70107900390625,-0.516849684715271,-10.00833969116211,-1.907318902015686
28,2.8000000000000003,1.6887028240412306e+18,2.796230631510417,-0.008804256717363979,-0.356200377146403,-3.3237041234970093,1.6887028240412306e+18,2.796230631510417,-0.6795616199572881,-10.121440251668295,-3.694916923840841,1.6887028240412306e+18,2.796230631510417,-0.6766033867994944,-9.747735182444254,-0.43390021442125243,1.6887028240412306e+18,2.796230631510417,-1.0019717117150624,-0.40884700665871304,-2.400802254676819,1.6887028240412306e+18,2.796230631510417,-1.002888023853302,-0.4044436886906624,-2.398460586865743,,,,,,,,,,,,1.6887028240417787e+18,2.7967788330078127,32.02133960723877,42.30105857849121,-0.3135400053113699,1.6887028240417787e+18,2.7967788330078127,-225.39865417480468,136.92425537109375,-133.19593658447266,1.68870282404988e+18,2.804880086263021,-0.01707925026615455,0.048619893069068554,-0.7383121351401011,0.671397735675176,1.490260640780131,1.4484920501708984,-2.4443238774935403,1.6887028240412306e+18,2.796230631510417,-0.6855436762173971,-10.104092439015707,-3.7577285369237265
29,2.9000000000000004,1.6887028241450332e+18,2.9000333658854167,4.880151569843292,-2.0665451685587564,-2.9805832902590432,1.6887028241450332e+18,2.9000333658854167,2.6900311609109244,-11.629716396331787,-2.524228483438492,1.6887028241450332e+18,2.9000333658854167,-2.1959664622942605,-9.545666535695394,0.39366742347677547,1.6887028241450332e+18,2.9000333658854167,0.04102978234489756,3.3053664416074753,-0.15795958042144775,1.6887028241450332e+18,2.9000333658854167,0.040113486349582665,3.3097696180144944,-0.1555415540933609,,,,,,,,,,,,1.6887028241417733e+18,2.896773193359375,38.4068187713623,36.87205924987793,-6.9003198623657225,1.6887028241417733e+18,2.896773193359375,-219.01317749023437,131.4952590942383,-139.7827163696289,1.6887028241450312e+18,2.90003125,-0.08102204129099841,0.07474664375185962,-0.7832908034324646,0.6092887759208679,-2.9932931423187257,1.323574185371399,-3.0670674324035643,1.6887028241450332e+18,2.9000333658854167,2.6840491741895676,-11.61236826578776,-2.587040066719055
30,3.0,1.6887028242488402e+18,3.0038402913411457,0.4451617995897929,1.5026272137959797,-6.326557874679565,1.6887028242488402e+18,3.0038402913411457,0.24237295861045505,-8.279266039530436,-5.892425537109375,1.6887028242488402e+18,3.0038402913411457,-0.20863490551710132,-9.76438856124878,0.37144487475355464,1.6887028242488402e+18,3.0038402913411457,1.0099384188652039,0.9085093041261038,2.529134829839071,1.6887028242488402e+18,3.0038402913411457,1.0090475579102833,0.9129381279150645,2.5315019687016806,,,,,,,,,,,,1.688702824241775e+18,2.996775244140625,27.928239631652833,42.125379180908205,-14.411859703063964,1.688702824241775e+18,2.996775244140625,-229.49175567626952,136.7485778808594,-147.29425659179688,1.6887028242401884e+18,2.995188313802083,-0.1850020810961723,0.16204651941855744,-0.7061912417411804,0.6624005933602651,-1.792300807312131,1.4741133451461792,1.241751531759898,1.6887028242488402e+18,3.0038402913411457,0.23639095450441042,-8.26191814740499,-5.955236991246541
31,3.1,1.6887028243439877e+18,3.098987744140625,4.270040369033813,-9.521438789367675,-2.136877155303955,1.6887028243439877e+18,3.098987744140625,5.874977779388428,-19.092690849304198,-3.38392972946167,1.6887028243439877e+18,3.098987744140625,1.599091362953186,-9.553747940063477,-1.309740024805069,1.6887028243439877e+18,3.098987744140625,2.4648412466049194,2.5998730897903437,1.8986913919448853,1.6887028243439877e+18,3.098987744140625,2.463955545425415,2.6043017148971557,1.9010737419128418,,,,,,,,,,,,1.6887028243417805e+18,3.096780419921875,17.74611940383911,47.94843940734863,-7.571319890022278,1.6887028243417805e+18,3.096780419921875,-239.6738754272461,142.57163696289064,-140.45371856689454,1.6887028243439885e+18,3.098988525390625,-0.16050506134827927,0.22540190815925595,-0.607087254524231,0.7412718236446381,0.6531430035829544,1.3563628196716309,-0.09500794935350615,1.6887028243439877e+18,3.098987744140625,5.868995714187622,-19.075342750549318,-3.4467413783073426
32,3.2,1.6887028244391465e+18,3.194146484375,-4.416529794534047,-8.748364528020224,1.3259859879811604,1.6887028244391465e+18,3.194146484375,-2.87627252129217,-17.262620131174724,-3.187339494625727,1.6887028244391465e+18,3.194146484375,1.5344112515449524,-8.496751387914022,-4.576012889544169,1.6887028244391465e+18,3.194146484375,2.901355425516764,1.3807081878185272,-0.012879072378079087,1.6887028244391465e+18,3.194146484375,2.9004645347595215,1.385086014866829,-0.010486518343289702,,,,,,,,,,,,1.6887028244417748e+18,3.196774975585938,12.002359867095947,49.47587890625,3.906439899653196,1.6887028244417748e+18,3.196774975585938,-245.41763458251953,144.0990753173828,-128.97595672607423,1.6887028244477942e+18,3.2027941894531247,-0.14386165266235665,0.4237879514694214,-0.49700358013312024,0.742293914159139,1.2733038862546284,1.0370180408159893,-0.41436485449473065,1.6887028244391465e+18,3.194146484375,-2.882254627222816,-17.245272477467854,-3.2501510630051293
33,3.3000000000000003,1.688702824542947e+18,3.2979471028645833,-2.4637779792149863,6.018244345982869,5.0692005554835005,1.688702824542947e+18,3.2979471028645833,-0.4106681818763415,-2.311865476270517,0.4114658037821452,1.688702824542947e+18,3.2979471028645833,2.04726376136144,-8.312605301539103,-4.720422228177388,1.688702824542947e+18,3.2979471028645833,-1.9435950530072053,-1.4291446606318157,0.06210462702438233,1.688702824542947e+18,3.2979471028645833,-1.944485893395419,-1.4247668534517288,0.06444628210738299,,,,,,,,,,,,1.6887028245417782e+18,3.2967781738281254,10.565199661254884,49.43439903259277,7.729919862747193,1.6887028245417782e+18,3.2967781738281254,-246.85479736328125,144.0575958251953,-125.15247650146485,1.688702824551598e+18,3.3065982666015628,-0.12770086651047066,0.38429594536622363,-0.4974988450606664,0.7658032774925232,1.137546420097351,1.0374139547348022,-0.36710824569066364,1.688702824542947e+18,3.2979471028645833,-0.4166502583151063,-2.2945174823204675,0.34865422050158185
34,3.4000000000000004,1.6887028246467484e+18,3.4017483723958333,-2.0989620089530945,10.360661029815674,3.7730029026667276,1.6887028246467484e+18,3.4017483723958333,0.13898310624063015,1.0599207157890003,1.683948924144109,1.6887028246467484e+18,3.4017483723958333,2.2320990562438965,-9.283235708872477,-2.1517412861188254,1.6887028246467484e+18,3.4017483723958333,-1.694743812084198,-2.225433041652044,-0.16475544000665346,1.6887028246467484e+18,3.4017483723958333,-1.6956600944201152,-2.2210042079289756,-0.16231199291845164,,,,,,,,,,,,1.688702824641779e+18,3.3967787841796877,11.792519855499268,50.118818283081055,-3.7880998494103553,1.688702824641779e+18,3.3967787841796877,-245.62747650146486,144.7420181274414,-136.67049407958984,1.6887028246467464e+18,3.401746337890625,-0.17966534495353695,0.27591279745101926,-0.5605876564979553,0.7585553288459778,0.77517671585083,1.2560842275619506,-0.10995631571859119,1.6887028246467484e+18,3.4017483723958333,0.13300104998052117,1.077268707876404,1.6211373110612233
35,3.5,1.688702824750556e+18,3.505555908203125,-6.483007987340291,-3.389704465866089,2.8839346766471863,1.688702824750556e+18,3.505555908203125,-4.177469526417553,-12.833206335703531,1.5514463881651561,1.688702824750556e+18,3.505555908203125,2.2996925711631775,-9.425997098286947,-1.3951757152875264,1.688702824750556e+18,3.505555908203125,0.3347032566865285,0.43373976647853857,-0.7785986537734667,1.688702824750556e+18,3.505555908203125,0.333786961932977,0.43816855549812317,-0.776180642346541,,,,,,,,,,,,1.6887028247417748e+18,3.4967750244140623,13.916539669036865,49.712559127807616,-5.407039928436279,1.6887028247417748e+18,3.4967750244140623,-243.50345458984376,144.33575744628905,-138.28943939208983,1.6887028247419034e+18,3.4969034423828127,-0.14169898380835846,0.19843732813994086,-0.5859629412492117,0.77254385749499,0.5464548915624619,1.2925205826759338,-0.05580276809632778,1.688702824750556e+18,3.505555908203125,-4.183451674568157,-12.815858443578085,1.4886347999175389
36,3.6,1.688702824845708e+18,3.6007080078125,-6.360928058624268,-14.868989181518554,-0.6872469305992126,1.688702824845708e+18,3.6007080078125,-5.211806964874268,-24.569622421264647,-1.5147763550281526,1.688702824845708e+18,3.6007080078125,1.14327512383461,-9.683129119873048,-0.8902168691158294,1.688702824845708e+18,3.6007080078125,-1.7869335651397704,-0.1342376321554184,-1.574993872642517,1.688702824845708e+18,3.6007080078125,-1.7878498554229736,-0.12980885803699493,-1.5726114869117738,,,,,,,,,,,,1.6887028248417787e+18,3.5967788085937498,18.437859725952148,47.82033843994141,-9.347639656066894,1.6887028248417787e+18,3.5967788085937498,-238.9821350097656,142.44353942871095,-142.23003692626952,1.6887028248457085e+18,3.600708455403646,-0.1815593341986338,0.2217338606715202,-0.6317895452181498,0.7190100848674774,0.9347155491511027,1.4325831929842632,-0.35442851138456416,1.688702824845708e+18,3.6007080078125,-5.217789077758789,-24.552274322509767,-1.5775879621505737
37,3.7,1.6887028249408632e+18,3.695863240559896,16.741962750752766,-1.8941068649291992,-5.968316475550334,1.6887028249408632e+18,3.695863240559896,15.009678204854332,-11.39462153116862,-4.3895334005355835,1.6887028249408632e+18,3.695863240559896,-1.7381309072176616,-9.483009974161783,1.5160956631104152,1.6887028249408632e+18,3.695863240559896,-2.671135584513346,0.2986876641710599,-2.0349193761746087,1.6887028249408632e+18,3.695863240559896,-2.672026445468267,0.3031164730588594,-2.0325013796488443,,,,,,,,,,,,1.6887028249417782e+18,3.696778076171875,33.82571926116943,37.03431930541992,-18.22801971435547,1.6887028249417782e+18,3.696778076171875,-223.59427642822266,131.6575180053711,-151.11041717529298,1.6887028249495101e+18,3.7045102539062498,-0.21153550346692399,0.12291964640220003,-0.7619931300481161,0.5978429218133291,-2.446583906809489,1.2985146045684814,0.8345084190368652,1.6887028249408632e+18,3.695863240559896,15.003696282704672,-11.377273559570312,-4.452345013618469
38,3.8000000000000003,1.6887028250446625e+18,3.7996626383463536,-3.037441521883011,8.838372151056925,-4.4803900718688965,1.6887028250446625e+18,3.7996626383463536,-3.543570955594381,-0.6909275700648627,-2.119243244330088,1.6887028250446625e+18,3.7996626383463536,-0.511975409463048,-9.511795202891031,2.298459311326345,1.6887028250446625e+18,3.7996626383463536,0.4792747075359027,-0.7780641199400028,1.8224909901618958,1.6887028250446625e+18,3.7996626383463536,0.4784093076984088,-0.7736608423292637,1.824909011522929,,,,,,,,,,,,1.688702825041779e+18,3.7967789306640625,27.639099502563475,38.34337882995605,-24.027899932861327,1.688702825041779e+18,3.7967789306640625,-229.78089294433593,132.9665771484375,-156.9102981567383,1.6887028250446656e+18,3.7996655273437496,-0.2584012478590011,0.10868919193744656,-0.7193169832229614,0.6349837899208068,-1.8038236618041992,1.324970817565918,2.3332748889923094,1.6887028250446625e+18,3.7996626383463536,-3.5495529572168985,-0.6735795239607493,-2.182054857412974
39,3.9000000000000004,1.688702825148469e+18,3.90346875,0.12043386201063792,-11.225814660390219,-3.6955904960632324,1.688702825148469e+18,3.90346875,1.0997012766699001,-20.8615250090758,-2.878266582886378,1.688702825148469e+18,3.90346875,0.9734215041001638,-9.618205865224203,0.7546365956465403,1.688702825148469e+18,3.90346875,3.3050355364878974,4.6570838044087095,1.5742506232733529,1.688702825148469e+18,3.90346875,3.3041446482141814,4.661487181981404,1.576643188484013,,,,,,,,,,,,1.6887028251417772e+18,3.8967770996093747,22.26377944946289,44.32381935119629,-17.115379810333252,1.6887028251417772e+18,3.8967770996093747,-235.15621795654297,138.94701690673827,-149.9977767944336,1.6887028251398144e+18,3.8948143717447916,-0.19569084544976548,0.10337780788540835,-0.6642227868239085,0.7083555062611898,-0.8152539233366648,1.3845309813817341,1.2444103782375653,1.688702825148469e+18,3.90346875,1.0937195084989078,-20.844176938136417,-2.9410781462987265
40,4.0,1.6887028252436227e+18,3.9986225097656254,1.3862948656082152,-8.506255912780762,4.072625970840454,1.6887028252436227e+18,3.9986225097656254,0.20757738947868348,-17.523358154296876,0.6154340624809265,1.6887028252436227e+18,3.9986225097656254,-1.1845633924007415,-8.99959774017334,-3.5198795795440674,1.6887028252436227e+18,3.9986225097656254,1.2363301396369935,4.044935846328736,-2.3616355299949645,1.6887028252436227e+18,3.9986225097656254,1.235474979877472,4.049364686012268,-2.3592837393283843,,,,,,,,,,,,1.6887028252417774e+18,3.9967774414062505,15.641619682312012,49.0403392791748,-6.426959896087647,1.6887028252417774e+18,3.9967774414062505,-241.77837524414062,143.66353607177734,-139.30935668945312,1.6887028252436173e+18,3.9986173095703124,-0.26247796167929965,0.5141210009654363,-0.5334332386652628,0.6121830940246582,1.8201203346252441,1.180380940437317,-0.628093088666598,1.6887028252436227e+18,3.9986225097656254,0.20159518122673034,-17.506009912490846,0.552622401714325
41,4.1000000000000005,1.6887028253387743e+18,4.093774332682291,0.6284898420174917,9.91092824935913,4.449996550877889,1.6887028253387743e+18,4.093774332682291,1.4653048341472943,0.4721837043762207,2.333500603834788,1.6887028253387743e+18,4.093774332682291,0.8309690008560816,-9.421240011850992,-2.179183304309845,1.6887028253387743e+18,4.093774332682291,-2.768314003944397,-5.649459878603618,2.2475005189577737,1.6887028253387743e+18,4.093774332682291,-2.769230326016744,-5.645031293233235,2.249867598215739,,,,,,,,,,,,1.6887028253417756e+18,4.096775610351562,14.70465965270996,49.416099548339844,-6.963759899139404,1.6887028253417756e+18,4.096775610351562,-242.7153350830078,144.03929443359374,-139.84615631103514,1.6887028253474273e+18,4.10242724609375,-0.21531702578067777,0.3168914690613746,-0.5826181173324585,0.7109680672486623,0.9819244121511778,1.3107346892356873,-0.2008210172255834,1.6887028253387743e+18,4.093774332682291,1.4593226710955303,0.48953162630399066,2.270689010620117
42,4.2,1.6887028254425782e+18,4.197577962239584,-4.533981164296468,7.212696393330892,1.0005514025688171,1.6887028254425782e+18,4.197577962239584,-2.0907287995020547,-2.290130630135536,1.5130615234375,1.6887028254425782e+18,4.197577962239584,2.437406301498413,-9.48532247543335,0.44982273628314334,1.6887028254425782e+18,4.197577962239584,-0.6751333723465601,-1.0711776514848073,0.3475823247184356,1.6887028254425782e+18,4.197577962239584,-0.675998772184054,-1.066799779733022,0.3499494319160779,,,,,,,,,,,,1.6887028254417782e+18,4.196778247070313,10.770159721374512,48.236359405517575,-15.271959590911866,1.6887028254417782e+18,4.196778247070313,-246.64983520507812,142.85955657958985,-148.15435943603515,1.6887028254512284e+18,4.206228352864584,-0.2370381653308868,0.1550682485103607,-0.5959327220916748,0.7511460185050964,-0.1983714746311307,1.3208160797754924,0.7648732364177704,1.6887028254425782e+18,4.197577962239584,-2.0967108011245728,-2.2727826734383902,1.450249915321668
43,4.3,1.68870282554638e+18,4.301380045572917,-9.266150951385498,-16.097572167714436,2.7402711609999337,1.68870282554638e+18,4.301380045572917,-7.240382075309753,-25.6622257232666,1.9661026348670323,1.68870282554638e+18,4.301380045572917,2.0199228525161743,-9.54714854558309,-0.8368558759490649,1.68870282554638e+18,4.301380045572917,1.1147018074989319,0.20387628239889935,-0.9966011991103491,1.68870282554638e+18,4.301380045572917,1.1138109763463337,0.20830505155026913,-0.994183175265789,1.688702825575372e+18,4.3303720703125,180.0,0.6752716898918152,4.510090351104736,14.854000091552734,3.4011921882629395,15.774556159973145,43.400001525878906,-122.7524407,49.1880615,1.6887028255417766e+18,4.29677666015625,12.334199714660645,49.44537887573242,-9.108519887924194,1.6887028255417766e+18,4.29677666015625,-245.0857940673828,144.0685775756836,-141.9909194946289,1.688702825546377e+18,4.30137705078125,-0.17460786700248715,0.20261960923671718,-0.597854220867157,0.7552589297294616,0.44573223888874053,1.340029764175415,0.09803108088672162,1.68870282554638e+18,4.301380045572917,-7.246364116668701,-25.644877274831135,1.9032910664876301
44,4.4,1.6887028256501852e+18,4.405185139973958,20.754694203535717,-1.4403437773386638,0.2752468635638552,1.6887028256501852e+18,4.405185139973958,19.18864260117213,-10.99232824643453,0.3243270814418793,1.6887028256501852e+18,4.405185139973958,-1.5718975116033107,-9.53447993596395,-0.013607201476891845,1.6887028256501852e+18,4.405185139973958,-1.9993364810943604,-5.229897156357765,-4.503502249717712,1.6887028256501852e+18,4.405185139973958,-2.000252813100815,-5.225468352437019,-4.501135190327962,,,,,,,,,,,,1.6887028256417764e+18,4.396776220703125,28.619979572296142,42.0607192993164,-9.892979836463928,1.6887028256417764e+18,4.396776220703125,-228.80001678466797,136.6839172363281,-142.77537841796874,1.6887028256415352e+18,4.396535115559896,-0.12559132805715,0.1363400140156348,-0.7322167058785757,0.6398960848649343,0.26876022418340045,1.3863056500752766,-1.9877745270108182,1.6887028256501852e+18,4.405185139973958,19.182660778363545,-10.974980036417643,0.26151559005180997
45,4.5,1.6887028257453402e+18,4.500340234375,-5.768108558654785,4.291062641143799,-1.6938352823257445,1.6887028257453402e+18,4.500340234375,-6.964669132232666,-5.396054458618164,-1.1267801880836488,1.6887028257453402e+18,4.500340234375,-1.2024065271019935,-9.669612503051757,0.5043676972389222,1.6887028257453402e+18,4.500340234375,-0.057940566539764406,2.6421143412590027,4.085191869735718,1.6887028257453402e+18,4.500340234375,-0.05882631540298457,2.6465126514434814,4.087604761123657,,,,,,,,,,,,1.688702825741777e+18,4.496776928710938,35.14697952270508,39.379159164428714,-5.1703598439693454,1.688702825741777e+18,4.496776928710938,-222.27301635742188,134.00235748291016,-138.0527587890625,1.6887028257453373e+18,4.500337320963542,-0.0681404730615516,0.04525458021089432,-0.7495007216930389,0.6530943810939789,-1.2996459503968556,1.4147030313809712,1.4606513778368633,1.6887028257453402e+18,4.500340234375,-6.970651149749756,-5.378706288337708,-1.1895917892456054
46,4.6000000000000005,1.6887028258404908e+18,4.59549072265625,4.055066426595052,-9.201014836629232,-2.199865142504374,1.6887028258404908e+18,4.59549072265625,6.326025333876411,-18.672890139122803,-2.239582339922587,1.6887028258404908e+18,4.59549072265625,2.2651125291983285,-9.454370339711508,-0.1024045782784621,1.6887028258404908e+18,4.59549072265625,1.1275045151511829,1.9825375477472942,3.7486509680747986,1.6887028258404908e+18,4.59549072265625,1.1266136442621548,1.986966331799825,3.751068969567617,,,,,,,,,,,,1.6887028258417754e+18,4.59677548828125,15.785579490661622,48.94639892578125,-2.949959959089756,1.6887028258417754e+18,4.59677548828125,-241.63441467285156,143.56959533691406,-135.83235931396484,1.6887028258491384e+18,4.604138590494792,-0.04263771200203333,0.059194199900957756,-0.6036944389343262,0.7861576974391937,0.0922233834862709,1.303473949432373,0.055169606891771146,1.6887028258404908e+18,4.59549072265625,6.320042515173554,-18.6555417055885,-2.3023938735326133
47,4.7,1.6887028259442954e+18,4.6992954101562505,-6.7611030737559,-6.766475280125936,3.051551421483358,1.6887028259442954e+18,4.6992954101562505,-6.353642026583354,-15.2740851243337,-1.6337993144989014,1.6887028259442954e+18,4.6992954101562505,0.40161504161854583,-8.490105152130127,-4.748038252194722,1.6887028259442954e+18,4.6992954101562505,1.4737124095360439,4.559828877449036,-1.2779301057259242,1.6887028259442954e+18,4.6992954101562505,1.4727960998813312,4.564232309659322,-1.275613859295845,,,,,,,,,,,,1.6887028259417748e+18,4.696774682617187,12.811219835281372,49.57347946166992,5.8950399398803714,1.6887028259417748e+18,4.696774682617187,-244.60877532958983,144.1966781616211,-126.98735809326172,1.6887028259442924e+18,4.699292333984375,-0.17610663473606109,0.49329065084457396,-0.5029223024845123,0.6850395679473877,1.555570936203003,1.042924690246582,-0.5291627228260041,1.6887028259442954e+18,4.6992954101562505,-6.359623928864797,-15.256736596425375,-1.6966108841200667
48,4.800000000000001,1.6887028260481014e+18,4.803101399739583,-3.5463255246480307,9.712348699569702,5.062810142834981,1.6887028260481014e+18,4.803101399739583,-1.4484553119788568,0.6193422575791677,2.31196520725886,1.6887028260481014e+18,4.803101399739583,2.092024087905884,-9.075502077738443,-2.813532292842865,1.6887028260481014e+18,4.803101399739583,-3.1206814845403037,-4.622111916542053,0.07908159929017226,1.6887028260481014e+18,4.803101399739583,-3.1215977668762207,-4.617683092753093,0.08147415022055308,,,,,,,,,,,,1.6887028260417766e+18,4.796776440429687,11.37161979675293,50.16883888244629,3.783219909667969,1.6887028260417766e+18,4.796776440429687,-246.04837341308593,144.7920379638672,-129.09917602539062,1.6887028260394468e+18,4.794446736653646,-0.11094898854692774,0.2926602363586426,-0.5579313437143961,0.764094720284144,0.9769778251647949,1.1716353297233582,-0.38328104466199875,1.6887028260481014e+18,4.803101399739583,-1.4544373806566,0.6366902391115824,2.2491535941759744
49,4.9,1.6887028261432515e+18,4.898251416015625,-3.9645859718322756,9.311894607543945,1.507556140422821,1.6887028261432515e+18,4.898251416015625,-0.9052047878503799,0.006340992078185082,2.0249261617660523,1.6887028261432515e+18,4.898251416015625,3.0535351276397704,-9.288048934936523,0.4546826511621475,1.6887028261432515e+18,4.898251416015625,-1.8078862309455872,-2.2875375986099242,1.289078378677368,1.6887028261432515e+18,4.898251416015625,-1.8087719917297362,-2.2831088304519653,1.2914302110671998,,,,,,,,,,,,1.6887028261417772e+18,4.896777001953125,8.834019899368286,50.206658935546876,-7.549359965324402,1.6887028261417772e+18,4.896777001953125,-248.58597412109376,144.8298568725586,-140.43175659179687,1.6887028261432497e+18,4.898249755859375,-0.1266743255158265,0.06883691825593509,-0.5838861167430878,0.797566165526708,-0.09916018818815547,1.2505151430765789,0.3801528910795848,1.6887028261432515e+18,4.898251416015625,-0.9111868679523468,0.02368896622210741,1.9621145486831666
50,5.0,1.6887028262384026e+18,4.993402547200521,-4.8149393399556475,-8.875034809112549,6.669883131980896,1.6887028262384026e+18,4.993402547200521,-1.7056836783885956,-18.104794025421143,6.688637336095174,1.6887028262384026e+18,4.993402547200521,3.1034096678098044,-9.212254047393797,-0.043933346867561375,1.6887028262384026e+18,4.993402547200521,1.690136839946111,3.195792439083258,-2.0363192756970725,1.6887028262384026e+18,4.993402547200521,1.6892205476760864,3.2001957346995673,-2.033952201406161,,,,,,,,,,,,1.6887028262417784e+18,4.99677841796875,7.124799919128418,50.46529884338379,-5.113019847869873,1.6887028262417784e+18,4.99677841796875,-250.29519500732422,145.08849334716797,-137.99541931152345,1.688702826247052e+18,5.002051839192709,-0.10651132712761557,0.0986918537722279,-0.5843058129151663,0.7927880585193634,0.2300583260754744,1.2580907543500264,0.06497929959247507,1.6887028262384026e+18,4.993402547200521,-1.7116658041874568,-18.087446212768555,6.625825484593709
51,5.1000000000000005,1.6887028263422095e+18,5.097209554036458,7.798857688903809,-10.223872820536295,-2.437631497780482,1.6887028263422095e+18,5.097209554036458,6.558229128519694,-19.832811037699383,-1.5297115345795953,1.6887028263422095e+18,5.097209554036458,-1.2464738960067432,-9.591434160868326,0.8452324767907461,1.6887028263422095e+18,5.097209554036458,-3.6211074590682983,-1.3989322384198506,-3.4658966859181723,1.6887028263422095e+18,5.097209554036458,-3.622023661931356,-1.3945290446281433,-3.463555077711741,,,,,,,,,,,,1.6887028263417766e+18,5.09677666015625,25.81153984069824,42.90129928588867,-13.357779788970948,1.6887028263417766e+18,5.09677666015625,-231.60845336914062,137.52449951171874,-146.24017791748048,1.6887028263508582e+18,5.105858235677084,-0.19623007873694098,0.1434589810669422,-0.7454217871030172,0.6144622266292572,-1.6907074848810832,1.3631830016771953,1.1323043704032898,1.6887028263422095e+18,5.097209554036458,6.552246650060018,-19.815462748209637,-1.5925231873989105
52,5.2,1.68870282644601e+18,5.201009969075521,-1.2562301953633628,4.020409901936849,-6.710455338160197,1.68870282644601e+18,5.201009969075521,-1.748256007830302,-5.488536983107527,-4.582255323727925,1.68870282644601e+18,5.201009969075521,-0.49787194980308414,-9.491442362467447,2.065512398878733,1.68870282644601e+18,5.201009969075521,0.7359144588311514,0.5086471537748973,4.364377697308858,1.68870282644601e+18,5.201009969075521,0.7350490490595499,0.5130249361197153,4.366744836171468,,,,,,,,,,,,1.6887028264417787e+18,5.196778759765626,28.136859512329103,40.163618850708005,-18.347579383850096,1.6887028264417787e+18,5.196778759765626,-229.28313598632812,134.78681335449218,-151.2299789428711,1.6887028264460096e+18,5.201009423828125,-0.22634663879871364,0.08847969323396679,-0.7187185168266297,0.6487545013427735,-1.726256537437439,1.3308358669281006,2.178869104385376,1.68870282644601e+18,5.201009969075521,-1.7542380491892497,-5.4711889661848545,-4.645066857337952
53,5.300000000000001,1.688702826549816e+18,5.304815836588541,1.4708091020584109,-4.058524449666341,-6.69498070081075,1.688702826549816e+18,5.304815836588541,4.02592408657074,-13.3641141106685,-4.944568554560344,1.688702826549816e+18,5.304815836588541,2.549268921216329,-9.288085142771402,1.6877246797084808,1.688702826549816e+18,5.304815836588541,1.2076297054688137,-0.5256494681040446,2.4860433464248977,1.688702826549816e+18,5.304815836588541,1.2067387948433559,-0.5212462743123373,2.4883850167195,,,,,,,,,,,,1.688702826541777e+18,5.296776782226562,12.42569990158081,48.31809921264649,-12.952739810943603,1.688702826541777e+18,5.296776782226562,-244.99429473876953,142.94129791259766,-145.83513946533202,1.6887028265411638e+18,5.296163696289063,-0.1315921358764171,-0.009915692266076801,-0.6164494156837463,0.7740850647290548,-0.6768304407596588,1.2645884553591409,0.8510547578334808,1.688702826549816e+18,5.304815836588541,4.019942224025726,-13.346765597661337,-5.007380088170369
54,5.4,1.688702826644969e+18,5.399968994140624,1.397422432899475,-15.76168441772461,4.264311075210571,1.688702826644969e+18,5.399968994140624,1.26759774684906,-24.946013832092287,1.5393028736114502,1.688702826644969e+18,5.399968994140624,-0.13567076921463023,-9.166824340820312,-2.787695622444153,1.688702826644969e+18,5.399968994140624,2.3934922248125075,12.50642762184143,-3.8972897052764894,1.688702826644969e+18,5.399968994140624,2.3925759360194205,12.510856103897094,-3.8949073195457458,1.6887028266212567e+18,5.376256591796875,180.0,0.4745230674743652,4.110733985900879,12.574999809265137,3.5665714740753174,20.46217536926269,43.400001525878906,-122.7523782,49.1881428,1.6887028266417743e+18,5.396774462890624,12.899059629440307,49.52223854064941,-3.451379930973053,1.6887028266417743e+18,5.396774462890624,-244.52093505859375,144.14543762207032,-136.33377838134766,1.6887028266449708e+18,5.399970743815104,-0.2177777414520581,0.4035687781870365,-0.5583204825719198,0.6612462103366852,1.4578237247963746,1.209112862745921,-0.515839196741581,1.688702826644969e+18,5.399968994140624,1.2616157531738281,-24.928665351867675,1.4764912247657775
55,5.5,1.6887028267401234e+18,5.495123250325521,1.162901148200035,8.464214563369751,4.889947772026062,1.6887028267401234e+18,5.495123250325521,1.0586246053377788,-1.0085747726261616,2.706980268160502,1.6887028267401234e+18,5.495123250325521,-0.11012256642182665,-9.455284913380941,-2.2456548313299813,1.6887028267401234e+18,5.495123250325521,-2.70946737130483,-7.404526869455974,1.4206944008668263,1.6887028267401234e+18,5.495123250325521,-2.710383653640747,-7.4001742998758955,1.4230869611104329,,,,,,,,,,,,1.6887028267417764e+18,5.496776293945312,18.196299743652343,48.542578887939456,-2.9072599172592164,1.6887028267417764e+18,5.496776293945312,-239.22369384765625,143.1657745361328,-135.78965759277344,1.688702826748771e+18,5.503770874023438,-0.17983061075210569,0.3171150336662928,-0.6188762088616689,0.6855423152446747,1.3272499789794285,1.3373263478279114,-0.5981027316302061,1.6887028267401234e+18,5.495123250325521,1.052642561495304,-0.9912267252802849,2.6441686550776162
56,5.6000000000000005,1.6887028268439288e+18,5.5989289957682296,-2.445306042830149,8.883066256841024,-0.21356826027234396,1.6887028268439288e+18,5.5989289957682296,-0.978165956834952,-0.7368896752595901,0.9956136122345924,1.6887028268439288e+18,5.5989289957682296,1.4612940748532612,-9.60245148340861,1.1464944730202358,1.6887028268439288e+18,5.5989289957682296,-2.278680066267649,-1.8793524292608101,0.6476698815822601,1.6887028268439288e+18,5.5989289957682296,-2.2795200242350497,-1.874923610438903,0.6500624269247055,,,,,,,,,,,,1.6887028268417787e+18,5.59677880859375,15.458619689941406,48.120458984375,-11.735179901123047,1.6887028268417787e+18,5.59677880859375,-241.96137542724608,142.74365692138673,-144.6175765991211,1.6887028268439273e+18,5.598927294921875,-0.17320258617401119,0.07016062326729294,-0.6496313333511352,0.7359679222106934,-0.641955417394638,1.3750544548034669,0.9896018266677856,1.6887028268439288e+18,5.5989289957682296,-0.9841479832927386,-0.7195416738589605,0.9328020215034485
57,5.7,1.6887028269477343e+18,5.702734212239584,-10.024690508842468,-8.559773445129395,4.083325246969859,1.6887028269477343e+18,5.702734212239584,-8.286544263362885,-18.176379362742107,4.688237428665161,1.6887028269477343e+18,5.702734212239584,1.732300062974294,-9.599101066589355,0.5422248045603434,1.6887028269477343e+18,5.702734212239584,2.182825187842051,2.2174663146336875,-0.5933283194899559,1.6887028269477343e+18,5.702734212239584,2.1819342970848083,2.221869627634684,-0.5909612067043781,,,,,,,,,,,,1.688702826941775e+18,5.696775073242188,12.8319598197937,48.812199401855466,-11.88767991065979,1.688702826941775e+18,5.696775073242188,-244.5880340576172,143.43539733886718,-144.77007598876952,1.6887028269390797e+18,5.694079630533854,-0.17694750924905137,0.09993049005667365,-0.631952295700709,0.7459432780742645,-0.31868110597133636,1.3625478943188984,0.715151189515988,1.6887028269477343e+18,5.702734212239584,-8.292526125907898,-18.1590309937795,4.625425934791565
58,5.800000000000001,1.6887028270515354e+18,5.806535400390625,10.302740255991617,-8.88902505238851,-1.5026944776376088,1.6887028270515354e+18,5.806535400390625,9.144869565963745,-18.488642692565918,-1.0013963182767232,1.6887028270515354e+18,5.806535400390625,-1.1637164403994877,-9.58211342493693,0.4386107673247655,1.6887028270515354e+18,5.806535400390625,-2.4816400607426963,-3.440011312564214,-4.541019558906555,1.6887028270515354e+18,5.806535400390625,-2.4825563629468284,-3.435607964793841,-4.538652300834656,,,,,,,,,,,,1.6887028270417764e+18,5.796776391601563,21.770899486541747,45.47305908203125,-10.670119905471802,1.6887028270417764e+18,5.796776391601563,-235.6490936279297,140.09625701904298,-143.55251770019532,1.6887028270428815e+18,5.79788155110677,-0.17606154829263684,0.16460443908969558,-0.7142341732978821,0.6510286629199982,-1.5448906819025676,1.4225555658340454,-0.0608893558382988,1.6887028270515354e+18,5.806535400390625,9.138887643814087,-18.47129487991333,-1.0642078518867493
