seconds_elapsed_rounded,accelerometer_time,accelerometer_seconds_elapsed,accelerometer_z,accelerometer_y,accelerometer_x,accelerometeruncalibrated_time,accelerometeruncalibrated_seconds_elapsed,accelerometeruncalibrated_z,accelerometeruncalibrated_y,accelerometeruncalibrated_x,gravity_time,gravity_seconds_elapsed,gravity_z,gravity_y,gravity_x,gyroscope_time,gyroscope_seconds_elapsed,gyroscope_z,gyroscope_y,gyroscope_x,gyroscopeuncalibrated_time,gyroscopeuncalibrated_seconds_elapsed,gyroscopeuncalibrated_z,gyroscopeuncalibrated_y,gyroscopeuncalibrated_x,location_time,location_seconds_elapsed,location_bearingAccuracy,location_speedAccuracy,location_verticalAccuracy,location_horizontalAccuracy,location_speed,location_bearing,location_altitude,location_longitude,location_latitude,magnetometer_time,magnetometer_seconds_elapsed,magnetometer_z,magnetometer_y,magnetometer_x,magnetometeruncalibrated_time,magnetometeruncalibrated_seconds_elapsed,magnetometeruncalibrated_z,magnetometeruncalibrated_y,magnetometeruncalibrated_x,orientation_time,orientation_seconds_elapsed,orientation_qz,orientation_qy,orientation_qx,orientation_qw,orientation_roll,orientation_pitch,orientation_yaw
0.0,1.6887029562449444e+18,134.9999442138672,0.782429575920105,2.346043348312378,2.5083649158477783,1.6887029562449446e+18,134.99994458007814,-1.5339988072713215,-7.955935955047607,6.193223277727763,1.6887029562449444e+18,134.9999442138672,-2.175813674926758,-9.064334392547607,3.0547726154327393,1.6887029562449446e+18,134.99994458007814,1.2550735473632812,3.4479270776112876,0.0359901388486226,1.6887029562449446e+18,134.99994458007814,1.254157265027364,3.45230499903361,0.0384336064259211,,,,,,,,,,,,1.6887029562467855e+18,135.001785546875,3.3696399450302126,41.48000030517578,-30.64151954650879,1.6887029562467855e+18,135.001785546875,-254.05035705566405,136.1031951904297,-163.52391662597657,1.6887029562449444e+18,134.9999442138672,-0.5583370327949524,0.5581770539283752,-0.5461640954017639,0.2793975323438644,-2.206965208053589,1.1912525296211245,-2.2080297470092773
0.05,1.6887029562881969e+18,135.04319710286458,-5.473547299702962,-24.81794770558675,19.515003840128585,1.6887029562968425e+18,135.0518426920573,-7.41555658976237,-34.78984705607096,23.073191324869793,1.6887029562881969e+18,135.04319710286458,-1.9767688512802128,-9.052498499552408,3.213545640309652,1.6887029562968425e+18,135.0518426920573,-0.8317439258098601,2.074600120385488,-1.6355408032735188,1.6887029562968425e+18,135.0518426920573,-0.8326602280139923,2.0790289541085563,-1.633148233095805,,,,,,,,,,,,1.6887029562967808e+18,135.05178081054686,-0.1024799823760986,42.43159942626953,-30.02907943725586,1.6887029562967808e+18,135.05178081054686,-257.52247314453126,137.05479736328124,-162.911474609375,1.6887029562881969e+18,135.04319710286458,-0.5887435873349508,0.5957495967547098,-0.4962176581223805,0.227320725719134,-2.1443282763163247,1.187993407249451,-2.093891223271688
0.1,1.6887029563400896e+18,135.0950896809896,0.3984075387318928,-5.09136962890625,4.345241943995157,1.6887029563487447e+18,135.10374471028646,-2.030310034751892,-10.021340688069662,5.967101653416951,1.6887029563400896e+18,135.0950896809896,-2.984912713368734,-8.52881940205892,3.7922736008962,1.6887029563487447e+18,135.10374471028646,-1.934762954711914,-3.0152817567189536,-2.0499110221862793,1.6887029563487447e+18,135.10374471028646,-1.9356792370478313,-3.010903835296631,-2.047467629114786,,,,,,,,,,,,1.688702956346781e+18,135.10178076171874,5.299679970741272,39.91107864379883,-32.76919937133789,1.688702956346781e+18,135.10178076171874,-252.1203186035156,134.53427734375,-165.65159606933594,1.6887029563400896e+18,135.0950896809896,-0.5589072505633036,0.6048927704493204,-0.5352211793263754,0.1856895486513773,-2.2539029916127524,1.0665475527445476,-1.997072696685791
0.15,1.6887029563920023e+18,135.1470021158854,0.201841115951538,1.4123371442159016,-1.5191671053568525,1.68870295640065e+18,135.15564998372395,-4.7818567752838135,-8.87338399887085,4.751746932665507,1.6887029563920023e+18,135.1470021158854,-4.737100919087728,-7.5860616366068525,3.959970474243164,1.68870295640065e+18,135.15564998372395,-3.1478904088338218,-8.230085690816244,-3.836742877960205,1.68870295640065e+18,135.15564998372395,-3.1487557888031006,-8.225656827290853,-3.8343501885732016,1.6887029563833492e+18,135.13834936523438,0.0,0.0,3.1460649967193604,7.258999824523926,2.651108503341675,45.176544189453125,43.60227534795864,-122.7524173,49.1877007,1.688702956396778e+18,135.15177812500002,16.862839698791504,34.52111968994141,-35.61423873901367,1.688702956396778e+18,135.15177812500002,-240.55715637207032,129.14431610107422,-168.49663391113282,1.6887029563920023e+18,135.1470021158854,-0.4744217495123545,0.5797290007273356,-0.6352643569310507,0.1806424508492151,-2.4548585414886475,0.8975451588630676,-2.0050055980682373
0.2,1.688702956443902e+18,135.19890177408854,44.78003247578939,-8.326802889506022,11.655611197153728,1.6887029564525517e+18,135.2075516764323,53.6580499013265,-13.130215485890709,10.923833534121512,1.688702956443902e+18,135.19890177408854,-7.286559581756592,-6.358790238698323,1.5323559443155923,1.6887029564525517e+18,135.2075516764323,-1.8874717553456624,-4.306549072265625,1.8345301747322085,1.6887029564525517e+18,135.2075516764323,-1.8883881171544392,-4.302171150843303,1.836871822675069,,,,,,,,,,,,1.6887029564467817e+18,135.20178154296875,39.54995956420898,26.308079147338866,-26.347119140625,1.6887029564467817e+18,135.20178154296875,-217.87003479003903,120.93127746582032,-159.2295166015625,1.688702956443902e+18,135.19890177408854,-0.2585775603850682,0.5120230515797933,-0.7782539327939352,0.2511831770340602,-2.9469504356384277,0.7177358071009318,-2.050366163253784
0.25,1.6887029564958062e+18,135.2508060709635,3.223436037699382,-0.6672679583231608,-0.7461124261220297,1.6887029564958031e+18,135.25080322265626,-3.987938165664673,-7.898109436035156,2.4290140867233276,1.6887029564958062e+18,135.2508060709635,-6.090100924173991,-7.127793471018474,2.771960417429606,1.6887029564958031e+18,135.25080322265626,-1.2782354950904846,5.930737733840942,2.276236593723297,1.6887029564958031e+18,135.25080322265626,-1.279151827096939,5.935166597366333,2.278527319431305,,,,,,,,,,,,1.6887029564967816e+18,135.25178149414063,34.93591804504395,28.08683967590332,-29.070158767700196,1.6887029564967816e+18,135.25178149414063,-222.4840759277344,122.71003723144533,-161.95255432128906,1.6887029564958062e+18,135.2508060709635,-0.346376766761144,0.4766351878643036,-0.7616292436917623,0.2659465968608856,-2.720707416534424,0.8264705340067545,-2.212212006251017
0.3,1.688702956547704e+18,135.3027039388021,-3.082115093866984,1.9471851984659831,-4.082696596781413,1.6887029565390548e+18,135.2940548502604,-6.089733600616455,-5.392824172973633,0.5792624851067861,1.688702956547704e+18,135.3027039388021,-3.892826954523722,-7.961986382802327,4.14284086227417,1.6887029565390548e+18,135.2940548502604,0.2345213592052459,4.306040128072103,3.788891633351644,1.6887029565390548e+18,135.2940548502604,0.2336050570011139,4.310468832651774,3.791182359059652,,,,,,,,,,,,1.6887029565467776e+18,135.30177768554688,20.230039215087892,31.629719543457032,-36.2803596496582,1.6887029565467776e+18,135.30177768554688,-237.18995666503903,126.25291748046877,-169.16275939941406,1.688702956547704e+18,135.3027039388021,-0.4792322019735972,0.4642132421334584,-0.6929331223169962,0.2706568439801534,-2.3250765800476074,0.9616404175758362,-2.4086849689483643
0.35,1.688702956599608e+18,135.35460782877604,-4.459754387537639,-5.409754753112793,-3.9367380142211914,1.6887029565909524e+18,135.34595222981773,-7.589834213256836,-12.906885464986166,-0.613559623559316,1.688702956599608e+18,135.35460782877604,-1.4677297075589495,-8.896775245666504,3.8014683723449703,1.6887029565909524e+18,135.34595222981773,1.4594079852104187,-0.2735149065653483,5.468720118204753,1.6887029565909524e+18,135.34595222981773,1.4585425853729248,-0.2691370646158855,5.471061865488688,,,,,,,,,,,,1.6887029565967818e+18,135.35178198242187,8.154479789733887,35.833838653564456,-36.07783889770508,1.6887029565967818e+18,135.35178198242187,-249.26551208496093,130.45704040527343,-168.96023864746093,1.688702956599608e+18,135.35460782877604,-0.5431899428367615,0.4208665291468302,-0.6279294490814209,0.3630924721558888,-1.920685052871704,1.1511783202489216,-2.8191166718800864
0.4,1.6887029566515016e+18,135.40650162760417,10.843099435170492,-23.95243962605794,12.087739626566568,1.688702956642859e+18,135.3978591308594,9.19282595316569,-30.48575782775879,12.834900935490928,1.6887029566515016e+18,135.40650162760417,-0.6634974131981531,-9.27533531188965,3.0725117524464927,1.688702956642859e+18,135.3978591308594,1.505070169766744,7.243436495463054,-2.6611833572387695,1.688702956642859e+18,135.3978591308594,1.504153847694397,7.247865319252014,-2.658739964167277,,,,,,,,,,,,1.688702956646779e+18,135.40177880859375,-1.3541999369859696,39.53287963867187,-32.85703964233399,1.688702956646779e+18,135.40177880859375,-258.77419128417966,134.15607604980468,-165.73943176269532,1.6887029566515016e+18,135.40650162760417,-0.584987223148346,0.4834727942943573,-0.5414746205012003,0.349564125140508,-1.7764999071757,1.2508927583694458,-2.7552605470021567
0.45,1.68870295669476e+18,135.4497600097656,19.20437526702881,-12.611983299255373,7.445557594299316,1.6887029566947615e+18,135.44976171875,9.34377294778824,-21.847866376241047,10.338987827301024,1.68870295669476e+18,135.4497600097656,-3.540523052215576,-8.594550132751465,3.0802935361862183,1.6887029566947615e+18,135.44976171875,2.546951731046041,8.512967268625895,-10.582833290100098,1.6887029566947615e+18,135.44976171875,2.54613729317983,8.517395814259848,-10.580440680185951,,,,,,,,,,,,1.6887029566967803e+18,135.45178041992187,6.1805198192596436,43.141639709472656,-27.53539924621582,1.6887029566967803e+18,135.45178041992187,-251.23947448730468,137.76483459472655,-160.4177978515625,1.68870295669476e+18,135.4497600097656,-0.5433733463287354,0.6882272958755493,-0.4541899561882018,0.1423729583621025,-2.444312572479248,1.0766666531562803,-1.5986019372940063
0.5,1.688702956738012e+18,135.4930118815104,-1.0500388145446775,2.7467265129089355,0.3952195644378662,1.6887029567466586e+18,135.501658203125,-5.61396066347758,-3.331806192795435,2.941975474357605,1.688702956738012e+18,135.4930118815104,-4.6493293444315595,-8.212773640950521,2.633420467376709,1.6887029567466586e+18,135.501658203125,1.670920083920161,-3.7197620843847594,1.1378892262776692,1.6887029567466586e+18,135.501658203125,1.6700038214524586,-3.7153334096074104,1.1402817567189534,,,,,,,,,,,,1.6887029567467812e+18,135.5017810058594,11.297199630737303,45.77439804077149,-22.079559326171875,1.6887029567467812e+18,135.5017810058594,-246.12279663085937,140.39759826660156,-154.96195373535156,1.688702956738012e+18,135.4930118815104,-0.5024999380111694,0.7702846527099609,-0.3824885686238606,0.0830398040513197,-2.653134346008301,0.9937341809272766,-1.1895664135615032
0.55,1.6887029567899123e+18,135.54491235351563,2.5756885210673013,10.411478678385416,1.751696785291036,1.6887029567985636e+18,135.5535636393229,-0.9794620672861736,1.989033818244934,2.819542725880941,1.6887029567899123e+18,135.54491235351563,-3.80067769686381,-8.936147054036459,1.3024667898813884,1.6887029567985636e+18,135.5535636393229,-1.0250319043795268,-6.054794470469157,4.113210042317708,1.6887029567985636e+18,135.5535636393229,-1.0258972644805908,-6.050416628519694,4.115602811177571,,,,,,,,,,,,1.6887029567967816e+18,135.55178154296874,8.876719760894776,47.03587875366211,-19.737159729003903,1.6887029567967816e+18,135.55178154296874,-248.54327697753905,141.6590789794922,-152.61955871582032,1.6887029567899123e+18,135.54491235351563,-0.5023240347703298,0.7089635332425436,-0.4368126193682353,0.2268972545862198,-2.845543066660563,1.1508009831110635,-1.298061966896057
0.6,1.68870295684181e+18,135.59680989583333,1.4310388366381328,11.684552192687988,1.704747478167216,1.6887029568504558e+18,135.6054560546875,-0.3471586803595225,1.9605193932851157,3.22412904103597,1.68870295684181e+18,135.59680989583333,-2.144362727801005,-9.483397801717125,1.1861058076222737,1.6887029568504558e+18,135.6054560546875,-1.2231049338976543,-3.5394041538238525,4.582609335581462,1.6887029568504558e+18,135.6054560546875,-1.2240212361017864,-3.5350263118743896,4.584950923919678,,,,,,,,,,,,1.6887029568467758e+18,135.6017759277344,4.323679876327515,46.74063873291016,-21.56471977233887,1.6887029568467758e+18,135.6017759277344,-253.0963134765625,141.36383666992188,-154.44711608886718,1.68870295684181e+18,135.59680989583333,-0.5198846459388733,0.597957452138265,-0.4997502565383911,0.3471731841564178,-2.660295009613037,1.3244186242421467,-1.7778663237889607
0.65,1.6887029568937103e+18,135.64871036783856,-0.5053079922993978,10.535250027974447,0.7450000246365865,1.6887029569023578e+18,135.65735782877604,-2.3898316621780396,0.3064807001501322,1.4755740066369374,1.6887029568937103e+18,135.64871036783856,0.0432304143905639,-9.706578890482584,1.311954657236735,1.6887029569023578e+18,135.65735782877604,0.8419759273529053,1.9497291147708893,3.1228957970937095,1.6887029569023578e+18,135.65735782877604,0.8410596077640852,1.9541579484939575,3.125288486480713,1.688702956902357e+18,135.65735693359375,0.0,0.0,3.1460649967193604,7.28000020980835,2.647251605987549,44.0335578918457,43.60227534795864,-122.7524111,49.1877103,1.6887029568967736e+18,135.651773828125,-5.531479835510254,46.00619964599609,-21.706239700317383,1.6887029568967736e+18,135.651773828125,-262.95147705078125,140.6293975830078,-154.58863525390626,1.6887029568937103e+18,135.64871036783856,-0.5743485887845358,0.5174422065416971,-0.4777053197224934,0.41628764073054,-1.488622744878133,1.4408310254414876,-0.9308164914449056
0.7,1.6887029569456172e+18,135.7006171875,-1.620297412077586,9.15802001953125,1.2470310131708782,1.68870295694562e+18,135.7006201171875,0.0580259561538696,-0.5458626449108124,1.8005990982055664,1.6887029569456172e+18,135.7006171875,0.5799545447031657,-9.773416837056478,0.5359454154968262,1.68870295694562e+18,135.7006201171875,1.9963839650154112,2.1860576272010803,-0.934089332818985,1.68870295694562e+18,135.7006201171875,1.9954676628112793,2.190486431121826,-0.9317986071109772,,,,,,,,,,,,1.6887029569467827e+18,135.7017825683594,-10.958039665222168,46.93827896118164,-17.438679504394536,1.6887029569467827e+18,135.7017825683594,-268.37803344726564,141.5614776611328,-150.32107543945312,1.6887029569456172e+18,135.7006171875,-0.5969013969103495,0.5472132563591003,-0.412637452284495,0.4165311654408772,-0.4523536960283915,1.4984885454177856,2.339676777521769
0.75,1.6887029569975206e+18,135.75252075195314,-0.855886697769165,4.163819948832194,8.257263660430908,1.6887029569888666e+18,135.74386653645834,-0.4448656539122262,-2.46121746301651,6.440680821736653,1.6887029569975206e+18,135.75252075195314,-0.7782751694321632,-9.731961250305176,0.5283079867561659,1.6887029569888666e+18,135.74386653645834,-0.8364781786998113,3.7295360565185542,-3.5956037839253745,1.6887029569888666e+18,135.74386653645834,-0.8373435338338217,3.733964681625366,-3.593160311381022,,,,,,,,,,,,1.6887029569967823e+18,135.75178227539064,-6.831999921798706,49.04155960083008,-14.286199569702148,1.6887029569967823e+18,135.75178227539064,-264.2519958496094,143.66475524902344,-147.1686004638672,1.6887029569975206e+18,135.75252075195314,-0.5850822726885477,0.6241898934046427,-0.3889249861240387,0.3381393452485402,-1.149649937947591,1.4739341338475545,-0.9801015655199686
0.8,1.6887029570494226e+18,135.80442268880208,-3.1322388648986816,-29.194310506184895,24.60688591003418,1.6887029570407662e+18,135.79576635742183,-6.524230321248372,-36.64627901713053,28.457241694132488,1.6887029570494226e+18,135.80442268880208,-3.495943228403727,-8.470156987508139,3.34818696975708,1.6887029570407662e+18,135.79576635742183,-6.378400246302287,-1.278744538625081,-5.790798981984456,1.6887029570407662e+18,135.79576635742183,-6.379214763641357,-1.2743158340454104,-5.7884063720703125,,,,,,,,,,,,1.6887029570467804e+18,135.80178037109377,5.202079916000367,43.68819961547852,-26.664319610595705,1.6887029570467804e+18,135.80178037109377,-252.2179168701172,138.31139526367187,-159.54671325683594,1.6887029570494226e+18,135.80442268880208,-0.5369613866011301,0.6481497685114542,-0.5091526607672373,0.1715840150912602,-2.4027161598205566,1.0615032116572063,-1.7820626497268677
0.85,1.6887029571013217e+18,135.85632145182294,1.361063559850057,-5.847117265065511,0.917266845703125,1.6887029570926738e+18,135.8476739908854,-4.176073710123698,-14.33879025777181,6.436094760894775,1.6887029571013217e+18,135.85632145182294,-5.456243515014648,-7.090718110402425,3.9845546086629233,1.6887029570926738e+18,135.8476739908854,-3.826409022013346,-3.2169182300567627,-2.133192320664724,1.6887029570926738e+18,135.8476739908854,-3.8273252646128335,-3.212489446004232,-2.1308506528536477,,,,,,,,,,,,1.688702957096782e+18,135.85178208007812,18.665999794006343,36.831800079345705,-32.38367958068848,1.688702957096782e+18,135.85178208007812,-238.7539978027344,131.4549987792969,-165.26607666015624,1.6887029571013217e+18,135.85632145182294,-0.4504880905151367,0.6308988134066263,-0.616373598575592,0.1318796873092651,-2.5359917481740317,0.8211649060249329,-1.8167977333068848
0.9,1.688702957144577e+18,135.89957690429685,39.941951751708984,-18.52131938934326,-2.407469391822815,1.6887029571445755e+18,135.89957560221353,44.92983150482177,-24.621148427327473,1.9996020793914795,1.688702957144577e+18,135.89957690429685,-6.874502897262573,-5.265275955200195,4.573995351791382,1.6887029571445755e+18,135.89957560221353,-5.696776469548543,-0.8428413073221842,-2.137366602818171,1.6887029571445755e+18,135.89957560221353,-5.697642008463542,-0.8384124437967936,-2.134974092245102,,,,,,,,,,,,1.6887029571467784e+18,135.90177836914063,28.923759078979497,24.21211967468262,-37.693119049072266,1.6887029571467784e+18,135.90177836914063,-228.49623413085936,118.83531951904295,-170.5755126953125,1.688702957144577e+18,135.89957690429685,-0.374537855386734,0.5504359602928162,-0.7396948933601379,0.0929546318948268,-2.5703312158584595,0.582689106464386,-2.037334680557251
0.95,1.688702957187827e+18,135.9428271484375,0.7336279551188151,-10.990073998769123,-6.899951140085856,1.688702957196474e+18,135.9514739583333,-7.9142608642578125,-13.130415280659994,-1.2143574903408687,1.688702957187827e+18,135.9428271484375,-5.7430656750996905,-4.817354043324788,6.3012715975443525,1.688702957196474e+18,135.9514739583333,-0.2154827217260996,3.317049185434977,2.283872425556183,1.688702957196474e+18,135.9514739583333,-0.216348111629486,3.32142702738444,2.2861631512641907,,,,,,,,,,,,1.6887029571967813e+18,135.95178134765624,22.345519256591796,17.846158981323242,-44.5641586303711,1.6887029571967813e+18,135.95178134765624,-235.07447204589843,112.46935729980468,-177.4465545654297,1.688702957187827e+18,135.9428271484375,-0.4524010022481282,0.5183116992314657,-0.7246750990549723,0.0248221140354871,-2.321558872858683,0.5290826559066772,-2.135212500890096
1.0,1.688702957239728e+18,135.9947283528646,-0.0420408248901367,1.98934809366862,-9.35047213236491,1.6887029572483791e+18,136.00337931315104,-3.8059837023417153,-2.773281455039978,-3.133002440134684,1.688702957239728e+18,135.9947283528646,-4.580557187398274,-5.769651889801025,6.467843214670817,1.6887029572483791e+18,136.00337931315104,0.6493497490882874,-1.1891001065572102,3.2955161730448403,1.6887029572483791e+18,136.00337931315104,0.6484843691190084,-1.184671312570572,3.297857920328776,,,,,,,,,,,,1.6887029572467827e+18,136.00178256835937,16.443159675598146,20.93275909423828,-45.19855880737305,1.6887029572467827e+18,136.00178256835937,-240.97684020996093,115.5559585571289,-178.08095703125,1.688702957239728e+18,135.9947283528646,-0.5102373758951823,0.4843194286028544,-0.7062375744183859,0.075180735439062,-2.1946772734324136,0.6444093386332194,-2.278531630833944
1.05,1.6887029572916278e+18,136.04662776692706,4.198421637217204,2.6635332107543945,-13.259739557902018,1.6887029573002854e+18,136.05528523763022,0.0191425681114196,-4.599005063374837,-7.793821970621745,1.6887029572916278e+18,136.04662776692706,-4.294995466868083,-6.71402645111084,5.707716147104899,1.6887029573002854e+18,136.05528523763022,2.3732623855272927,-0.0508545339107514,0.956564038991928,1.6887029573002854e+18,136.05528523763022,2.372346123059591,-0.0464257399241128,0.9589566588401794,,,,,,,,,,,,1.6887029572967826e+18,136.05178261718748,16.257719612121583,25.32231903076172,-42.36083831787109,1.6887029572967826e+18,136.05178261718748,-241.1622772216797,119.94551696777344,-175.24323425292968,1.6887029572916278e+18,136.04662776692706,-0.5086588859558105,0.4687211513519287,-0.7052768071492513,0.1542244950930276,-2.220226208368937,0.7678713997205099,-2.3639482657114663
1.1,1.6887029573435323e+18,136.0985322265625,0.8411965370178223,2.7830961545308432,-8.068689028422037,1.688702957352183e+18,136.10718302408853,-2.824727217356364,-6.700501759847005,-2.0695922523736954,1.6887029573435323e+18,136.0985322265625,-3.768280267715454,-7.7137495676676435,4.727834860483806,1.688702957352183e+18,136.10718302408853,3.3639840284983316,2.393268267313639,0.7810421039660772,1.688702957352183e+18,136.10718302408853,3.363067706425985,2.397646109263102,0.7833837593595186,,,,,,,,,,,,1.688702957346785e+18,136.1017849609375,12.358600044250489,32.83751907348633,-38.21283950805664,1.688702957346785e+18,136.1017849609375,-245.06139526367187,127.4607177734375,-171.0952392578125,1.6887029573435323e+18,136.0985322265625,-0.5240476727485657,0.5277037223180135,-0.6410646637280782,0.1872505446275074,-2.2472193241119385,0.917158623536428,-2.2288902600606284
1.15,1.6887029573954386e+18,136.1504384765625,10.941728591918944,-30.118647893269856,11.34400955835978,1.6887029573954345e+18,136.15043432617188,13.04507064819336,-40.2541561126709,17.177475929260254,1.6887029573954386e+18,136.1504384765625,-2.783662637074789,-8.58410612742106,3.834984620412191,1.6887029573954345e+18,136.15043432617188,6.065128326416016,13.346030712127686,-3.903047204017639,1.6887029573954345e+18,136.15043432617188,6.064211845397949,13.350459575653076,-3.9006035327911377,,,,,,,,,,,,1.6887029573967836e+18,136.15178349609374,2.3472800493240356,40.4747200012207,-31.451599502563475,1.6887029573967836e+18,136.15178349609374,-255.07272033691407,135.09791870117186,-164.33399963378906,1.6887029573954386e+18,136.1504384765625,-0.5787948568662008,0.633476177851359,-0.4804110030333201,0.1400515809655189,-2.209007978439331,1.075486421585083,-1.8794240951538088
1.2,1.6887029574473318e+18,136.20233170572916,12.137280782063804,-19.48546028137207,11.508580843607584,1.6887029574386803e+18,136.19368025716145,3.245664914449056,-36.3294293085734,16.40020688374837,1.6887029574473318e+18,136.20233170572916,-4.623482306798299,-7.789370536804199,3.596434990564982,1.6887029574386803e+18,136.19368025716145,1.4620041648546855,3.283502618471781,-8.808625857035318,1.6887029574386803e+18,136.19368025716145,1.4611387252807615,3.2879314025243125,-8.806284268697103,1.688702957421379e+18,136.17637915039063,0.0,0.0,3.026803731918335,7.27899980545044,2.6561994552612305,41.85975646972656,43.56521396222006,-122.7524029,49.1877282,1.6887029574467804e+18,136.20178041992187,8.08615996837616,44.803279113769534,-24.887999725341796,1.6887029574467804e+18,136.20178041992187,-249.3338348388672,139.42648010253907,-157.77039184570313,1.6887029574473318e+18,136.20233170572916,0.5089620252450308,-0.7938083012898763,0.3268682161966959,0.0143438831825429,-2.484391212463379,0.9254684249560038,-1.127772867679596
1.25,1.688702957499232e+18,136.25423201497395,2.3007160822550454,6.214449564615886,0.154135783513387,1.6887029574905812e+18,136.2455812988281,-0.2209372520446777,-1.7194424867630005,5.2007999420166025,1.688702957499232e+18,136.25423201497395,-5.562795003255208,-7.388371308644612,3.2328294118245444,1.6887029574905812e+18,136.2455812988281,-0.2724459047118823,-2.596584479014078,1.4493286609649658,1.6887029574905812e+18,136.2455812988281,-0.2733622044324875,-2.592155694961548,1.45172119140625,,,,,,,,,,,,1.6887029574967762e+18,136.25177612304688,16.191839599609374,43.94439926147461,-24.29507942199707,1.6887029574967762e+18,136.25177612304688,-241.22815551757813,138.56759948730468,-157.17747497558594,1.688702957499232e+18,136.25423201497395,0.1472367346286773,-0.2850998838742574,0.0940443078676859,0.035462270801266,-2.6355977853139243,0.8552025357882181,-1.0312860012054443
1.3,1.688702957551136e+18,136.30613614908853,4.244119882583618,10.75612990061442,-0.8061096668243408,1.68870295754249e+18,136.29748974609376,-0.210369000211358,1.7571294109026592,1.8360925912857056,1.688702957551136e+18,136.30613614908853,-4.4744923909505205,-8.398843765258789,2.3370421727498374,1.68870295754249e+18,136.29748974609376,-1.821752866109212,-5.7444748878479,4.987612883249919,1.68870295754249e+18,136.29748974609376,-1.822567343711853,-5.74004602432251,4.9900563557942705,,,,,,,,,,,,1.6887029575467827e+18,136.30178256835936,12.883199882507324,45.108279418945315,-23.150719833374023,1.6887029575467827e+18,136.30178256835936,-244.53679504394532,139.73147583007812,-156.03311767578126,1.688702957551136e+18,136.30613614908853,-0.4982768694559733,0.7309357126553854,-0.4394210676352183,0.1469010040163993,-2.6817774772644043,1.0344876050949097,-1.3493678172429402
1.35,1.688702957594391e+18,136.34939111328123,1.0879948139190674,13.069129467010498,-1.0891921520233154,1.6887029575943872e+18,136.3493868815104,-1.795414646466573,3.7876388231913247,1.3549358050028484,1.688702957594391e+18,136.34939111328123,-3.375397205352783,-8.908751487731934,2.3308922052383423,1.6887029575943872e+18,136.3493868815104,-2.4466680685679116,-5.54507843653361,4.259563446044922,1.6887029575943872e+18,136.3493868815104,-2.447584311167399,-5.54064957300822,4.261955897013347,,,,,,,,,,,,1.6887029575967764e+18,136.3517765136719,9.225639724731446,44.273799133300784,-25.19787940979004,1.6887029575967764e+18,136.3517765136719,-248.1943542480469,138.89700012207032,-158.0802764892578,1.688702957594391e+18,136.34939111328123,-0.5184487998485565,0.6358330249786377,-0.51590296626091,0.2444067969918251,-2.5587828159332275,1.148483693599701,-1.7476220726966858
1.4,1.6887029576376338e+18,136.39263370768228,2.384800593058268,9.146478017171225,-2.4661566019058228,1.6887029576462866e+18,136.40128662109376,0.2209372812261184,-0.7002994020779928,-0.0877368450164794,1.6887029576376338e+18,136.39263370768228,-2.459839105606079,-9.151505788167318,2.5227115154266357,1.6887029576462866e+18,136.40128662109376,-1.2438743313153584,-4.939609050750732,3.176041205724081,1.6887029576462866e+18,136.40128662109376,-1.2447906707723937,-4.935180187225342,3.178484519322714,,,,,,,,,,,,1.6887029576467766e+18,136.4017765625,8.142279815673827,42.577999114990234,-28.181999588012697,1.6887029576467766e+18,136.4017765625,-249.2777130126953,137.20120239257812,-161.06439819335938,1.6887029576376338e+18,136.39263370768228,-0.5145085056622823,0.5315535962581635,-0.5821551481882731,0.334389050801595,-2.3537463347117105,1.215829888979594,-2.226714293162028
1.45,1.6887029576895355e+18,136.4445359700521,3.1145633856455484,8.100781917572021,-1.1495273510615032,1.688702957698192e+18,136.45319181315105,1.261216938495636,-1.6331014235814412,1.607378621896108,1.6887029576895355e+18,136.4445359700521,-1.7768394947052002,-9.390954971313477,2.2016959190368652,1.688702957698192e+18,136.45319181315105,0.7991644740104675,-0.8435031175613403,1.1996375521024067,1.688702957698192e+18,136.45319181315105,0.7982481519381205,-0.8390742937723795,1.2019791801770527,,,,,,,,,,,,1.6887029576967788e+18,136.45177861328125,8.461919975280761,43.02939910888672,-27.884319686889647,1.6887029576967788e+18,136.45177861328125,-248.95807495117188,137.65259704589843,-160.76671752929687,1.6887029576895355e+18,136.4445359700521,-0.4912676711877187,0.4642878373463948,-0.6090874870618185,0.4145716031392415,-2.2507646083831787,1.2920556863149006,-2.530385891596476
1.5,1.688702957741438e+18,136.49643806966145,-2.181314388910929,-11.15010690689087,13.922854582468668,1.6887029577500884e+18,136.50508821614585,-5.264608542124431,-26.81058025360107,20.465612411499023,1.688702957741438e+18,136.49643806966145,-1.4402860005696614,-9.533493677775065,1.8042956193288169,1.6887029577500884e+18,136.50508821614585,1.380809982617696,6.745937665303548,-2.19860577583313,1.6887029577500884e+18,136.50508821614585,1.3799445827802022,6.750315507253011,-2.19621319626458,,,,,,,,,,,,1.688702957746777e+18,136.50177729492185,4.875119924545288,44.739838409423825,-25.89083938598633,1.688702957746777e+18,136.50177729492185,-252.5448760986328,139.3630401611328,-158.7732391357422,1.688702957741438e+18,136.49643806966145,-0.5157475173473358,0.5048372546831766,-0.5601439277331034,0.4036772946516673,-2.2589166164398193,1.3472604354222617,-2.396285613377889
1.55,1.688702957793341e+18,136.5483408203125,-4.688072840372722,-16.670052846272785,15.818190892537435,1.6887029578019914e+18,136.5569913736979,-6.403592348098755,-20.09133529663086,13.659029324849447,1.688702957793341e+18,136.5483408203125,-2.6711164315541587,-9.069981575012209,2.5229188998540244,1.6887029578019914e+18,136.5569913736979,-1.976708968480428,4.920977671941121,-4.805116971333821,1.6887029578019914e+18,136.5569913736979,-1.9776253700256348,4.925355593363444,-4.802724520365397,,,,,,,,,,,,1.6887029577967744e+18,136.55177451171875,3.6868398666381834,44.92771987915039,-26.06407928466797,1.6887029577967744e+18,136.55177451171875,-253.733154296875,139.55091552734376,-158.94647827148438,1.688702957793341e+18,136.5483408203125,-0.5496299862861633,0.6247890790303549,-0.4951914350191752,0.2436570972204208,-2.4155078728993735,1.1968811750411987,-1.8486508925755816
1.6,1.6887029578452406e+18,136.6002403157552,0.2482790946960449,2.131298542022705,-2.024317820866903,1.688702957845246e+18,136.60024584960937,-3.0251259803771973,-5.439184904098511,2.3467608094215393,1.6887029578452406e+18,136.6002403157552,-4.070477803548177,-7.870725790659587,4.158839861551921,1.688702957845246e+18,136.60024584960937,-3.4524576663970947,0.8893434405326843,-3.1984905004501343,1.688702957845246e+18,136.60024584960937,-3.4532976150512695,0.8937721997499466,-3.1961233615875244,,,,,,,,,,,,1.688702957846777e+18,136.60177739257813,8.6839599609375,39.99159927368164,-31.956678771972655,1.688702957846777e+18,136.60177739257813,-248.73603515625,134.61480102539062,-164.83907775878907,1.6887029578452406e+18,136.6002403157552,-0.5284129778544108,0.6622971296310425,-0.5196262796719869,0.1049628779292106,-2.3672678470611572,0.9439828395843506,-1.7404392957687378
1.65,1.6887029578971423e+18,136.652142578125,42.89756520589193,-5.897333145141602,10.650365988413492,1.6887029578884895e+18,136.64348990885418,20.773688634236652,-11.406585454940796,10.285348415374756,1.6887029578971423e+18,136.652142578125,-6.868898709615071,-6.41916561126709,2.448867122332255,1.6887029578884895e+18,136.64348990885418,-4.789234479268392,-14.540374279022217,-1.295594374338786,1.6887029578884895e+18,136.64348990885418,-4.7901506423950195,-14.535996596018473,-1.293201764424642,,,,,,,,,,,,1.6887029578967752e+18,136.65177529296875,28.269838714599608,31.65655937194824,-30.507318878173827,1.6887029578967752e+18,136.65177529296875,-229.15015258789063,126.2797592163086,-163.38971557617188,1.6887029578971423e+18,136.652142578125,-0.3313377201557159,0.6077983776728312,-0.6889782150586446,0.1801839545369148,-2.8137250741322837,0.7251006563504537,-1.8200288613637288
1.7,1.6887029579490458e+18,136.7040456542969,5.18018420537313,-4.101063092549642,-1.92782465616862,1.6887029579403973e+18,136.6953975423177,7.682955026626587,-12.11306635538737,3.0891340225934982,1.6887029579490458e+18,136.7040456542969,-5.91982905069987,-7.164388656616211,3.0623461405436196,1.6887029579403973e+18,136.6953975423177,-3.04602857430776,3.707850257555643,2.4698808987935386,1.6887029579403973e+18,136.6953975423177,-3.0469448963801065,3.712279121081034,2.4722733894983926,1.6887029579403986e+18,136.69539868164065,0.0,0.0,3.026803731918335,7.309000015258789,2.672929048538208,40.74346160888672,43.56521396222006,-122.7524006,49.1877385,1.6887029579467745e+18,136.7017744140625,31.024599456787108,30.81475982666016,-30.42191925048828,1.6887029579467745e+18,136.7017744140625,-226.39539489746093,125.43795928955078,-163.3043182373047,1.6887029579490458e+18,136.7040456542969,-0.3771478533744812,0.5162792205810547,-0.7295288244883219,0.2400167783101399,-2.673377752304077,0.8321181933085123,-2.1207435925801597
1.75,1.6887029580009554e+18,136.75595532226563,-2.623457908630371,-1.8149638175964355,-6.997697512308757,1.6887029579923034e+18,136.74730338541667,-6.529016017913818,-8.04187806447347,-1.9659032225608823,1.6887029580009554e+18,136.75595532226563,-4.672122478485107,-7.509510040283203,4.226733366648356,1.6887029579923034e+18,136.74730338541667,-0.5315036773681641,2.1548271775245667,2.100765585899353,1.6887029579923034e+18,136.74730338541667,-0.5324199547370274,2.159255862236023,2.103056311607361,,,,,,,,,,,,1.6887029579967782e+18,136.75177822265624,22.335759353637695,30.96847915649414,-35.802119445800784,1.6887029579967782e+18,136.75177822265624,-235.08423767089843,125.59167938232422,-168.68451843261718,1.6887029580009554e+18,136.75595532226563,-0.4612390200297038,0.4948270122210185,-0.7004160682360331,0.2267687569061914,-2.410146951675415,0.8852218190828959,-2.2716076374053955
1.8,1.6887029580442068e+18,136.7992069091797,-3.2120394706726074,-11.626612663269045,-10.778034687042236,1.688702958044203e+18,136.79920288085938,-6.6376902262369795,-18.049859046936035,-5.500102281570435,1.6887029580442068e+18,136.7992069091797,-3.5789542198181152,-8.194178581237793,4.020229339599609,1.688702958044203e+18,136.79920288085938,1.7845410108566284,0.2823215474685033,3.2930727005004883,1.688702958044203e+18,136.79920288085938,1.7836756507555644,0.286699429154396,3.295414368311564,,,,,,,,,,,,1.688702958046782e+18,136.8017818359375,16.53343963623047,34.245398712158206,-34.81391906738281,1.688702958046782e+18,136.8017818359375,-240.8865539550781,128.86859741210938,-167.69631652832032,1.6887029580442068e+18,136.7992069091797,-0.4942208677530288,0.4762430787086487,-0.6726285219192505,0.276043027639389,-2.2987070083618164,1.0015707314014437,-2.390979290008545
1.85,1.6887029580874588e+18,136.8424588216146,11.52257219950358,-8.294280370076498,3.9483561515808105,1.6887029580961088e+18,136.85110896809897,14.04566971460978,-19.28375752766927,11.276974439620972,1.6887029580874588e+18,136.8424588216146,-2.3144557873408,-9.04076608022054,2.9781920115152993,1.6887029580961088e+18,136.85110896809897,4.178114652633667,8.613250891367594,-0.910342000424862,1.6887029580961088e+18,136.85110896809897,4.17719833056132,8.617679754892984,-0.9078983987371126,,,,,,,,,,,,1.6887029580967782e+18,136.85177827148436,6.60019998550415,41.399479675292966,-30.070559310913087,1.6887029580967782e+18,136.85177827148436,-250.81979675292968,136.0226806640625,-162.9529571533203,1.6887029580874588e+18,136.8424588216146,-0.5307937065760294,0.5146541595458984,-0.5893527468045553,0.3203062613805135,-2.2317254543304443,1.1867258946100872,-2.3424365520477295
1.9,1.688702958139356e+18,136.89435579427084,7.479811986287435,-16.93137009938558,14.59671115875244,1.6887029581480102e+18,136.90301041666666,5.290132264296214,-25.50888506571452,15.42034594217936,1.688702958139356e+18,136.89435579427084,-3.471498489379883,-8.6375781695048,2.8797916571299234,1.6887029581480102e+18,136.90301041666666,2.1847086350123086,10.023025830586752,-10.01299778620402,1.6887029581480102e+18,136.90301041666666,2.1837923924128213,10.027403831481934,-10.010656197865805,,,,,,,,,,,,1.6887029581467784e+18,136.9017783203125,5.931639933586121,45.31567840576171,-23.789999389648436,1.6887029581467784e+18,136.9017783203125,-251.48834838867188,139.93887329101562,-156.67239990234376,1.688702958139356e+18,136.89435579427084,-0.5509131749471029,0.7239433924357096,-0.3856223026911418,0.1066634965439637,-2.45040496190389,1.0932464400927226,-1.4259668588638306
1.95,1.688702958191262e+18,136.94626204427084,3.058699051539103,0.5581487019856771,-0.0956042607625324,1.6887029581999114e+18,136.95491145833333,-4.151347796122233,-4.540979166825612,2.3347967068354287,1.688702958191262e+18,136.94626204427084,-5.022472222646077,-7.9681650797526045,2.687952995300293,1.6887029581999114e+18,136.95491145833333,1.926770806312561,-3.4793358643849692,2.259386936823527,1.6887029581999114e+18,136.95491145833333,1.925905426343282,-3.4749070207277932,2.261779477198919,,,,,,,,,,,,1.6887029581967808e+18,136.95178076171874,13.524919891357422,46.455159759521486,-19.388239669799805,1.6887029581967808e+18,136.95178076171874,-243.89507446289065,141.07835693359374,-152.27063598632813,1.688702958191262e+18,136.94626204427084,-0.1664938429991404,0.2725417415301005,-0.0937637488047282,0.0263065469140807,-2.6763323148091636,0.9488271474838256,-0.9234248598416648
2.0,1.6887029582431634e+18,136.9981633300781,2.1503822008768716,10.61092758178711,1.3304218848546343,1.688702958251815e+18,137.00681486002603,-1.2344970703125,2.145165503025055,2.2027926445007324,1.6887029582431634e+18,136.9981633300781,-3.668492158253988,-9.003392537434896,1.107789138952891,1.688702958251815e+18,137.00681486002603,-0.3014619946479797,-5.91129207611084,5.393125534057617,1.688702958251815e+18,137.00681486002603,-0.3023782968521118,-5.906863371531169,5.395518143971761,,,,,,,,,,,,1.6887029582467784e+18,137.00177841796875,7.92023983001709,49.10743865966797,-14.92791976928711,1.6887029582467784e+18,137.00177841796875,-249.499755859375,143.7306365966797,-147.81031799316406,1.6887029582431634e+18,136.9981633300781,-0.5299254854520162,0.7585323651631674,-0.334506352742513,0.1695625608166058,-2.886098782221476,1.1691132386525471,-1.000676453113556
2.05,1.688702958295066e+18,137.05006591796874,0.2094413638114929,12.72357209523519,0.6290687719980875,1.6887029582950656e+18,137.0500654296875,-1.0190433263778689,3.1283165216445923,1.4976078867912292,1.688702958295066e+18,137.05006591796874,-1.406115512053172,-9.65182908376058,0.8538078864415487,1.6887029582950656e+18,137.0500654296875,-1.3659710884094238,-5.368130922317505,4.996877670288086,1.6887029582950656e+18,137.0500654296875,-1.3668873310089111,-5.363702297210693,4.999244689941406,,,,,,,,,,,,1.688702958296777e+18,137.05177685546874,-1.6177200078964231,48.4827995300293,-16.05031967163086,1.688702958296777e+18,137.05177685546874,-259.0377136230469,143.10599670410156,-148.9327178955078,1.688702958295066e+18,137.05006591796874,-0.5777918497721354,0.6395492355028788,-0.4006231526533763,0.3064732750256856,-2.589168389638265,1.4046602249145508,-1.604704817136129
2.1,1.688702958346967e+18,137.101967203776,-0.8969844579696655,11.381914456685385,-0.0584117571512858,1.6887029583383145e+18,137.093314453125,-1.3138590653737388,2.1102701822916665,1.6877375443776448,1.688702958346967e+18,137.101967203776,0.3162628461917241,-9.677868843078612,1.5241398413976033,1.6887029583383145e+18,137.093314453125,-1.4181236426035564,-6.410928885142009,3.942015250523885,1.6887029583383145e+18,137.093314453125,-1.419039964675903,-6.406551202138265,3.944305976231893,,,,,,,,,,,,1.6887029583467804e+18,137.10178041992188,-6.5221199035644535,46.179439544677734,-21.110879135131835,1.6887029583467804e+18,137.10178041992188,-263.94212036132814,140.80263977050782,-153.99327697753907,1.688702958346967e+18,137.101967203776,-0.5852182507514954,0.5006055335203806,-0.4779174427191416,0.4188458323478699,-1.3488266070683796,1.4208981196085613,1.0152521928151448
2.15,1.688702958398861e+18,137.15386100260417,18.296767870585125,2.592810312906901,4.378988742828369,1.6887029583902198e+18,137.1452198079427,16.477375348409016,-5.015555540720622,4.612564484278361,1.688702958398861e+18,137.15386100260417,-0.8886473923921586,-9.55297565460205,1.9533418416976929,1.6887029583902198e+18,137.1452198079427,0.0529416402180989,0.4502075513203938,-4.432794531186421,1.6887029583902198e+18,137.1452198079427,0.0520762602488199,0.4546364148457845,-4.430402040481567,,,,,,,,,,,,1.6887029583967803e+18,137.15178046875002,-0.0707599878311157,44.56415939331055,-25.236919403076172,1.6887029583967803e+18,137.15178046875002,-257.4907531738281,139.1873565673828,-158.11931457519532,1.688702958398861e+18,137.15386100260417,-0.5401656826337179,0.4966393113136291,-0.5417740742365519,0.4056907792886098,-1.968545198440552,1.3566277424494426,-0.5593567689259847
2.2,1.688702958450772e+18,137.20577189127604,-11.148313840230308,-17.338823318481445,21.047230402628585,1.6887029584421204e+18,137.19712060546874,-11.33539899190267,-23.136401812235516,20.066210746765137,1.688702958450772e+18,137.20577189127604,-1.4497610330581665,-9.628729820251465,1.0847089091936748,1.6887029584421204e+18,137.19712060546874,4.074216604232788,8.191397349039713,-0.7876089066267014,1.6887029584421204e+18,137.19712060546874,4.073351224263509,8.195826053619385,-0.7851654837528864,1.6887029584594214e+18,137.21442138671875,0.0,0.0,3.7919726371765137,7.320000171661377,2.705528736114502,38.71322250366211,43.52506431102901,-122.7524002,49.1877513,1.6887029584467817e+18,137.20178149414065,0.4270000100135803,46.9163200378418,-20.87663917541504,1.6887029584467817e+18,137.20178149414065,-256.9929962158203,141.53951721191407,-153.759033203125,1.688702958450772e+18,137.20577189127604,-0.5776352286338806,0.6312120159467062,-0.4137536187966664,0.3030393819014231,-2.6097904046376548,1.3916305700937908,-1.6024778286616008
2.25,1.6887029585026732e+18,137.2576728515625,-7.702353199323017,-7.66413942972819,9.187548478444418,1.6887029584940265e+18,137.2490262858073,-11.73699418703715,-21.94517453511556,13.946566422780355,1.6887029585026732e+18,137.2576728515625,-1.4269272883733113,-9.582969983418783,1.4584426879882812,1.6887029584940265e+18,137.2490262858073,-2.3555473163723946,0.65388023853302,-0.4581998437643051,1.6887029584940265e+18,137.2490262858073,-2.3564635763565698,0.6583090821901957,-0.4558582057555517,,,,,,,,,,,,1.688702958496781e+18,137.2517810058594,-5.638840007781982,48.785359954833986,-14.954759788513185,1.688702958496781e+18,137.2517810058594,-263.0588317871094,143.40855712890624,-147.8371551513672,1.6887029585026732e+18,137.2576728515625,-0.6080647508303324,0.6622324188550314,-0.3669764796892802,0.2365526258945465,-2.437805732091268,1.368908405303955,-1.5909545421600342
2.3,1.688702958545924e+18,137.30092407226562,2.3395174741744995,5.998126029968262,-0.0453980565071105,1.688702958545924e+18,137.30092407226562,-0.018145573635896,-3.519443233807882,2.661616404851278,1.688702958545924e+18,137.30092407226562,-2.2475569248199463,-9.226485252380373,2.4479161500930786,1.688702958545924e+18,137.30092407226562,-2.481334606806437,-3.746894677480062,-1.5680910746256511,1.688702958545924e+18,137.30092407226562,-2.4821999867757163,-3.7425169150034585,-1.5656476020812988,,,,,,,,,,,,1.688702958546781e+18,137.30178100585937,1.9593199282884597,45.71827850341797,-23.73387947082519,1.688702958546781e+18,137.30178100585937,-255.4606719970703,140.3414764404297,-156.61627807617188,1.688702958545924e+18,137.30092407226562,-0.5756254494190216,0.6361631155014038,-0.4583075046539306,0.2313848659396171,-2.3486483097076416,1.237081229686737,-1.827863037586212
2.35,1.6887029585891756e+18,137.34417561848957,3.599517345428467,7.471964995066325,-1.6432538429896038,1.6887029585978253e+18,137.3528251139323,0.2570290366808573,-1.5676976442337036,1.2759726842244463,1.6887029585891756e+18,137.34417561848957,-3.34474507967631,-8.790253639221191,2.760427395502726,1.6887029585978253e+18,137.3528251139323,-1.260927677154541,-3.296228806177775,-2.072614868481954,1.6887029585978253e+18,137.3528251139323,-1.261793076992035,-3.291800101598104,-2.070273200670878,,,,,,,,,,,,1.6887029585967775e+18,137.35177739257813,10.953159713745118,43.0586799621582,-26.635039138793942,1.6887029585967775e+18,137.35177739257813,-246.46683349609376,137.68187561035157,-159.51743774414064,1.6887029585891756e+18,137.34417561848957,-0.523385763168335,0.621302604675293,-0.53265513976415,0.2355941534042358,-2.4783987204233804,1.124543070793152,-1.8455618222554524
2.4,1.688702958641079e+18,137.39607885742188,4.2633585929870605,0.1668227513631185,2.682159662246704,1.688702958649725e+18,137.40472485351563,8.078567743301392,-10.948758920033772,6.4538414478302,1.688702958641079e+18,137.39607885742188,-4.919653574625651,-8.147726694742838,2.249571760495504,1.688702958649725e+18,137.40472485351563,-0.0399098588774601,-6.006485382715861,-3.710853576660156,1.688702958649725e+18,137.40472485351563,-0.040826159218947,-6.002107381820679,-3.708410183588664,,,,,,,,,,,,1.6887029586467853e+18,137.40178515625,22.723719787597656,40.16483917236328,-25.40039939880371,1.6887029586467853e+18,137.40178515625,-234.69627380371097,134.788037109375,-158.28279724121094,1.688702958641079e+18,137.39607885742188,-0.4304864207903544,0.6154681841532389,-0.6082130869229635,0.2519803444544474,-2.732670625050863,0.993489940961202,-1.7859955231348674
2.45,1.688702958692978e+18,137.44797802734377,24.10030746459961,-4.7480424245198565,2.9930195013682046,1.6887029587016264e+18,137.45662638346354,9.270991365114847,-10.02851931254069,3.8841493924458823,1.688702958692978e+18,137.44797802734377,-6.256295839945476,-7.259982109069824,1.9652326107025144,1.6887029587016264e+18,137.45662638346354,-0.8235481455922127,6.602282444636027,-1.5136222839355469,1.6887029587016264e+18,137.45662638346354,-0.8244135603308678,6.606711308161418,-1.5112805763880413,,,,,,,,,,,,1.6887029586967793e+18,137.45177944335938,29.931479263305665,35.97291870117188,-24.646438980102538,1.6887029586967793e+18,137.45177944335938,-227.48851623535157,130.59612121582032,-157.52883911132812,1.688702958692978e+18,137.44797802734377,-0.3596282104651133,0.6301185091336569,-0.6481730341911316,0.2255160808563232,-2.864471673965454,0.8440499107042948,-1.7231617371241252
2.5,1.688702958744876e+18,137.4998759765625,0.543488343556722,-2.5549235343933105,-1.7404803435007732,1.6887029587448758e+18,137.4998758544922,-5.435595750808716,-9.622437000274658,3.128615617752075,1.688702958744876e+18,137.4998759765625,-5.501280943552653,-6.7189022699991865,4.527245918909709,1.6887029587448758e+18,137.4998758544922,-1.0565677881240845,5.7684006690979,-0.8847619295120239,1.6887029587448758e+18,137.4998758544922,-1.0574077665805817,5.772753000259399,-0.8823184967041016,,,,,,,,,,,,1.6887029587467794e+18,137.50177944335937,20.94008026123047,33.0205192565918,-34.877359008789064,1.6887029587467794e+18,137.50177944335937,-236.47991333007812,127.64371795654296,-167.75975952148437,1.688702958744876e+18,137.4998759765625,-0.4580589234828949,0.6516768137613932,-0.5980838934580485,0.0794999413192272,-2.4769036769866943,0.7656764586766561,-1.7607930898666382
2.55,1.6887029587967828e+18,137.55178279622396,-0.5434896151224772,-6.531350930531819,-6.007829666137695,1.6887029587881326e+18,137.54313256835937,-5.505087216695149,-12.431909879048666,0.0933201014995575,1.6887029587967828e+18,137.55178279622396,-4.730753739674886,-6.78654416402181,5.270964463551839,1.6887029587881326e+18,137.54313256835937,0.2926044637958209,1.6053538421789806,0.5409720738728842,1.6887029587881326e+18,137.54313256835937,0.2917390689253807,1.609782670934995,0.5433137267827988,,,,,,,,,,,,1.6887029587967803e+18,137.55178037109374,14.896199798583984,33.186438751220706,-37.529639434814456,1.6887029587967803e+18,137.55178037109374,-242.52379760742187,127.80963592529297,-170.4120330810547,1.6887029587967828e+18,137.55178279622396,-0.5044413506984711,0.6535652677218119,-0.5630830128987631,0.035755426933368,-2.3235639731089273,0.7749283115069071,-1.7725470066070557
2.6,1.688702958848684e+18,137.60368391927082,6.290765603383382,-11.77689266204834,-6.915470123291016,1.6887029588400343e+18,137.5950342610677,-0.6983054081598917,-17.888343811035156,-1.9754745165507,1.688702958848684e+18,137.60368391927082,-5.138884385426839,-6.604416052500407,5.113599459330241,1.6887029588400343e+18,137.5950342610677,-1.2887220382690432,-2.2139283418655396,-0.4150320279101531,1.6887029588400343e+18,137.5950342610677,-1.289638340473175,-2.2094995578130088,-0.4125885566075642,,,,,,,,,,,,1.6887029588467835e+18,137.60178334960938,17.704639434814453,31.768799209594725,-37.66383895874024,1.6887029588467835e+18,137.60178334960938,-239.71535949707032,126.39199829101562,-170.54623718261718,1.688702958848684e+18,137.60368391927082,-0.482612282037735,0.6401114265124003,-0.5951436956723531,0.0531756480534871,-2.3772279421488443,0.7497098445892334,-1.811846415201823
2.65,1.6887029589005855e+18,137.65558536783854,11.099465370178224,-8.468123435974121,0.2022757530212402,1.6887029588919365e+18,137.6469365234375,8.176873366038004,-15.716258684794107,3.5942190488179526,1.6887029589005855e+18,137.65558536783854,-4.475996573766072,-6.741298357645671,5.494760354359944,1.6887029588919365e+18,137.6469365234375,1.3434962729612987,4.558734635512034,0.3495676169792811,1.6887029588919365e+18,137.6469365234375,1.342630883057912,4.563112397988637,0.3519601722558339,,,,,,,,,,,,1.6887029588967818e+18,137.6517817871094,16.31627960205078,30.90503921508789,-38.73987884521485,1.6887029588967818e+18,137.6517817871094,-241.10372009277344,125.52823791503906,-171.62227478027344,1.6887029589005855e+18,137.65558536783854,-0.5165977478027344,0.6470122337341309,-0.5578112006187439,0.0220781392417847,-2.2706288496653237,0.7690819899241129,-1.7965378363927205
2.7,1.688702958952487e+18,137.70748706054687,0.0044538577397664,-6.135190645853679,1.5725083351135254,1.6887029589438364e+18,137.69883658854167,-2.864208698272705,-14.15613810221354,6.587241490681966,1.688702958952487e+18,137.70748706054687,-2.9646382331848145,-8.356982866923014,4.107777913411458,1.6887029589438364e+18,137.69883658854167,6.640461444854736,2.794403076171875,0.7333437105019888,1.6887029589438364e+18,137.69883658854167,6.639545281728108,2.798831820487976,0.7356344560782114,,,,,,,,,,,,1.6887029589467812e+18,137.70178100585937,5.236239814758301,39.77443923950195,-32.42027893066406,1.6887029589467812e+18,137.70178100585937,-252.18375549316409,134.39763793945312,-165.30267639160155,1.688702958952487e+18,137.70748706054687,-0.5840854247411092,0.7011915445327759,-0.4034889936447143,0.0470535500595966,-2.234945058822632,1.0322217742602031,-1.5812561909357707
2.75,1.6887029589957366e+18,137.75073669433596,0.3052079677581787,-6.560664176940918,5.440814733505249,1.68870295899574e+18,137.75073990885417,-1.6769698858261108,-15.639887809753418,7.781459490458171,1.6887029589957366e+18,137.75073669433596,-2.362899422645569,-9.146265029907228,2.6419650316238403,1.68870295899574e+18,137.75073990885417,1.7625498572985332,-1.9783889055252075,1.6595172882080078,1.68870295899574e+18,137.75073990885417,1.761684497197469,-1.9740110635757449,1.661909778912862,1.6887029589784392e+18,137.73343920898438,0.0,0.0,3.7919726371765137,7.289999961853027,2.720524549484253,37.493865966796875,43.52506431102901,-122.752393,49.1877678,1.6887029589967828e+18,137.7517828613281,1.2419599652290343,46.40147933959961,-22.49435958862305,1.6887029589967828e+18,137.7517828613281,-256.17803649902345,141.0246795654297,-155.3767578125,1.6887029589957366e+18,137.75073669433596,-0.6003777086734772,0.7077184915542603,-0.3524148017168044,0.1196054555475711,-2.349092721939087,1.206219494342804,-1.4850777983665466
2.8,1.6887029590389926e+18,137.79399275716148,1.8801162640253704,-0.2835779190063476,3.9729483922322593,1.6887029590476378e+18,137.80263785807293,0.114456683397293,-8.32044267654419,5.408975601196289,1.6887029590389926e+18,137.79399275716148,-1.950967272122701,-9.379878997802734,2.0812164545059204,1.6887029590476378e+18,137.80263785807293,1.6224072178204854,-1.66781481107076,1.9153170585632324,1.6887029590476378e+18,137.80263785807293,1.6214908361434937,-1.663386086622874,1.917709668477376,,,,,,,,,,,,1.6887029590467802e+18,137.80177998046875,-0.6319599732756614,47.1066390991211,-20.273959350585937,1.6887029590467802e+18,137.80177998046875,-258.0519653320313,141.7298370361328,-153.15635681152344,1.6887029590389926e+18,137.79399275716148,-0.602789302666982,0.6844088037808737,-0.3673459092775981,0.1810494959354399,-2.386650244394938,1.2821081082026164,-1.5603710810343423
2.85,1.688702959090891e+18,137.84589103190103,-0.4045708576838175,6.525634129842122,3.1120076179504395,1.6887029590995392e+18,137.85453922526042,-2.274377922217051,-2.540380080540975,4.367300033569336,1.688702959090891e+18,137.84589103190103,-1.2297903696695964,-9.662467956542969,1.1417576273282368,1.6887029590995392e+18,137.85453922526042,1.6164511839548747,0.2295326193173726,0.861727237701416,1.6887029590995392e+18,137.85453922526042,1.6155349413553874,0.2339104811350504,0.8640689055124918,,,,,,,,,,,,1.6887029590967808e+18,137.85178076171877,-3.484319877624512,48.6511589050293,-16.138159561157227,1.6887029590967808e+18,137.85178076171877,-260.9043212890625,143.27436218261718,-149.02055969238282,1.688702959090891e+18,137.84589103190103,-0.6155759493509928,0.6740604241689047,-0.3350613017876943,0.2329787065585453,-2.514213482538859,1.4038792848587036,-1.4571798245112102
2.9,1.6887029591427912e+18,137.89779117838543,-1.4252736965815227,8.61464754740397,3.7182936668396,1.6887029591514447e+18,137.90644458007813,-1.5814563632011414,-1.1499507029851277,4.272783597310384,1.6887029591427912e+18,137.89779117838543,-0.9040031631787618,-9.749087969462076,0.5928992430369059,1.6887029591514447e+18,137.90644458007813,0.7279477516810098,-1.0182105700174968,0.8425358732541403,1.6887029591514447e+18,137.90644458007813,0.7270314494768778,-1.0137817859649658,0.8449284633000692,,,,,,,,,,,,1.688702959146781e+18,137.90178081054688,-5.4973197937011715,49.327039337158205,-12.53671989440918,1.688702959146781e+18,137.90178081054688,-262.9173156738281,143.9502380371094,-145.4191131591797,1.6887029591427912e+18,137.89779117838543,-0.6175022919972738,0.6702130238215128,-0.317640612522761,0.2617199420928954,-2.7558736006418862,1.4619290033976238,-1.2312782208124795
2.95,1.688702959194697e+18,137.94969702148435,0.3228845794995625,8.39115301767985,2.8622167905171714,1.688702959194691e+18,137.9496911621094,-0.2682952247560024,-1.2433704733848572,3.509672522544861,1.688702959194697e+18,137.94969702148435,-0.6748922864596049,-9.769062995910646,0.5793846448262533,1.688702959194691e+18,137.9496911621094,-0.4531093090772629,-0.8326093554496765,0.1001055426895618,1.688702959194691e+18,137.9496911621094,-0.4540256112813949,-0.8282569050788879,0.1024726461619138,,,,,,,,,,,,1.6887029591967803e+18,137.95178041992187,-6.056079959869384,49.44903945922851,-12.402519607543947,1.6887029591967803e+18,137.95178041992187,-263.47607421875,144.07223815917968,-145.28491821289063,1.688702959194697e+18,137.94969702148435,-0.6182250579198202,0.6554261445999146,-0.3297774891058604,0.2817808985710144,-2.683908541997274,1.484453002611796,-1.352988600730896
3.0,1.688702959246598e+18,138.0015983072917,-0.1590606172879537,6.969182968139648,1.128401239713033,1.6887029592379446e+18,137.99294482421877,-0.8540382981300354,-2.257428765296936,2.488336165746053,1.688702959246598e+18,138.0015983072917,-0.9939444661140442,-9.65556812286377,1.3630501826604209,1.6887029592379446e+18,137.99294482421877,-1.9745200872421265,-1.3558154106140137,-0.7137960493564606,1.6887029592379446e+18,137.99294482421877,-1.9754364093144736,-1.351386626561483,-0.7115053037802378,,,,,,,,,,,,1.6887029592467812e+18,138.00178129882812,-4.362719917297364,48.30711975097656,-16.408999633789062,1.6887029592467812e+18,138.00178129882812,-261.78271484375,142.9303192138672,-149.29139709472656,1.688702959246598e+18,138.0015983072917,-0.6105338335037231,0.6404531995455424,-0.3790037135283152,0.2698516547679901,-2.337208350499471,1.4099748531977336,-1.7613804737726848
3.05,1.6887029592984968e+18,138.0534967447917,19.44801727930705,-12.273375352223717,0.8973857561747233,1.6887029592898458e+18,138.044845703125,11.219945192337036,-17.082958698272705,3.507080316543579,1.6887029592984968e+18,138.0534967447917,-2.07100510597229,-9.208233515421549,2.648702383041382,1.6887029592898458e+18,138.044845703125,-3.757432142893473,-6.409147421518962,-0.448578675587972,1.6887029592898458e+18,138.044845703125,-3.7582974433898926,-6.404718557993571,-0.4461861451466878,,,,,,,,,,,,1.6887029592967803e+18,138.05178051757812,3.7746798992156982,45.044839477539064,-24.548839569091797,1.6887029592967803e+18,138.05178051757812,-253.6453125,139.66803588867188,-157.43123474121094,1.6887029592984968e+18,138.0534967447917,-0.5592960317929586,0.5816287994384766,-0.5151438117027283,0.2825619578361511,-2.279367287953695,1.237786610921224,-2.0828155676523843
3.1,1.688702959350402e+18,138.1054021809896,11.398022850354511,-14.34484322865804,4.232285261154175,1.6887029593417482e+18,138.0967482910156,13.86800209681193,-24.498715082804363,6.383452574412028,1.688702959350402e+18,138.1054021809896,-1.759597222010295,-9.222310066223145,2.842817147572835,1.6887029593417482e+18,138.0967482910156,-0.406988983352979,-2.1752401888370514,1.3987286885579426,1.6887029593417482e+18,138.0967482910156,-0.4079052656888961,-2.1708115140597024,1.401172121365865,,,,,,,,,,,,1.6887029593467827e+18,138.10178251953124,5.721799850463867,43.002558898925784,-27.796479797363283,1.6887029593467827e+18,138.10178251953124,-251.6981964111328,137.6257568359375,-160.6788757324219,1.688702959350402e+18,138.1054021809896,-0.5394845008850098,0.5074800848960876,-0.5748879512151083,0.3476493060588836,-2.153108835220337,1.2446892658869424,-2.4330901304880777
3.15,1.6887029594023045e+18,138.1573039550781,-0.668995221455892,-2.979229132334391,5.526198943456014,1.6887029593936548e+18,138.14865462239584,-2.5840490659077964,-15.010974248250326,9.557531833648682,1.6887029594023045e+18,138.1573039550781,-1.82259472211202,-9.23796812693278,2.749900738398234,1.6887029593936548e+18,138.14865462239584,0.836579958597819,3.760384639104207,-0.9876673022905984,1.6887029593936548e+18,138.14865462239584,0.8356636762619019,3.764813502629598,-0.9852747321128844,,,,,,,,,,,,1.6887029593967793e+18,138.1517791503906,5.50463981628418,44.14935836791992,-26.8033992767334,1.6887029593967793e+18,138.1517791503906,-251.9153564453125,138.77255554199218,-159.68579711914063,1.6887029594023045e+18,138.1573039550781,-0.5573906699816386,0.5515921910603842,-0.5368623932202657,0.3093919157981872,-2.1971567471822104,1.2475805282592771,-2.248090982437134
3.2,1.6887029594455557e+18,138.2005554199219,-1.4882864356040957,6.249575138092041,0.5884097814559937,1.6887029594455583e+18,138.20055851236978,-2.8733811378479004,-3.0466614166895547,3.680360635121664,1.6887029594455557e+18,138.2005554199219,-1.3491660952568054,-9.231473922729492,3.0290640592575073,1.6887029594455583e+18,138.20055851236978,-0.0928515121340751,4.02152959505717,0.2786563634872436,1.6887029594455583e+18,138.20055851236978,-0.093716911971569,4.0259583791097,0.2810489237308502,,,,,,,,,,,,1.688702959446781e+18,138.20178071289064,0.2415599554777145,44.32747955322266,-26.508160018920897,1.688702959446781e+18,138.20178071289064,-257.1784301757813,138.95067749023437,-159.39055480957032,1.6887029594455557e+18,138.2005554199219,-0.6040071547031403,0.5834795832633972,-0.4803492724895477,0.252381145954132,-2.0339115262031555,1.2455475330352783,-2.213393211364746
