seconds_elapsed_rounded,accelerometer_time,accelerometer_seconds_elapsed,accelerometer_z,accelerometer_y,accelerometer_x,accelerometeruncalibrated_time,accelerometeruncalibrated_seconds_elapsed,accelerometeruncalibrated_z,accelerometeruncalibrated_y,accelerometeruncalibrated_x,gravity_time,gravity_seconds_elapsed,gravity_z,gravity_y,gravity_x,gyroscope_time,gyroscope_seconds_elapsed,gyroscope_z,gyroscope_y,gyroscope_x,gyroscopeuncalibrated_time,gyroscopeuncalibrated_seconds_elapsed,gyroscopeuncalibrated_z,gyroscopeuncalibrated_y,gyroscopeuncalibrated_x,location_time,location_seconds_elapsed,location_bearingAccuracy,location_speedAccuracy,location_verticalAccuracy,location_horizontalAccuracy,location_speed,location_bearing,location_altitude,location_longitude,location_latitude,magnetometer_time,magnetometer_seconds_elapsed,magnetometer_z,magnetometer_y,magnetometer_x,magnetometeruncalibrated_time,magnetometeruncalibrated_seconds_elapsed,magnetometeruncalibrated_z,magnetometeruncalibrated_y,magnetometeruncalibrated_x,orientation_time,orientation_seconds_elapsed,orientation_qz,orientation_qy,orientation_qx,orientation_qw,orientation_roll,orientation_pitch,orientation_yaw
0.05,,,,,,,,,,,,,,,,1.6888761497444795e+18,0.0734794921875,0.5783366560935974,-0.1753183305263519,-1.987755537033081,,,,,,,,,,,,,,,,,,,,,,,,,,,,,,,,,,,
0.1,1.688876149792125e+18,0.121125,-0.9536333084106444,1.5426983833312988,-3.751491069793701,1.6888761497748224e+18,0.1038223876953125,8.268398761749268,5.315655469894409,-4.7195435762405396,,,,,,1.6888761497704988e+18,0.099498779296875,0.02076941728591919,0.6136904954910278,-0.9151525050401688,1.6888761497748224e+18,0.1038223876953125,-0.37835466675460344,0.6609561890363693,-0.5488624200224876,,,,,,,,,,,,1.6888761497750282e+18,0.1040281982421875,-36.667099952697754,-36.68540096282959,1.9733499586582184,1.6888761497750282e+18,0.1040281982421875,-292.29368591308594,58.16959857940674,-131.15304946899414,,,,,,,,,
0.15,1.6888761498267297e+18,0.155729736328125,0.6687680880228678,0.4413356781005859,-2.3306972682476044,1.6888761498180803e+18,0.147080322265625,8.124629974365234,6.710272312164307,-3.937389592329661,1.6888761498180803e+18,0.147080322265625,7.720511754353841,5.885140101114909,-1.4080421129862468,1.688876149813751e+18,0.14275130208333334,-0.3061453054348628,-1.0849475661913555,0.04642575668791927,1.6888761498180803e+18,0.147080322265625,-0.27249680459499354,-1.087543745835622,0.030645072460174533,,,,,,,,,,,,1.6888761498200325e+18,0.14903276367187498,-36.965999603271484,-36.44871978759765,1.8397599697113036,1.6888761498200325e+18,0.14903276367187498,-292.59259643554685,58.40627822875977,-131.28663635253906,1.6888761498180803e+18,0.147080322265625,-0.9198923707008362,-0.28167247772216797,0.1636272569497426,0.21821365257104233,0.22237390776475272,-0.63066699107488,2.748579740524292
0.2,1.6888761498786286e+18,0.20762874348958335,0.45813767115275045,-4.059945265452067,2.145152727762858,1.6888761498699837e+18,0.19898372395833333,10.860822677612305,1.904886245727539,0.935394229988257,1.6888761498699837e+18,0.19898372395833333,7.806163311004639,5.7763245900472,-1.3854701121648152,1.6888761498656594e+18,0.19465926106770834,-0.38830666740735365,0.23238333066304526,-0.05976299444834391,1.6888761498699837e+18,0.19898372395833333,-0.38321612278620404,0.4475605928649505,0.17913620670636496,,,,,,,,,,,,1.6888761498700316e+18,0.199031640625,-37.2343994140625,-35.80699920654297,1.2102399826049806,1.6888761498700316e+18,0.199031640625,-292.8609985351562,59.04799957275391,-131.9161590576172,1.6888761498699837e+18,0.19898372395833333,-0.924513578414917,-0.2769750952720642,0.15759235620498657,0.20901334285736084,0.21693276365598035,-0.6162776549657186,2.7662216822306314
0.25,1.6888761499218888e+18,0.2508887939453125,-1.3615899085998535,-6.129914283752441,0.8739391565322876,1.6888761499218854e+18,0.2508857421875,6.43549648920695,0.5150550603866577,-0.2877369026343028,1.6888761499218854e+18,0.2508857421875,6.972097714742024,6.595852533976237,-1.9673538605372112,1.688876149917562e+18,0.24656209309895835,0.9374745488166809,2.9445741176605225,2.6959519386291504,1.6888761499218854e+18,0.2508857421875,1.0487028857072194,3.106097141901652,2.5745933850606284,,,,,,,,,,,,1.6888761499200374e+18,0.249037353515625,-33.99896011352539,-39.022919464111325,3.7624799251556396,1.6888761499200374e+18,0.249037353515625,-289.62554321289065,55.832079315185545,-129.3639129638672,1.6888761499218854e+18,0.2508857421875,-0.8970774412155151,-0.31667910019556683,0.21024340887864426,0.22293044130007422,0.3215195933977762,-0.7244550188382467,2.7779953479766846
0.3,1.6888761499651361e+18,0.29413631184895833,-1.1923648516337078,-4.491199175516765,2.083467721939087,1.6888761499737907e+18,0.30279069010416665,3.5022946993509927,3.1784661784768105,-2.0989042123158774,1.6888761499737907e+18,0.30279069010416665,6.404568036397298,6.916465759277344,-2.7059704462687173,1.6888761499694687e+18,0.29846875,1.7078773975372314,3.7089192867279053,-1.348841369152069,1.6888761499737907e+18,0.30279069010416665,1.6693929433822632,3.4823900063832602,-1.7127134303251903,,,,,,,,,,,,1.6888761499700355e+18,0.299035595703125,-30.62199935913086,-41.431200408935545,6.285439777374267,1.6888761499700355e+18,0.299035595703125,-286.24859619140625,53.42379913330078,-126.84095611572266,1.6888761499737907e+18,0.30279069010416665,-0.8580607771873474,-0.30888626972834266,0.2857578496138255,0.29272876183191937,0.4481648604075114,-0.7728793422381083,2.6690544287363687
0.35,1.6888761500170406e+18,0.3460406087239583,-5.2793318430582685,-1.4592270851135254,2.622226079305013,1.6888761500256963e+18,0.3546962890625,4.216352979342143,2.8630123138427734,2.250449776649475,1.6888761500256963e+18,0.3546962890625,7.247968991597493,6.065520763397217,-2.5897128582000732,1.6888761500213676e+18,0.3503675130208333,0.7990626245737076,-0.31897348165512085,-3.1138856410980225,1.6888761500256963e+18,0.3546962890625,0.642681147903204,-0.3952298288544019,-3.1831169923146567,,,,,,,,,,,,1.688876150020034e+18,0.349034033203125,-36.377959442138675,-36.785440063476564,6.102439880371094,1.688876150020034e+18,0.349034033203125,-292.0045593261719,58.069559478759764,-127.02395629882812,1.6888761500256963e+18,0.3546962890625,-0.8622074723243713,-0.2469358146190643,0.27249044179916376,0.34756789604822796,0.38952745000521344,-0.6627774635950724,2.5115838050842285
0.4,1.6888761500689518e+18,0.3979518229166667,-1.8898506164550781,-6.401536305745442,6.729592800140381,1.6888761500775956e+18,0.4065956217447917,6.561717987060547,-2.9690941174825034,3.935196320215861,1.6888761500775956e+18,0.4065956217447917,8.225846926371256,4.497435013453166,-2.836814800898234,1.6888761500732723e+18,0.4022721354166667,-2.0835594733556113,0.3289000292619069,-3.3911675612131753,1.6888761500775956e+18,0.4065956217447917,-2.3394612073898315,0.3447825312614441,-3.252195676167806,,,,,,,,,,,,1.688876150070036e+18,0.3990361328125,-42.37059860229492,-29.519119262695312,6.348879814147949,1.688876150070036e+18,0.3990361328125,-297.9971923828125,65.33587875366212,-126.7775161743164,1.6888761500775956e+18,0.4065956217447917,-0.8906627297401428,-0.1604783733685811,0.2443908850351969,0.34697677691777545,0.37200785676638287,-0.473169485727946,2.48878812789917
0.45,1.6888761501208507e+18,0.4498509928385417,-3.169119199117025,-8.18806234995524,1.6030415693918865,1.6888761501208515e+18,0.4498514404296875,5.6222357749938965,-6.002694606781006,-1.3325030971318483,1.6888761501208515e+18,0.4498514404296875,8.62280559539795,3.0833853483200073,-3.503504753112793,1.688876150125175e+18,0.45417504882812504,-3.5780922571818032,0.22367848704258597,-2.386446952819824,1.6888761501208515e+18,0.4498514404296875,-3.629990339279175,0.23648121207952494,-2.39993679523468,,,,,,,,,,,,1.6888761501200358e+18,0.44903574218750003,-46.03547897338867,-22.284519577026366,10.982439994812012,1.6888761501200358e+18,0.44903574218750003,-301.6620727539063,72.57047882080079,-122.14395751953126,1.6888761501208515e+18,0.4498514404296875,-0.9192314147949219,-0.0891412980854511,0.24138794094324112,0.29739017784595484,0.4229537695646286,-0.31255263090133667,2.5832693576812744
0.5,1.6888761501727506e+18,0.5017506510416667,-2.6824377377827964,-9.729179382324219,-6.083882013956706,1.688876150164104e+18,0.49310367838541663,6.324030876159668,-8.76869789759318,-7.953941822052002,1.688876150164104e+18,0.49310367838541663,8.80778439839681,1.6164828141530354,-3.972218672434489,1.6888761501770732e+18,0.506072998046875,-3.2227214177449546,0.6259841720263163,-2.8571694691975913,1.688876150164104e+18,0.49310367838541663,-3.2586607138315835,0.5508986463149389,-2.500220537185669,,,,,,,,,,,,1.6888761501700406e+18,0.499040478515625,-48.10459899902344,-14.930359649658204,15.069439506530761,1.6888761501700406e+18,0.499040478515625,-303.73118896484374,79.92463989257813,-118.0569580078125,1.688876150164104e+18,0.49310367838541663,-0.93996262550354,-0.020935205121835065,0.23809441427389777,0.24186865488688147,0.45843560496966046,-0.1551201169689496,2.673786004384359
0.55,1.6888761502246577e+18,0.5536575520833332,2.1806869506835938,-8.130074659983316,-14.350499471028646,1.6888761502160033e+18,0.545003173828125,10.151350816090902,-9.95773124694824,-16.558332443237305,1.6888761502160033e+18,0.545003173828125,8.830829938252768,-0.7715653528769811,-4.12111250559489,1.6888761502203338e+18,0.5493338623046875,-2.9119181632995605,-1.0060186982154846,-5.064607381820679,1.6888761502160033e+18,0.545003173828125,-2.9087367057800293,-0.6531676550706228,-4.795292218526204,,,,,,,,,,,,1.6888761502200369e+18,0.5490370605468751,-49.231878662109374,-3.1646798849105835,16.811600112915038,1.6888761502200369e+18,0.5490370605468751,-304.8584777832031,91.69031829833985,-116.3147979736328,1.6888761502160033e+18,0.545003173828125,-0.9523433645566305,0.09108549480636911,0.21869858105977372,0.18748543163140607,0.47040648261706036,0.09175868208209674,2.7313989798227944
0.6,1.6888761502765596e+18,0.6055596516927083,7.954459349314372,-3.2072184880574546,-11.101736068725586,1.6888761502679094e+18,0.5969095865885417,16.30170218149821,-8.48853858311971,-15.689937591552734,1.6888761502679094e+18,0.5969095865885417,8.320781548817953,-3.4110599358876548,-3.8663191000620523,1.6888761502635855e+18,0.59258544921875,-0.1605557588239511,0.4001676340897878,-5.133609612782796,1.6888761502679094e+18,0.5969095865885417,0.0217875341574351,0.7032077113787333,-4.9714250564575195,,,,,,,,,,,,1.6888761502700334e+18,0.599033544921875,-48.95615844726562,11.053199768066406,15.940519714355469,1.6888761502700334e+18,0.599033544921875,-304.58275146484374,105.90819854736328,-117.18587799072266,1.6888761502679094e+18,0.5969095865885417,-0.9382359584172567,0.22664387524127957,0.18053921560446418,0.1857805947462717,0.4724049170811971,0.36629983782768244,2.6603461106618247
0.65,1.6888761503284603e+18,0.657460205078125,3.6164061228434243,0.5629390080769857,-5.358840147654216,1.6888761503198126e+18,0.6488125,11.321839968363443,-5.05104923248291,-9.575079282124838,1.6888761503198126e+18,0.6488125,7.096875031789144,-4.771319548288981,-4.7831807136535645,1.688876150315484e+18,0.6444838053385417,0.38438695669174194,2.417499224344889,-2.814918041229248,1.6888761503198126e+18,0.6488125,0.3623449007670085,2.418822765350342,-2.6641360918680825,,,,,,,,,,,,1.6888761503200358e+18,0.6490359375,-43.64915924072265,19.10275993347168,21.03523979187012,1.6888761503200358e+18,0.6490359375,-299.2757507324219,113.95775909423828,-112.09115905761719,1.6888761503198126e+18,0.6488125,-0.9004848798116049,0.3207266728083293,0.21526459356149033,0.19832133750120795,0.6342530647913615,0.51441557208697,2.5349412759145102
0.7,1.6888761503717135e+18,0.7007135009765626,2.276817798614502,0.9423449039459229,-4.803102731704712,1.6888761503717082e+18,0.7007080891927083,8.811967849731445,-4.989234606424968,-9.503693262736004,1.6888761503717082e+18,0.7007080891927083,5.900152206420898,-5.410902976989746,-5.65402619043986,1.688876150367387e+18,0.6963868815104166,0.5796093146006266,2.0580049753189087,-2.2540927728017173,1.6888761503717082e+18,0.7007080891927083,0.6288857758045197,2.0580559571584067,-2.240704615910848,1.6888761503589985e+18,0.68799853515625,0.0,0.0,1.2602412700653076,8.506999969482422,0.0174528453499078,0.0,20.299999237060547,-122.7500474,49.1930091,1.6888761503700334e+18,0.69903349609375,-38.56907958984375,23.1604793548584,26.012839126586915,1.6888761503700334e+18,0.69903349609375,-294.19566650390624,118.015478515625,-107.11355895996094,1.6888761503717082e+18,0.7007080891927083,-0.8638576666514078,0.381330410639445,0.25810440381368,0.2030563801527023,0.8075188199679056,0.5867579380671183,2.422386964162191
0.75,1.6888761504149722e+18,0.7439720865885416,5.335262616475423,3.018768866856893,-2.900455951690674,1.6888761504236147e+18,0.7526147460937501,10.752348264058432,-2.8358936309814453,-8.15513833363851,1.6888761504236147e+18,0.7526147460937501,4.725001970926921,-5.61707067489624,-6.498329957326253,1.6888761504192934e+18,0.74829345703125,0.8005898197491964,2.371480703353882,-1.1349367300669353,1.6888761504236147e+18,0.7526147460937501,0.742455800374349,2.431090990702311,-0.9569203952948252,,,,,,,,,,,,1.688876150420038e+18,0.749037841796875,-33.022959518432614,25.15883903503418,30.65859909057617,1.688876150420038e+18,0.749037841796875,-288.64955444335936,120.01383819580079,-102.46780090332031,1.6888761504236147e+18,0.7526147460937501,-0.8258623480796814,0.4239050845305125,0.3060019314289093,0.21039395034313202,0.9856685598691305,0.6081266403198242,2.308643341064453
0.8,1.68887615046687e+18,0.7958700358072917,6.198224067687988,3.6401503880818686,-0.900824228922526,1.6888761504755208e+18,0.8045207519531251,9.03589646021525,-3.3003005981445312,-7.246663252512614,1.6888761504755208e+18,0.8045207519531251,3.7805599371592202,-5.496055603027344,-7.187366485595703,1.688876150471198e+18,0.8001981608072916,0.13001248488823572,2.8604273796081543,0.6041457255681356,1.6888761504755208e+18,0.8045207519531251,0.16534086161603537,2.8020389080047607,0.6879360675811768,,,,,,,,,,,,1.6888761504700406e+18,0.7990406738281249,-28.06487922668457,24.846519470214844,35.4556396484375,1.6888761504700406e+18,0.7990406738281249,-283.6914794921875,119.7015167236328,-97.67075958251954,1.6888761504755208e+18,0.8045207519531251,-0.8017230033874512,0.43305233120918274,0.36780516306559247,0.18447489043076828,1.1295477549235027,0.5931791265805563,2.306907812754313
0.85,1.6888761505187684e+18,0.8477683105468751,1.4082823594411213,1.250717560450236,-1.3875718116760254,1.6888761505274191e+18,0.856419189453125,5.000600496927897,-4.1214375495910645,-8.684350967407227,1.6888761505274191e+18,0.856419189453125,3.4155965646107993,-4.963966369628906,-7.737640857696533,1.6888761505230932e+18,0.8520932617187501,1.1558079520861309,1.19495423634847,1.3304644823074339,1.6888761505274191e+18,0.856419189453125,1.1931216319402058,1.1246029138565063,1.364214817682902,,,,,,,,,,,,1.6888761505200325e+18,0.8490325683593751,-24.609839248657227,22.1015193939209,39.39379959106445,1.6888761505200325e+18,0.8490325683593751,-280.23643798828124,116.9565185546875,-93.73259735107423,1.6888761505274191e+18,0.856419189453125,-0.7926393349965414,0.4094837506612142,0.4177597165107727,0.1712304403384526,1.196447769800822,0.5307849248250326,2.349816083908081
0.9,1.6888761505706683e+18,0.8996683756510416,-1.4001111189524333,1.1283109188079834,-3.848783810933431,1.6888761505706685e+18,0.8996687011718749,1.6917256116867065,-4.15035092830658,-12.292229175567627,1.6888761505706685e+18,0.8996687011718749,3.3353562355041504,-4.195022940635681,-8.212986469268799,1.6888761505749978e+18,0.9039979654947917,2.2736403942108154,1.1083641052246094,1.400001327196757,1.6888761505706685e+18,0.8996687011718749,2.2102631330490112,1.0790934562683105,1.4122440814971924,,,,,,,,,,,,1.688876150570034e+18,0.899033837890625,-24.238959503173827,16.977519607543947,42.29983901977539,1.688876150570034e+18,0.899033837890625,-279.8655578613281,111.83251647949218,-90.8265594482422,1.6888761505706685e+18,0.8996687011718749,-0.7884612381458282,0.3743354231119156,0.4543960690498352,0.1776538863778114,1.2244297862052917,0.4433072358369827,2.3845455646514893
0.95,1.6888761506225687e+18,0.9515687662760417,-8.167695760726929,0.264143705368042,6.2233626047770185,1.6888761506139292e+18,0.9429295247395834,-3.489533027013142,-2.683351198832194,-4.183650970458984,1.6888761506139292e+18,0.9429295247395834,3.023284117380778,-3.2175076802571616,-8.75534693400065,1.6888761506269018e+18,0.9559016113281249,1.04620856543382,0.8748099356889725,-0.7176648577054342,1.6888761506139292e+18,0.9429295247395834,1.7312938769658406,1.2766574422518413,0.20229822397232047,,,,,,,,,,,,1.6888761506200404e+18,0.9490404296874999,-21.733079528808595,11.358199882507325,45.32055892944336,1.6888761506200404e+18,0.9490404296874999,-277.35968017578125,106.21319732666015,-87.80583953857422,1.6888761506139292e+18,0.9429295247395834,-0.7730758190155029,0.34056172768274945,0.4967539111773173,0.19842112561066938,1.2758522033691406,0.3357020914554596,2.3893521626790366
1.0,1.6888761506744812e+18,1.0034812825520834,0.4181971549987793,-8.088144302368164,6.5045797030131025,1.6888761506658284e+18,0.9948282877604168,2.1928224563598633,-11.724830945332846,-0.3150549965600173,1.6888761506658284e+18,0.9948282877604168,2.6487297217051187,-3.1405447324117026,-8.907636642456055,1.6888761506701558e+18,0.9991556396484376,0.6734789460897446,0.0656680166721344,-1.617494821548462,1.6888761506658284e+18,0.9948282877604168,0.5894849598407745,0.01802051067352295,-1.745038390159607,,,,,,,,,,,,1.6888761506700344e+18,0.999034619140625,-20.093399429321288,11.638799667358398,45.52063903808594,1.6888761506700344e+18,0.999034619140625,-275.7199951171875,106.493798828125,-87.60575714111329,1.6888761506658284e+18,0.9948282877604168,-0.7521847685178121,0.3634198804696401,0.499914546807607,0.22817295789718625,1.3192375898361206,0.3241873780886332,2.300204356511434
1.05,1.6888761507263836e+18,1.0553837076822916,-1.4206352233886719,1.3569996356964111,0.4995228449503581,1.6888761507177306e+18,1.0467305501302084,0.9690931599276761,-2.9377879897753396,-7.789834022521973,1.6888761507177306e+18,1.0467305501302084,2.532074292500814,-2.7248435020446777,-9.076347986857096,1.6888761507134106e+18,1.0424105631510416,1.1622729500134785,-0.3803145190080007,-0.43447790543238324,1.6888761507177306e+18,1.0467305501302084,1.035416563351949,-0.4977024453692138,-0.40393464763959247,,,,,,,,,,,,1.6888761507200356e+18,1.049035693359375,-19.71275939941406,9.781959724426269,46.225798797607425,1.6888761507200356e+18,1.049035693359375,-275.33935546875,104.63695831298828,-86.90059814453124,1.6888761507177306e+18,1.0467305501302084,-0.7373496691385905,0.3648388584454854,0.5047489007314047,0.2614527841409047,1.3354889154434204,0.2776991228262583,2.2405417760213218
1.1,1.688876150778286e+18,1.1072862955729168,-2.243072271347046,-1.9614615440368652,-2.3683576583862305,1.6888761507696374e+18,1.0986373697916667,0.5601198871930441,-5.0654060045878095,-10.018548965454102,1.6888761507696374e+18,1.0986373697916667,2.520273288091024,-2.8378964265187583,-9.044658660888672,1.6888761507653056e+18,1.0943054199218751,-0.4973970303932826,-0.024790952603022266,-1.287245790163676,1.6888761507696374e+18,1.0986373697916667,-0.5867869754632313,-0.05599598586559296,-1.323694070180257,,,,,,,,,,,,1.6888761507700352e+18,1.0990353027343749,-20.251999282836913,10.44075984954834,46.054998779296874,1.6888761507700352e+18,1.0990353027343749,-275.87859497070315,105.29575653076172,-87.07139739990234,1.6888761507696374e+18,1.0986373697916667,-0.7316333850224813,0.38054656982421875,0.4932947059472402,0.27644362052281696,1.335585395495097,0.2880622148513794,2.1912052631378174
1.15,1.6888761508215409e+18,1.150541015625,1.6391249895095825,-0.11139965057373047,-6.478334903717041,1.688876150821536e+18,1.1505361328125001,3.9298123518625894,-4.866004308064778,-14.048461278279623,1.688876150821536e+18,1.1505361328125001,2.623370806376139,-3.355550448099772,-8.835982322692871,1.6888761508172116e+18,1.1462115071614585,-0.7707083026568095,-0.7457646330197653,-1.0272717078526814,1.688876150821536e+18,1.1505361328125001,-0.7674503723780314,-0.6505205904444059,-1.0548624793688457,,,,,,,,,,,,1.6888761508200333e+18,1.1490333984374999,-20.644839477539062,13.590799713134766,45.41327896118164,1.6888761508200333e+18,1.1490333984374999,-276.271435546875,108.44579772949218,-87.71312103271484,1.688876150821536e+18,1.1505361328125001,-0.7332626581192017,0.4076899290084839,0.465101699034373,0.28230488300323486,1.3189281225204466,0.3419640560944875,2.140469471613566
1.2,1.6888761508647854e+18,1.19378515625,-1.2857109705607097,-0.1591518719991048,0.19166946411132812,1.6888761508734344e+18,1.2024343261718748,0.3148555705944698,-5.36351203918457,-7.2574310302734375,1.6888761508734344e+18,1.2024343261718748,2.3945553302764893,-3.971202850341797,-8.642062822977701,1.688876150869118e+18,1.1981178385416666,-1.0501283009847004,-0.041640644272168494,-1.6695456107457478,1.6888761508734344e+18,1.2024343261718748,-1.0422888000806172,-0.10797043268879254,-1.7018705606460571,1.68887615087804e+18,1.2070400390625,0.0,0.0,1.2602412700653076,8.187999725341797,0.0106362728402018,0.0,20.299999237060547,-122.7500543,49.1930119,1.6888761508700308e+18,1.199030615234375,-19.75667953491211,16.889679527282716,44.37871780395508,1.6888761508700308e+18,1.199030615234375,-275.3832702636719,111.7446792602539,-88.74767761230468,1.6888761508734344e+18,1.2024343261718748,-0.7252628207206726,0.4455592731634776,0.4418038030465444,0.2829601267973581,1.3376084168752034,0.40747451782226557,2.073782046635946
1.25,1.688876150916694e+18,1.24569384765625,-2.1638179620107016,-0.26400184631347656,-1.171932061513265,1.6888761509253458e+18,1.2543456217447917,0.7894320686658224,-5.416353543599446,-9.37408192952474,1.6888761509253458e+18,1.2543456217447917,2.283963600794474,-4.592400550842285,-8.360625267028809,1.6888761509210115e+18,1.2500116373697916,-0.8227336804072062,-0.8956811825434366,-1.8015434344609578,1.6888761509253458e+18,1.2543456217447917,-0.8139270345369974,-0.8663087487220764,-1.7775160471598308,,,,,,,,,,,,1.6888761509200356e+18,1.249035595703125,-19.31015968322754,20.93763961791992,42.990359497070315,1.6888761509200356e+18,1.249035595703125,-274.93675537109374,115.79263763427734,-90.13603973388672,1.6888761509253458e+18,1.2543456217447917,-0.7173491915067037,0.4846092760562897,0.4046681523323059,0.2942422032356262,1.3411747217178345,0.4749029477437337,1.9837807416915894
1.3,1.6888761509685985e+18,1.297598388671875,-0.20632807413736975,-0.6404740015665691,-2.2436850865681968,1.688876150977244e+18,1.3062437337239583,1.307876964410146,-6.485546429951985,-9.848459243774414,1.688876150977244e+18,1.3062437337239583,1.950478474299113,-4.83885924021403,-8.304825782775879,1.6888761509729236e+18,1.3019235026041667,0.5343034466107687,0.32436944544315344,-1.4892385800679524,1.688876150977244e+18,1.3062437337239583,0.7906123399734497,0.4050036445260048,-1.459815224011739,,,,,,,,,,,,1.6888761509700357e+18,1.299035791015625,-18.04623947143555,23.589919662475587,41.95579986572265,1.6888761509700357e+18,1.299035791015625,-273.67283325195314,118.44491882324219,-91.17059936523438,1.688876150977244e+18,1.3062437337239583,-0.6993328332901001,0.5146660606066386,0.38768474260965985,0.30912158886591595,1.3761067787806194,0.5007068912188212,1.8947110970815022
1.35,1.688876151020497e+18,1.3494966634114585,-2.2351544896761575,1.8476510842641194,2.5230560302734375,1.6888761510205007e+18,1.349500732421875,-0.4169493317604065,-2.6886353492736816,-5.809474229812622,1.6888761510205007e+18,1.349500732421875,1.4351614117622375,-4.236293315887451,-8.728821754455566,1.6888761510248236e+18,1.3538235677083332,1.8128952980041504,0.7639379103978475,-1.0661125779151917,1.6888761510205007e+18,1.349500732421875,2.062815546989441,0.9501245617866517,-0.9917397201061249,,,,,,,,,,,,1.6888761510200384e+18,1.3490383789062501,-14.539959716796876,21.471999740600587,44.05419921875,1.6888761510200384e+18,1.3490383789062501,-270.166552734375,116.32699737548828,-89.07219696044922,1.6888761510205007e+18,1.349500732421875,-0.6657256484031677,0.5221300721168518,0.4106454998254776,0.339782178401947,1.4411676526069641,0.4291586875915527,1.81960791349411
1.4,1.6888761510724032e+18,1.401403076171875,-2.085315465927124,3.028067111968994,4.367783864339192,1.688876151063753e+18,1.3927530110677084,-1.9324036240577698,-2.5409782230854034,-3.10209521651268,1.688876151063753e+18,1.3927530110677084,1.1601418256759644,-3.953873952229818,-8.902609825134277,1.6888761510767278e+18,1.4057278645833335,0.020362178484598797,-0.4858414928118388,-0.8133670886357626,1.688876151063753e+18,1.3927530110677084,0.37232236626247556,-0.3044654279947281,-0.9846638639767965,,,,,,,,,,,,1.6888761510700337e+18,1.3990337402343749,-12.883199691772461,20.025079345703126,45.34251861572265,1.6888761510700337e+18,1.3990337402343749,-268.5097961425781,114.880078125,-87.78387756347657,1.688876151063753e+18,1.3927530110677084,-0.6441467007001241,0.5316383242607117,0.41502346595128375,0.36072303851445514,1.472904125849406,0.39577359954516084,1.7609790960947673
1.45,1.6888761511243062e+18,1.4533062337239582,-2.0099024375279746,4.768293857574463,3.799982229868571,1.6888761511156552e+18,1.4446552734375,0.022931218147277832,0.26620152841011685,-4.913063049316406,1.6888761511156552e+18,1.4446552734375,1.1573820908864338,-4.224564393361409,-8.774971008300781,1.6888761511286323e+18,1.4576323242187499,-2.0233892599741616,0.6589199751615524,0.4338670422633489,1.6888761511156552e+18,1.4446552734375,-1.390838364760081,0.3572034537792206,0.06118834080795451,,,,,,,,,,,,1.688876151120033e+18,1.449032958984375,-13.485879516601562,21.3914794921875,44.759358978271486,1.688876151120033e+18,1.449032958984375,-269.1124694824219,116.24647674560546,-88.36703796386719,1.6888761511156552e+18,1.4446552734375,-0.6447489460309347,0.5431617697079977,0.3996148904164632,0.35976821184158325,1.4713058869043987,0.4256836175918579,1.7372695207595825
1.5,1.6888761511762076e+18,1.5052077636718753,-7.159156799316406,-4.57574478785197,-1.1092098553975422,1.6888761511675564e+18,1.49655615234375,-6.19940463701884,-8.69232702255249,-6.168497244517009,1.6888761511675564e+18,1.49655615234375,1.1809134880701702,-5.365756511688232,-8.112099488576254,1.6888761511718812e+18,1.5008812255859376,-3.373808741569519,-0.769461140036583,1.1637746691703796,1.6888761511675564e+18,1.49655615234375,-3.2148310343424478,-0.5534439086914062,1.0745628476142883,,,,,,,,,,,,1.6888761511700337e+18,1.4990336914062499,-12.956399917602539,26.12751922607422,41.86795883178711,1.6888761511700337e+18,1.4990336914062499,-268.58298950195314,120.98251800537109,-91.25843963623046,1.6888761511675564e+18,1.49655615234375,-0.6750708222389221,0.5603888432184855,0.3736935754617055,0.29986053705215454,1.4608253637949626,0.5617218613624573,1.8001430829366047
1.55,1.688876151228109e+18,1.5571092122395835,5.171946167945862,-5.096670627593994,-5.024388949076335,1.6888761512194588e+18,1.5484586588541667,6.336792469024658,-13.3078826268514,-13.516257603963217,1.6888761512194588e+18,1.5484586588541667,1.8903425534566243,-6.092199643452962,-7.452820618947347,1.6888761512151316e+18,1.5441317545572915,-0.935489222407341,-0.5759441082676252,0.6037893891334534,1.6888761512194588e+18,1.5484586588541667,-0.7423030684391657,-0.18901193141937248,0.6417648593584696,,,,,,,,,,,,1.6888761512200364e+18,1.549036474609375,-16.599319839477538,29.997359848022462,37.65895996093751,1.6888761512200364e+18,1.549036474609375,-272.2259155273438,124.85235900878907,-95.46743774414062,1.6888761512194588e+18,1.5484586588541667,-0.7110708753267924,0.5561489661534628,0.328861395517985,0.27722715338071185,1.361233909924825,0.6543368697166443,1.8617947101593018
1.6,1.688876151271364e+18,1.6003641357421876,-0.5595836043357849,-0.3370866775512695,0.7869036197662352,1.6888761512713646e+18,1.60036474609375,0.9844471216201782,-7.7684981028238935,-6.05085023244222,1.6888761512713646e+18,1.60036474609375,1.73172394434611,-6.2071296374003095,-7.395802656809489,1.688876151267041e+18,1.5960409342447914,-0.7324783305327097,1.3197743495305378,1.0421870350837708,1.6888761512713646e+18,1.60036474609375,-0.8229881922403971,1.3066407839457195,1.0203994711240132,,,,,,,,,,,,1.688876151270037e+18,1.599037109375,-16.75547981262207,30.190119552612305,37.963958740234375,1.688876151270037e+18,1.599037109375,-272.3820739746094,125.0451171875,-95.16243896484374,1.6888761512713646e+18,1.60036474609375,-0.7175799210866293,0.551456868648529,0.34952489535013836,0.24215395251909888,1.3813679615656536,0.6716593106587728,1.9289748271306355
1.65,1.688876151314612e+18,1.6436120605468751,-4.02895724773407,-0.21718454360961914,-0.46385780970255536,1.6888761513232668e+18,1.6522666829427084,-2.571885585784912,-7.356334527333577,-6.181857347488403,1.6888761513232668e+18,1.6522666829427084,1.4022611776987712,-6.647836685180664,-7.073070526123047,1.688876151318945e+18,1.6479451497395834,-1.4549792210261028,1.2328787644704182,0.2846122980117798,1.6888761513232668e+18,1.6522666829427084,-1.4471397797266643,1.1574369271596272,0.2208277881145477,,,,,,,,,,,,1.6888761513200333e+18,1.6490333984374999,-14.76931972503662,31.817598724365233,37.13679962158203,1.6888761513200333e+18,1.6490333984374999,-270.3959106445312,126.67259979248047,-95.98959808349609,1.6888761513232668e+18,1.6522666829427084,-0.7201482454935709,0.5610942045847574,0.35886329412460327,0.19390576084454855,1.4186813831329346,0.7330094973246256,1.9789169232050579
1.7,1.6888761513665188e+18,1.6955188802083334,-4.4839926560719805,3.564152717590332,0.8434770107269287,1.6888761513751636e+18,1.7041637369791667,-2.9597222010294595,-3.186242659886678,-5.333402315775554,1.6888761513751636e+18,1.7041637369791667,1.4456366300582886,-7.14208968480428,-6.559047857920329,1.6888761513708454e+18,1.6998456217447917,-1.525737722714742,-1.4220433980226517,-0.2094249725341796,1.6888761513751636e+18,1.7041637369791667,-1.6933184663454695,-1.8006270825862885,-0.2104939830799897,,,,,,,,,,,,1.6888761513700372e+18,1.6990371582031252,-14.754679679870605,34.184400177001955,35.06767959594727,1.6888761513700372e+18,1.6990371582031252,-270.3812744140625,129.03939971923828,-98.05871887207032,1.6888761513751636e+18,1.7041637369791667,-0.7269981503486633,0.5747478405634562,0.33237626155217487,0.1739354381958643,1.39933443069458,0.8042866985003153,1.9846524000167847
1.75,1.688876151418422e+18,1.7474217936197916,-3.0339580376942954,0.3348209063212077,-0.09747854868570964,1.6888761514270656e+18,1.7560655924479167,0.12323035796483357,-11.471989154815674,-3.026721239089966,1.6888761514270656e+18,1.7560655924479167,2.3097705046335855,-8.083734035491943,-5.026173750559489,1.6888761514227438e+18,1.7517440592447917,-3.13735302289327,-4.155207236607869,-1.0905472040176392,1.6888761514270656e+18,1.7560655924479167,-2.884862025578817,-3.9835031032562256,-1.2901983261108398,,,,,,,,,,,,1.6888761514200353e+18,1.749035205078125,-19.544399642944335,38.82771987915039,26.89123954772949,1.6888761514200353e+18,1.749035205078125,-275.17099609375,133.6827178955078,-106.23515930175782,1.6888761514270656e+18,1.7560655924479167,-0.7572068174680074,0.5900296966234843,0.2141003906726837,0.1770899395147959,1.1933031876881917,0.9593890706698099,2.0036350091298423
1.8,1.6888761514703258e+18,1.7993255208333334,1.5400205453236897,-2.548231601715088,1.704122543334961,1.6888761514703252e+18,1.799325439453125,3.0807591155171394,-10.101899147033691,-2.7834509015083313,1.6888761514703252e+18,1.799325439453125,2.2103408575057983,-8.392887115478516,-4.572526216506958,1.688876151474647e+18,1.80364697265625,0.5815946360429128,0.0493273933728536,-0.4044436862071355,1.6888761514703252e+18,1.799325439453125,0.5448154509067535,0.04703661799430847,-0.4046982228755951,,,,,,,,,,,,1.6888761514700355e+18,1.79903564453125,-18.714799880981445,42.0851188659668,21.925839996337892,1.6888761514700355e+18,1.79903564453125,-274.3414001464844,136.94011840820312,-111.20055694580078,1.6888761514703252e+18,1.799325439453125,-0.7505817115306854,0.6088688373565674,0.16891577839851374,0.1933048591017723,1.1799134016036987,1.0135448575019836,1.9258042573928833
1.85,1.6888761515222239e+18,1.851223876953125,-2.501364787419637,4.917357126871745,0.08281461397806804,1.6888761515135788e+18,1.8425786946614584,-0.016550347208976746,-4.038486401240031,-3.5256248315175376,1.6888761515135788e+18,1.8425786946614584,2.123368422190348,-8.213577588399252,-4.9237799644470215,1.6888761515265544e+18,1.8555541992187499,0.4299982289473216,0.8932376901308695,0.3349577834208806,1.6888761515135788e+18,1.8425786946614584,0.7784968415896097,0.9272934397061666,0.22887084881464637,,,,,,,,,,,,1.6888761515200374e+18,1.8490375488281252,-18.726999282836914,41.11643905639649,23.960799407958984,1.6888761515200374e+18,1.8490375488281252,-274.3535888671875,135.971435546875,-109.16559753417968,1.6888761515135788e+18,1.8425786946614584,-0.7467447916666666,0.6059750517209371,0.19177712500095367,0.19574360549449918,1.2192456324895222,0.979087213675181,1.9165030717849731
1.9,1.6888761515741243e+18,1.903124267578125,0.5947310924530029,-0.5363039970397949,-0.7534766991933187,1.6888761515654817e+18,1.8944817708333332,1.6223337252934773,-8.15633487701416,-5.565506140391032,1.6888761515654817e+18,1.8944817708333332,2.133928378423055,-8.205140749613443,-4.934365749359131,1.6888761515784538e+18,1.9074536946614582,-0.8697702785332998,2.151060144106547,1.1494447787602742,1.6888761515654817e+18,1.8944817708333332,-0.9436850150426229,1.4821117520332336,1.0854057272275288,,,,,,,,,,,,1.6888761515700362e+18,1.89903623046875,-18.60743980407715,40.972479248046874,24.600079345703126,1.6888761515700362e+18,1.89903623046875,-274.234033203125,135.82747802734374,-108.5263168334961,1.6888761515654817e+18,1.8944817708333332,-0.7522542675336202,0.5999435186386108,0.21014899512132001,0.17252675195535025,1.2194385925928752,0.9795753955841064,1.977747877438863
1.95,1.688876151626034e+18,1.9550336914062498,-1.0968212683995566,5.44344425201416,0.12499340375264485,1.6888761516173796e+18,1.9463798014322915,1.5220346252123516,-4.068596124649048,-3.19720991452535,1.6888761516173796e+18,1.9463798014322915,1.8318738142649333,-8.22183609008789,-5.024815400441487,1.6888761516217132e+18,1.950713134765625,-0.08414668962359431,3.0967049598693848,0.4914410971105099,1.6888761516173796e+18,1.9463798014322915,-0.18753563115994135,3.0111075242360434,0.4953608016173045,,,,,,,,,,,,1.6888761516200335e+18,1.9490335449218752,-17.382559394836427,40.28927917480469,26.037239456176756,1.6888761516200335e+18,1.9490335449218752,-273.0091613769531,135.14427795410157,-107.08916015625,1.6888761516173796e+18,1.9463798014322915,-0.7519522309303284,0.594169537226359,0.26010845601558685,0.11574938893318171,1.2801819642384846,0.9859767357508341,2.0750834147135415
2.0,1.6888761516779364e+18,2.0069363606770834,-3.2899934450785318,5.704710960388184,0.34237027168273926,1.6888761516692856e+18,1.99828564453125,-2.604986230532328,-3.603989760080973,-3.5772698322931924,1.6888761516692856e+18,1.99828564453125,1.1296330094337463,-8.650659561157227,-4.462385654449463,1.6888761516649595e+18,1.9939593912760418,-2.419739087422689,-0.09626217683156331,-1.683799147605896,1.6888761516692856e+18,1.99828564453125,-2.6245315869649253,-0.18865555028120676,-1.6725490887959797,,,,,,,,,,,,1.688876151670038e+18,1.9990378906250001,-14.149559593200683,42.22663955688476,24.746479034423828,1.688876151670038e+18,1.9990378906250001,-269.7761535644531,137.08163757324218,-108.37991790771484,1.6888761516692856e+18,1.99828564453125,-0.7323931654294332,0.6269050637880961,0.25197068353494007,0.08072521537542339,1.3920470873514812,1.0716362794240315,2.0002381404240928
2.05,1.6888761517211817e+18,2.050181640625,-6.398864269256592,-12.450459003448486,-2.499642014503479,1.6888761517211901e+18,2.0501898600260415,-4.159124533335368,-19.213966528574627,-3.6977086067199707,1.6888761517211901e+18,2.0501898600260415,0.9390393098195394,-9.341166496276855,-2.785080909729004,1.6888761517168622e+18,2.045862223307292,-3.8769580523173013,-0.768061234926184,0.31159218152364093,1.6888761517211901e+18,2.0501898600260415,-3.9592722256978354,-1.0403035183747609,0.42989641924699146,,,,,,,,,,,,1.6888761517200315e+18,2.0490314453125,-12.197559547424316,46.25019836425781,17.20931930541992,1.6888761517200315e+18,2.0490314453125,-267.82415771484375,141.10519409179688,-115.91707916259766,1.6888761517211901e+18,2.0501898600260415,-0.7300034165382385,0.6567033529281616,0.18542879819869995,0.022822382859885665,1.3357046445210774,1.2561947504679363,2.039405584335327
2.1,1.688876151764433e+18,2.0934327799479164,-0.025350054105122883,-4.137826760609945,-0.36292755603790283,1.688876151773091e+18,2.10209130859375,1.5581263701121013,-10.846266587575277,0.5280162096023561,1.688876151773091e+18,2.10209130859375,1.1726897954940796,-9.705140431722006,-0.6296118317792813,1.6888761517687675e+18,2.0977676595052084,-3.6974146366119385,-3.6442184448242188,-0.42811472962299985,1.688876151773091e+18,2.10209130859375,-3.52805225054423,-3.5671984354654946,-0.5108360548814138,,,,,,,,,,,,1.6888761517700398e+18,2.099039794921875,-13.751839637756348,48.38275985717773,5.846239829063416,1.6888761517700398e+18,2.099039794921875,-269.37843627929686,143.23775634765624,-127.28015594482422,1.688876151773091e+18,2.10209130859375,0.2454864184061686,-0.22724243005116782,0.009595093627770801,0.0011415195961792665,0.6514753798643748,1.4381030003229778,2.573002815246582
2.15,1.6888761518163438e+18,2.1453438313802082,1.2382854620615642,2.759248733520508,-1.0182141462961833,1.6888761518249923e+18,2.1539921875,1.7621144851048787,-7.097510814666748,0.44466621428728104,1.6888761518249923e+18,2.1539921875,0.9779922763506571,-9.70953114827474,0.9114733537038168,1.6888761518206702e+18,2.1496702473958336,-2.786665439605713,-0.8549059530099233,-0.2551380495230357,1.6888761518249923e+18,2.1539921875,-2.8847602208455405,-0.5697845419247946,-0.17175495127836862,,,,,,,,,,,,1.6888761518200356e+18,2.1490357421875,-13.393159866333008,48.992758178710936,-3.4843199014663697,1.6888761518200356e+18,2.1490357421875,-269.01975708007814,143.84776000976564,-136.6107177734375,1.6888761518249923e+18,2.1539921875,0.7332940896352133,-0.6786483923594157,0.029169756919145532,0.020137062684322363,-0.6642352094252905,1.4615355730056763,-2.49015212059021
2.2,1.6888761518682432e+18,2.197243326822917,-1.7044936815897624,1.9123433430989583,-2.417642672856649,1.6888761518768945e+18,2.205894449869792,-1.183450182278951,-8.431110699971518,2.0063818295796714,1.6888761518768945e+18,2.205894449869792,1.0550116300582886,-9.363383611043295,2.673602819442749,1.6888761518725732e+18,2.2015730794270834,-3.776979843775431,-0.9212866127490997,0.3952298065026601,1.6888761518768945e+18,2.205894449869792,-3.745469331741333,-1.1893546283245087,0.386474072933197,,,,,,,,,,,,1.6888761518700365e+18,2.1990364257812502,-13.898239898681641,47.09687957763672,-13.1735595703125,1.6888761518700365e+18,2.1990364257812502,-269.52483520507815,141.9518798828125,-146.29996032714843,1.6888761518768945e+18,2.205894449869792,0.7320789297421774,-0.6687116225560507,0.09754461795091623,0.08067067215840017,-1.2291548252105713,1.3019079367319744,-1.9366038640340169
2.25,1.6888761519201457e+18,2.2491459147135413,-0.674463172753652,-7.088552157084147,5.731852372487386,1.68887615192015e+18,2.249150024414062,-0.3891327977180481,-18.008682250976562,11.944970607757568,1.68887615192015e+18,2.249150024414062,0.923888772726059,-9.07059621810913,3.619955897331238,1.6888761519244751e+18,2.2534753417968747,-0.3396919444203377,-2.5077036221822104,1.1609493792057037,1.68887615192015e+18,2.249150024414062,-0.08193230628967291,-2.4964535236358643,0.9208793342113495,1.6888761519160932e+18,2.24509326171875,0.0,0.0,1.2768223285675049,8.458999633789062,0.014637628570199,0.0,20.299999237060547,-122.7500536,49.1930126,1.6888761519200381e+18,2.249038134765625,-13.232119750976562,45.122918701171876,-20.6716796875,1.6888761519200381e+18,2.249038134765625,-268.8587158203125,139.97791748046876,-153.79807739257814,1.68887615192015e+18,2.249150024414062,0.7285333275794983,-0.6598862409591675,0.16528163850307465,0.07951306924223894,-1.3588005900382996,1.2092094421386719,-1.9061734676361084
2.3,1.6888761519720497e+18,2.3010494791666667,3.591361125310262,-0.6351165771484375,-0.5997296174367269,1.6888761519634045e+18,2.29240478515625,4.2749771277109785,-8.84925651550293,4.528018077214559,1.6888761519634045e+18,2.29240478515625,1.442430019378662,-8.950387954711914,3.7340304056803384,1.6888761519763784e+18,2.3053783365885416,-0.4693990449110667,-1.6099353830019634,3.013805548350016,1.6888761519634045e+18,2.29240478515625,-0.3955352455377578,-2.0570886929829917,2.8638381163279214,,,,,,,,,,,,1.6888761519700352e+18,2.2990353515625,-15.989319801330566,43.410038757324216,-22.772519683837892,1.6888761519700352e+18,2.2990353515625,-271.61591796875,138.2650360107422,-155.89891967773437,1.6888761519634045e+18,2.29240478515625,0.7508636713027954,-0.6258791287740072,0.2059273223082224,0.036619114379088,-1.2220958868662517,1.1810109217961628,-2.164302666982015
2.35,1.6888761520239547e+18,2.3529547526041665,0.5548383394877116,-3.1200501124064126,-2.069081703821818,1.688876152015302e+18,2.3443018391927084,2.9338000218073526,-11.546565691630045,2.662613312403361,1.688876152015302e+18,2.3443018391927084,2.362084150314331,-8.67693297068278,3.9180374145507812,1.6888761520282796e+18,2.3572794596354165,0.510377916196982,-0.46385033925374347,1.1905254522959392,1.688876152015302e+18,2.3443018391927084,0.20876320203145346,-0.5723298291365305,1.5871297319730122,,,,,,,,,,,,1.688876152020039e+18,2.3490389160156253,-20.103159713745118,41.382398986816405,-23.826599502563475,1.688876152020039e+18,2.3490389160156253,-275.72974853515626,136.23739624023438,-156.95299682617187,1.688876152015302e+18,2.3443018391927084,0.2581995129585266,-0.19654899835586548,0.07615476846694944,0.008811073765779467,-1.0242865482966106,1.117497404416402,-2.4447216987609863
2.4,1.688876152075859e+18,2.4048588867187504,-3.0601614316304526,-1.1894652048746746,-1.3792925675710042,1.6888761520672084e+18,2.396208658854167,-0.7663014431794485,-10.20818010965983,2.712065060933431,1.6888761520672084e+18,2.396208658854167,2.8838565349578857,-8.630941390991211,3.6568686962127686,1.688876152071534e+18,2.400534057617188,0.8119162619113922,-0.48808132112026215,1.9824868440628052,1.6888761520672084e+18,2.396208658854167,0.7981463472048441,-0.4730133314927419,1.8389079968134563,,,,,,,,,,,,1.6888761520700344e+18,2.39903447265625,-21.901439666748047,40.46251907348633,-22.64807968139649,1.6888761520700344e+18,2.39903447265625,-277.5280334472656,135.31751708984376,-155.77447814941405,1.6888761520672084e+18,2.396208658854167,-0.8003578782081604,0.5516753196716309,-0.23291359345118204,0.023915243955949902,-0.8877171476682028,1.1064486503601074,-2.629334290822347
2.45,1.6888761521277535e+18,2.456753743489583,-0.7296607494354248,1.341609795888265,1.523607571919759,1.688876152119111e+18,2.4481109212239582,1.9645074233412743,-7.197411060333252,5.389434178670247,1.688876152119111e+18,2.4481109212239582,3.892835776011149,-8.240692774454752,3.6108619372049966,1.6888761521147832e+18,2.4437832031249997,0.3325143034259478,-1.3578007221221924,3.2097405592600503,1.688876152119111e+18,2.4481109212239582,0.2686788989230991,-1.4095715284347534,3.2834516366322837,,,,,,,,,,,,1.6888761521200358e+18,2.44903583984375,-25.968919372558595,38.205519104003905,-22.98235969543457,1.6888761521200358e+18,2.44903583984375,-281.59551391601565,133.06051330566407,-156.10875549316407,1.688876152119111e+18,2.4481109212239582,-0.8304372032483419,0.4944317837556203,-0.24594230453173316,0.06865121051669117,-0.7217488288879395,1.0260814627011616,-2.8862686157226562
2.5,1.688876152171012e+18,2.50001220703125,2.117802381515503,1.7508540153503418,0.8234403133392334,1.688876152171014e+18,2.5000138346354164,6.311069806416829,-5.795017560323079,5.479962666829427,1.688876152171014e+18,2.5000138346354164,4.999752362569173,-7.389725685119629,4.056575695673625,1.688876152166686e+18,2.49568603515625,-0.5158247947692871,-1.4031574726104736,3.3838370641072593,1.688876152171014e+18,2.5000138346354164,-0.5898412863413492,-1.3525065581003826,3.344487269719442,,,,,,,,,,,,1.6888761521700337e+18,2.49903349609375,-30.807439422607423,33.432879257202146,-25.163719940185548,1.6888761521700337e+18,2.49903349609375,-286.4340393066406,128.28787689208986,-158.2901153564453,1.688876152171014e+18,2.5000138346354164,-0.8613923192024231,0.4128197729587555,-0.2750053703784942,0.10616772125164665,-0.6519915262858073,0.8789568344751993,-3.071160157521566
2.55,1.6888761522142638e+18,2.543263671875,1.8336159388224285,-0.8402996063232422,-1.382187287012736,1.6888761522229166e+18,2.5519166666666666,6.818148771921794,-7.766902923583984,4.179264148076375,1.6888761522229166e+18,2.5519166666666666,5.8742750485738116,-6.366980870564778,4.589500109354655,1.6888761522185884e+18,2.54758837890625,-0.9026552041371664,-0.5873469312985738,2.711478074391683,1.6888761522229166e+18,2.5519166666666666,-0.8672759135564169,-0.5332853496074677,2.6633724371592202,,,,,,,,,,,,1.688876152220038e+18,2.5490380859375,-34.16731948852539,27.69887924194336,-27.947759246826173,1.688876152220038e+18,2.5490380859375,-289.7939086914063,122.55387725830079,-161.07415771484375,1.6888761522229166e+18,2.5519166666666666,-0.8863521814346313,0.33661213517189026,-0.29421189427375793,0.11881856371959047,-0.6350601514180502,0.7299993435541788,1.0307443936665852
2.6,1.6888761522661683e+18,2.59516845703125,-0.0775896708170573,-0.11742782592773439,-0.8868144353230795,1.6888761522748163e+18,2.6038162434895837,5.3720862865448,-5.522435347239177,4.404388904571533,1.6888761522748163e+18,2.6038162434895837,6.444761753082275,-5.467936356862386,4.973114172617595,1.688876152270495e+18,2.599495035807292,-0.5511022408803304,-0.640034039815267,2.118836998939514,1.6888761522748163e+18,2.6038162434895837,-0.5456553896268209,-0.6622797250747681,2.0501146713892617,,,,,,,,,,,,1.6888761522700355e+18,2.59903564453125,-36.38527908325195,22.40651969909668,-29.53619956970215,1.6888761522700355e+18,2.59903564453125,-292.0118774414062,117.26151885986329,-162.66259765625,1.6888761522748163e+18,2.6038162434895837,-0.9021570881207784,0.2753834128379821,-0.3059660991032918,0.12811075647672013,-0.6298736929893494,0.6131296555201212,3.0649990240732827
2.65,1.688876152318071e+18,2.6470712890625,2.23111629486084,-0.25148455301920564,-0.6665271123250326,1.6888761523267197e+18,2.6557198079427082,8.400801340738932,-5.355934778849284,5.340580781300862,1.6888761523267197e+18,2.6557198079427082,6.702985763549805,-4.932798544565837,5.193086624145508,1.6888761523223933e+18,2.6513934733072917,-0.06510805090268451,-0.22011511299448708,0.9215411146481832,1.6888761523267197e+18,2.6557198079427082,0.008603027187443083,-0.16187928865353265,0.80522221326828,,,,,,,,,,,,1.6888761523200343e+18,2.6490343261718747,-37.20512008666992,18.600119400024415,-31.146599578857423,1.6888761523200343e+18,2.6490343261718747,-292.83171997070315,113.45511779785156,-164.272998046875,1.6888761523267197e+18,2.6557198079427082,-0.9086126089096069,0.23919582863648728,-0.3136893113454183,0.13703076541423792,-0.6322393218676249,0.5476109385490417,3.025460640589396
2.7,1.6888761523699743e+18,2.6989742838541666,1.7248934110005696,2.1295057932535806,-0.7101540565490723,1.6888761523786217e+18,2.7076216634114583,7.625128110249837,-2.892124970753988,4.68474801381429,1.6888761523786217e+18,2.7076216634114583,6.746745904286702,-5.062008698781331,5.007062117258708,1.6888761523742966e+18,2.7032965494791665,0.7519242167472839,0.297491376598676,-0.40072760358452797,1.6888761523786217e+18,2.7076216634114583,0.8034914334615072,0.33052899936834973,-0.4861469219128291,,,,,,,,,,,,1.688876152370034e+18,2.6990337890625,-37.85171813964844,18.421999740600587,-31.19783935546875,1.688876152370034e+18,2.6990337890625,-293.4783142089844,113.27699737548828,-164.32423706054686,1.6888761523786217e+18,2.7076216634114583,-0.907703677813212,0.24292997519175208,-0.3073953290780385,0.1500205248594284,-0.6107405026753744,0.5624484221140543,2.995569626490275
2.75,1.6888761524218737e+18,2.7508736165364582,-0.7578223546346029,3.68782114982605,-2.0011932849884033,1.6888761524218762e+18,2.7508760986328125,5.582156181335449,-2.217548429965973,3.3562328815460205,1.6888761524218762e+18,2.7508760986328125,6.621999263763428,-5.5356574058532715,4.6605119705200195,1.688876152426202e+18,2.7552020670572914,1.1376347144444783,0.2889392574628194,-1.1519900560379028,1.6888761524218762e+18,2.7508760986328125,1.1577423214912415,0.34926219284534454,-1.1665999293327332,1.6888761524351135e+18,2.764113525390625,0.0,0.0,1.2768223285675049,8.79699993133545,0.0228286497294902,0.0,20.299999237060547,-122.7500526,49.1930129,1.6888761524200356e+18,2.7490355957031247,-37.16607894897461,21.35,-29.59963912963867,1.6888761524200356e+18,2.7490355957031247,-292.79267578125,116.20499725341797,-162.72603759765624,1.6888761524218762e+18,2.7508760986328125,-0.9014838337898254,0.2679954171180725,-0.2977207601070404,0.1637436524033546,-0.5841945707798004,0.619604229927063,2.9741151332855225
2.8,1.6888761524737795e+18,2.802779541015625,-2.651637156804403,3.87375815709432,-2.658867359161377,1.6888761524651274e+18,2.794127197265625,3.2047870556513467,-1.5529419581095378,1.4496516982714336,1.6888761524651274e+18,2.794127197265625,6.382313092549642,-6.122780164082845,4.232529004414876,1.6888761524781064e+18,2.807106038411458,1.2284500201543171,1.705637623866399,-1.3442598779996235,1.6888761524651274e+18,2.794127197265625,1.2355767885843914,1.0795516495903332,-1.4481578667958577,,,,,,,,,,,,1.6888761524700357e+18,2.799035595703125,-36.41699981689453,25.595599746704103,-26.793639373779296,1.6888761524700357e+18,2.799035595703125,-292.04359741210936,120.45059814453126,-159.92003784179687,1.6888761524651274e+18,2.794127197265625,-0.8919357260068258,0.30226154128710425,-0.286260465780894,0.17568288246790562,-0.5541270971298218,0.6943945288658142,2.9574288527170816
2.85,1.6888761525256827e+18,2.854682779947917,-0.767869790395101,1.9632346630096436,5.888224204381307,1.6888761525170296e+18,2.846029541015625,5.07517671585083,-5.439683437347412,9.741978645324707,1.6888761525170296e+18,2.846029541015625,6.271032015482585,-6.742802143096924,3.37475315729777,1.6888761525213588e+18,2.850358764648438,0.35430184006690973,0.8800277411937714,-1.7098118662834167,1.6888761525170296e+18,2.846029541015625,0.5087998410065969,1.4495831926663716,-1.5463035504023235,,,,,,,,,,,,1.688876152520036e+18,2.8490360839843754,-36.26571960449219,29.438599395751954,-22.211319351196288,1.688876152520036e+18,2.8490360839843754,-291.89231567382814,124.29359893798828,-155.3377197265625,1.6888761525170296e+18,2.846029541015625,-0.8878043492635092,0.3465171853701274,-0.24652118980884552,0.17541750768820438,-0.46008562048276264,0.7780704100926717,2.942840019861857
2.9,1.688876152577584e+18,2.906584228515625,-3.0538106759389243,-3.809015909830729,1.7158989906311035,1.6888761525689352e+18,2.8979348958333335,1.0263214906056721,-10.620543162027994,5.317051251729329,1.6888761525689352e+18,2.8979348958333335,5.491602102915446,-7.650015989939372,2.7032463550567627,1.688876152564609e+18,2.8936092122395833,0.14966198305288944,2.625753402709961,-3.5246415932973227,1.6888761525689352e+18,2.8979348958333335,0.14401147718308493,2.6819020907084146,-3.6157623132069907,,,,,,,,,,,,1.6888761525700378e+18,2.89903779296875,-33.86231880187988,34.39179992675781,-18.719679641723634,1.6888761525700378e+18,2.89903779296875,-289.48890380859376,129.24679565429688,-151.84607543945313,1.6888761525689352e+18,2.8979348958333335,-0.8695634007453918,0.4214826126893361,-0.2115011612574259,0.14286994437376657,-0.42081473271052044,0.9179524580637614,3.0262677669525146
2.95,1.6888761526208394e+18,2.9498392333984373,1.214134693145752,-2.046701431274414,2.6465893983840942,1.688876152620839e+18,2.949839029947917,5.2885368665059405,-10.66341463724772,5.063013235727946,1.688876152620839e+18,2.949839029947917,4.066300710042317,-8.673770268758139,2.026820659637451,1.6888761526165102e+18,2.94551025390625,-0.31327205896377563,2.9977702299753823,-4.527478615442912,1.688876152620839e+18,2.949839029947917,-0.3649919827779134,2.971604903539022,-4.71883225440979,,,,,,,,,,,,1.6888761526200358e+18,2.9490359375,-28.413799285888672,40.552799224853516,-14.137359809875488,1.6888761526200358e+18,2.9490359375,-284.0404052734375,135.4077941894531,-147.26375427246094,1.688876152620839e+18,2.949839029947917,-0.8324201305707296,0.5215985973676046,-0.16147157053152716,0.08557657649119692,-0.4272308051586151,1.1134946743647258,-0.9812448024749756
3.0,1.6888761526640904e+18,2.9930902506510417,-0.3311092058817546,-0.7213813463846842,-0.5449704726537069,1.6888761526727386e+18,3.001738525390625,-1.331207126379013,-12.376476287841797,1.9020945789913337,1.6888761526727386e+18,3.001738525390625,1.4747012257575989,-9.457607587178549,1.9916379849116008,1.6888761526684168e+18,2.997416748046875,-1.2687161962191265,4.265773773193359,-6.772713820139567,1.6888761526727386e+18,3.001738525390625,-1.3996450106302898,4.6466991901397705,-6.834971110026042,,,,,,,,,,,,1.6888761526700393e+18,2.9990392089843754,-17.309359741210937,46.677198791503905,-12.436679649353028,1.6888761526700393e+18,2.9990392089843754,-272.9359497070312,141.53219604492188,-145.56307678222657,1.6888761526727386e+18,3.001738525390625,0.22744439045588175,-0.24550445874532065,0.02268795669078827,0.0313694668390477,-0.9951249758402506,1.332979957262675,-2.298640727996826
3.05,1.6888761527159898e+18,3.044989501953125,-16.95224603017171,-22.699231147766113,-4.788401444753011,1.688876152724641e+18,3.053641031901042,-15.362320264180502,-30.8323179880778,-1.6329020659128826,1.688876152724641e+18,3.053641031901042,-0.8164722770452499,-9.477774620056152,2.3393083413441977,1.6888761527203156e+18,3.04931591796875,-0.43152541170517605,2.2169318199157715,-4.554305871327718,1.688876152724641e+18,3.053641031901042,-0.35053485631942743,0.9259699185689291,-4.409683545430501,,,,,,,,,,,,1.6888761527200356e+18,3.049035595703125,-6.165879964828491,49.44171981811523,-12.297599792480469,1.6888761527200356e+18,3.049035595703125,-261.79248046875,144.29671630859374,-145.4239990234375,1.688876152724641e+18,3.053641031901042,0.65798952182134,-0.742936392625173,0.0427917720129092,0.11127274980147676,-2.0099136432011924,1.3164716164271038,-1.0339929262797039
3.1,1.6888761527678925e+18,3.0968924967447915,19.47130807240804,-4.236908594767253,3.436568816502889,1.688876152776545e+18,3.1055450032552083,18.84108559290568,-10.846465746561686,7.2725857098897295,1.688876152776545e+18,3.1055450032552083,-2.61217466990153,-9.167550404866537,2.3071533838907876,1.6888761527722207e+18,3.1012206217447917,-0.9754499991734823,-2.6841926574707036,-2.1166481177012124,1.688876152776545e+18,3.1055450032552083,-0.9451612631479899,-1.6120223850011826,-1.816000521183014,,,,,,,,,,,,1.6888761527700352e+18,3.099035302734375,5.326519870758057,49.06107864379883,-12.895399856567384,1.6888761527700352e+18,3.099035302734375,-250.30007629394532,143.91607971191405,-146.02179870605468,1.688876152776545e+18,3.1055450032552083,0.5935889681180319,-0.7956909735997518,0.10543158898750937,0.05596090977390603,-2.5040324529012046,1.2029056946436565,-0.7087254325548807
3.15,1.688876152819793e+18,3.1487928873697917,7.461066842079163,7.3925778071085615,-7.716700633366902,1.688876152828446e+18,3.1574461263020837,6.344369888305664,-1.6811573505401611,-6.590431749820709,1.688876152828446e+18,3.1574461263020837,-2.812741676966349,-8.971475919087728,2.7954318523406982,1.6888761528241254e+18,3.1531254069010415,-0.34208454315861064,1.2516120026508968,-0.21762075523535404,1.688876152828446e+18,3.1574461263020837,-0.26328290998935705,1.1597785577178001,0.05945758024851481,,,,,,,,,,,,1.6888761528200335e+18,3.149033447265625,8.598559665679932,48.248558807373044,-14.937679672241211,1.6888761528200335e+18,3.149033447265625,-247.02803649902344,143.1035583496094,-148.06408081054687,1.688876152828446e+18,3.1574461263020837,0.5784834623336792,-0.8043588598569235,0.09213580191135402,0.09903909265995024,-2.433717727661133,1.1490521828333538,-0.6978990435600281
3.2,1.6888761528717002e+18,3.2007001953125,4.034839193026225,3.0891952514648438,-9.714603900909424,1.688876152871701e+18,3.200700805664063,0.2724827527999878,-6.494419813156128,-5.741577982902527,1.688876152871701e+18,3.200700805664063,-2.123486638069153,-9.151234149932861,2.820500135421753,1.6888761528760282e+18,3.205028076171875,0.6798930068810781,1.4302391409873962,1.510109782218933,1.688876152871701e+18,3.200700805664063,0.601015031337738,1.8933768272399902,1.3927727341651917,,,,,,,,,,,,1.6888761528700326e+18,3.1990326660156247,5.177680015563965,48.52915954589844,-14.91083984375,1.6888761528700326e+18,3.1990326660156247,-250.44891662597655,143.3841552734375,-148.03723754882813,1.688876152871701e+18,3.200700805664063,0.6037262678146362,-0.7851663529872894,0.06933110952377314,0.1188442632555961,-2.3016122579574585,1.1988863945007324,-0.7687278091907501
3.25,1.6888761529236037e+18,3.252603759765625,2.283185084660848,7.644431432088216,-1.1941252549489338,1.6888761529149522e+18,3.243952311197917,1.2793624897797902,-0.7202396194140116,1.2881361444791157,1.6888761529149522e+18,3.243952311197917,-1.133760929107666,-9.406456311543783,2.4961182276407876,1.688876152927927e+18,3.2569270833333337,0.7766642570495605,0.34045556435982377,3.563075065612793,1.6888761529149522e+18,3.243952311197917,0.8821912407875061,0.296320545176665,2.9999592304229736,,,,,,,,,,,,1.688876152920036e+18,3.2490360839843744,-0.9808800041675567,49.13915863037109,-13.478559494018555,1.688876152920036e+18,3.2490360839843744,-256.60747680664065,143.99415893554686,-146.6049591064453,1.6888761529149522e+18,3.243952311197917,0.645047664642334,-0.7536422411600748,0.054683004816373136,0.11098660031954444,-2.095121145248413,1.2872436046600342,-0.966001550356547
3.3,1.6888761529755082e+18,3.304507893880208,-1.7283000946044922,-7.104077974955241,1.2104288736979167,1.6888761529668575e+18,3.2958572591145834,-1.405384510755539,-14.2438751856486,3.4313077131907144,1.6888761529668575e+18,3.2958572591145834,0.9282922943433126,-9.50532595316569,2.1422263383865356,1.6888761529711834e+18,3.300183349609375,1.053818941116333,-0.7150177657604218,4.971603155136108,1.6888761529668575e+18,3.2958572591145834,0.9382381041844686,-0.5281439100702604,4.783940315246582,1.6888761529541343e+18,3.28313427734375,0.0,0.0,1.2226094007492063,9.184000015258787,0.0340824984014034,0.0,20.299999237060547,-122.7500513,49.1930131,1.6888761529700375e+18,3.2990375,-11.228879833221436,48.2705192565918,-11.69003963470459,1.6888761529700375e+18,3.2990375,-266.8554748535156,143.12551574707032,-144.81643676757812,1.6888761529668575e+18,3.2958572591145834,0.7249654531478882,-0.6797757148742676,0.05507285520434373,0.08912536750237143,-1.2547134558359783,1.3455494244893391,-1.838417649269104
3.35,1.6888761530274066e+18,3.3564067382812497,2.019744555155436,-28.876753489176433,9.557439963022867,1.6888761530187602e+18,3.34776025390625,4.193421681722005,-35.820953369140625,12.58684508005778,1.6888761530187602e+18,3.34776025390625,3.1267327467600503,-9.09420903523763,1.8680510918299358,1.6888761530144284e+18,3.3434283854166664,0.23172155022621146,0.26654086510340375,4.141309976577759,1.6888761530187602e+18,3.34776025390625,0.21517727772394815,0.400065819422404,4.105319976806641,,,,,,,,,,,,1.688876153020038e+18,3.349037939453125,-22.50411949157715,44.99115905761719,-10.540799713134765,1.688876153020038e+18,3.349037939453125,-278.13071899414064,139.84615478515624,-143.66719665527344,1.6888761530187602e+18,3.34776025390625,0.8022387027740479,-0.5898980299631754,0.06261189281940456,0.0617942350606123,-0.5403353571891785,1.2198522488276164,-2.6024042765299478
