seconds_elapsed_rounded,accelerometer_time,accelerometer_seconds_elapsed,accelerometer_z,accelerometer_y,accelerometer_x,accelerometeruncalibrated_time,accelerometeruncalibrated_seconds_elapsed,accelerometeruncalibrated_z,accelerometeruncalibrated_y,accelerometeruncalibrated_x,gravity_time,gravity_seconds_elapsed,gravity_z,gravity_y,gravity_x,gyroscope_time,gyroscope_seconds_elapsed,gyroscope_z,gyroscope_y,gyroscope_x,gyroscopeuncalibrated_time,gyroscopeuncalibrated_seconds_elapsed,gyroscopeuncalibrated_z,gyroscopeuncalibrated_y,gyroscopeuncalibrated_x,location_time,location_seconds_elapsed,location_bearingAccuracy,location_speedAccuracy,location_verticalAccuracy,location_horizontalAccuracy,location_speed,location_bearing,location_altitude,location_longitude,location_latitude,magnetometer_time,magnetometer_seconds_elapsed,magnetometer_z,magnetometer_y,magnetometer_x,magnetometeruncalibrated_time,magnetometeruncalibrated_seconds_elapsed,magnetometeruncalibrated_z,magnetometeruncalibrated_y,magnetometeruncalibrated_x,orientation_time,orientation_seconds_elapsed,orientation_qz,orientation_qy,orientation_qx,orientation_qw,orientation_roll,orientation_pitch,orientation_yaw
0.0,1.6887023569789952e+18,44.993995117187495,0.2694464921951294,3.8426087697347007,2.3312276800473533,1.6887023569789952e+18,44.993995117187495,-2.191825504104296,-5.651448170344035,1.8099709637463093,1.6887023569789952e+18,44.993995117187495,-2.46711802482605,-9.47655232747396,-0.5839441021283468,1.6887023569876467e+18,45.00264640299479,1.5419257084528606,3.5873061418533325,0.298916737238566,1.6887023569919762e+18,45.00697615559896,1.714647889137268,3.997451305389404,0.3351614077885945,,,,,,,,,,,,1.6887023569891156e+18,45.0041154296875,1.149239981174469,47.77519989013672,-16.604199409484863,1.6887023569891156e+18,45.0041154296875,-253.391552734375,143.24019470214844,-149.8159973144531,1.6887023569789952e+18,44.993995117187495,-0.4865551988283793,0.6622878511746725,-0.4333272576332092,0.3690348267555237,2.883021672566732,1.305081844329834,-0.9607351223627726
0.05,1.6887023570308928e+18,45.045892659505206,-6.526426951090495,-19.004972139994305,8.584698994954428,1.6887023570308928e+18,45.045892659505206,-9.221739133199057,-28.399216016133625,7.688338756561279,1.6887023570308928e+18,45.045892659505206,-2.701158364613851,-9.376739184061686,-0.9590478738149008,1.6887023570395423e+18,45.05454264322916,2.5950064659118652,6.863631089528401,-1.1525499485433102,1.6887023570352154e+18,45.05021557617188,3.010343909263611,6.872539281845093,-1.0269408524036407,,,,,,,,,,,,1.68870235703911e+18,45.05411015625,-2.7645199298858643,49.26116027832031,-10.399279689788818,1.68870235703911e+18,45.05411015625,-257.305322265625,144.72615966796874,-143.61107788085937,1.6887023570308928e+18,45.045892659505206,-0.5159047245979309,0.728479822476705,-0.3274129927158355,0.3049465219179789,2.782376289367676,1.266789197921753,-0.5808331072330475
0.1,1.6887023570827978e+18,45.0977977701823,-3.069671710332235,-17.144510904947918,1.0268428723017375,1.6887023570827978e+18,45.0977977701823,-6.93041197458903,-26.1565424601237,0.8275178372859956,1.6887023570827978e+18,45.0977977701823,-3.866586208343506,-8.994527180989584,-0.2620124717553456,1.688702357091447e+18,45.106447102864585,-1.6733126044273376,4.792237917582194,-1.858099341392517,1.6887023570784717e+18,45.09347184244792,-0.6649268269538879,5.947434902191162,-1.930639624595642,,,,,,,,,,,,1.68870235708911e+18,45.10411005859375,-1.422519958019257,49.40999908447266,-8.471679782867431,1.68870235708911e+18,45.10411005859375,-255.96331787109375,144.8749969482422,-141.68347778320313,1.6887023570827978e+18,45.0977977701823,-0.5188446243604025,0.8046575586001078,-0.2302425354719161,0.1691496123870213,0.9592558542887368,1.1525315443674724,-0.4980385899543762
0.15,1.6887023571347023e+18,45.14970231119792,-0.0201128323872884,-2.246179739634196,-6.256984869639079,1.6887023571347023e+18,45.14970231119792,-5.366702397664388,-10.354740778605144,-5.214957634607951,1.6887023571347023e+18,45.14970231119792,-5.35243558883667,-8.09105634689331,0.9793396790822348,1.6887023571347016e+18,45.14970178222656,-4.150523900985718,-4.662887156009674,-5.42578125,1.688702357130377e+18,45.14537687174479,-3.8897862434387207,-3.5636861324310303,-4.973715662956238,,,,,,,,,,,,1.688702357139109e+18,45.154109179687495,7.227279689908028,46.71867904663086,-15.242679595947266,1.688702357139109e+18,45.154109179687495,-247.31351623535156,142.18367919921874,-148.45447692871093,1.6887023571347023e+18,45.14970231119792,-0.4596607685089111,0.8309390743573507,-0.2877147843440373,0.0990925580263137,-2.967186133066813,0.9718908468882242,-0.7587001721064249
0.2,1.6887023571866068e+18,45.201606608072915,44.58443705240885,-10.03705883026123,-0.9147941867510476,1.6887023571866068e+18,45.201606608072915,37.13740507761637,-16.413566907246906,-1.126820037762324,1.6887023571866068e+18,45.201606608072915,-7.452878634134929,-6.35900338490804,-0.2747132182121277,1.6887023571779576e+18,45.19295768229167,-4.0920844078063965,-6.732600371042888,-3.5783468882242837,1.6887023571822828e+18,45.197282714843745,-3.829107125600179,-5.271461804707845,-2.42890202999115,,,,,,,,,,,,1.6887023571891098e+18,45.204109765625006,29.1750789642334,38.617879486083986,-16.733519554138184,1.6887023571891098e+18,45.204109765625006,-225.36571655273437,134.08287658691407,-149.94531860351563,1.6887023571866068e+18,45.201606608072915,-0.2871526380379994,0.811259925365448,-0.4716586073239644,0.1897022128105162,0.9997056325276692,0.7008335987726847,-1.0364725987116497
0.25,1.6887023572385108e+18,45.2535107421875,-1.4058632850646973,1.9406065940856936,-4.537049611409505,1.6887023572385108e+18,45.2535107421875,-7.904290835062663,-5.314658323923747,-3.324827035268148,1.6887023572385108e+18,45.2535107421875,-6.504273573557536,-7.237760225931804,1.149535059928894,1.688702357229859e+18,45.24485904947917,-1.1516336997350056,2.4534384657939277,3.101006507873535,1.6887023572341857e+18,45.24918562825521,-1.0065022905667622,1.873727242151896,3.196199655532837,,,,,,,,,,,,1.688702357239111e+18,45.254110888671875,21.447599411010746,39.23275985717773,-23.323958969116212,1.688702357239111e+18,45.254110888671875,-233.09319152832032,134.6977569580078,-156.53575744628907,1.6887023572385108e+18,45.2535107421875,-0.3746200899283091,0.7771026889483134,-0.4788914819558461,0.160705139239629,-2.978089968363444,0.8278079231580099,-1.17737611134847
0.3,1.688702357290416e+18,45.30541569010416,1.9012332757314043,8.887678941090902,-4.000924746195476,1.688702357290416e+18,45.30541569010416,-3.3922248681386313,0.6753741999467214,-3.0255247751871743,1.688702357290416e+18,45.30541569010416,-5.299304167429606,-8.194800217946371,0.9127125938733416,1.6887023572817633e+18,45.296763264973954,-0.4455752869447072,-2.122807582219442,3.2630894978841147,1.6887023572860948e+18,45.301094726562496,-0.4892012476921081,-2.3109031915664673,3.216663678487142,1.6887023572687954e+18,45.28379541015625,0.0,0.0,1.1268864870071411,7.389999866485596,2.7679741382598877,55.0626220703125,43.400001525878906,-122.7526093,49.1875156,1.6887023572891095e+18,45.30410947265625,15.46471996307373,41.628839111328126,-23.497199630737303,1.6887023572891095e+18,45.30410947265625,-239.07607421875,137.09383850097657,-156.70899658203126,1.688702357290416e+18,45.30541569010416,-0.422559102376302,0.7304794987042745,-0.4872479438781738,0.2226925293604532,-2.9833134015401206,0.9883601268132528,-1.2618038654327393
0.35,1.6887023573423206e+18,45.35732071940104,4.296390930811564,4.842322031656901,-6.646877765655518,1.6887023573423206e+18,45.35732071940104,0.0303091282645861,-3.980460325876872,-5.975875059763591,1.6887023573423206e+18,45.35732071940104,-4.271927833557129,-8.805277824401855,0.6083154678344727,1.6887023573336668e+18,45.34866682942709,-1.816916823387146,-3.682957410812378,2.4907521406809487,1.6887023573379963e+18,45.352996500651045,-1.867822329203288,-3.644829273223877,2.42722217241923,,,,,,,,,,,,1.6887023573391117e+18,45.35411166992187,12.868559646606446,42.27787857055664,-23.71923942565918,1.6887023573391117e+18,45.35411166992187,-241.67223510742187,137.7428771972656,-156.93103637695313,1.6887023573423206e+18,45.35732071940104,-0.4339427550633748,0.6598000129063925,-0.5310617884000143,0.3052823444207509,-3.0063723723093667,1.1147526502609253,-1.4406572977701824
0.4,1.6887023573855744e+18,45.40057446289063,11.66891860961914,-13.079806804656982,-6.058988094329834,1.6887023573855744e+18,45.40057446289063,8.178966999053955,-22.2544469833374,-5.665306806564331,1.6887023573855744e+18,45.40057446289063,-3.4957975149154663,-9.15713596343994,0.3309940099716186,1.6887023573855736e+18,45.40057348632812,2.58263635635376,2.8640925089518223,1.575166940689087,1.688702357389899e+18,45.40489908854167,3.4366260642806687,4.392935673395792,1.4111496011416118,,,,,,,,,,,,1.6887023573891113e+18,45.404111425781245,10.970240020751952,42.6755989074707,-23.524039459228515,1.6887023573891113e+18,45.404111425781245,-243.5705535888672,138.14059448242188,-156.7358367919922,1.6887023573855744e+18,45.40057446289063,-0.4470421820878982,0.6311978101730347,-0.5287100076675415,0.3489067852497101,-3.054190874099731,1.2040897607803345,-1.4538165926933289
0.45,1.6887023574288282e+18,45.443828125,2.3654002348581944,-28.431392669677734,2.628145436445872,1.6887023574288282e+18,45.443828125,-1.1415756543477382,-37.58645757039388,2.132204423348109,1.6887023574288282e+18,45.443828125,-3.512821594874064,-9.137559572855633,-0.5586283902327219,1.6887023574374833e+18,45.452483235677086,7.958199501037598,19.62725257873535,0.0266744593779246,1.6887023574418084e+18,45.45680818684897,7.601708889007568,20.193474451700848,-0.1800525287787119,,,,,,,,,,,,1.6887023574391168e+18,45.45411689453125,-0.5270400047302246,48.66335906982422,-9.8161199092865,1.6887023574391168e+18,45.45411689453125,-255.06783752441407,144.12835693359375,-143.02792053222657,1.6887023574288282e+18,45.443828125,-0.5137921174367269,0.7669373353322347,-0.2736391027768453,0.2229531208674112,2.982874075571696,1.1973726749420164,-0.5802853206793467
0.5,1.6887023574807406e+18,45.49574047851562,8.126161893208822,-7.213504314422608,3.16705006112655,1.6887023574807406e+18,45.49574047851562,3.533002676519876,-15.878970305124918,3.2634113281965256,1.6887023574807406e+18,45.49574047851562,-4.599005142847697,-8.647961934407553,0.0336738228797913,1.6887023574893888e+18,45.504388834635414,0.5049310028553009,1.1577423810958862,-2.5797857642173767,1.6887023574850644e+18,45.500064453125006,0.7096727043390274,2.167350053787231,-3.865173399448395,,,,,,,,,,,,1.688702357489118e+18,45.50411806640625,1.093120074272156,49.824799346923825,4.2748798608779905,1.688702357489118e+18,45.50411806640625,-253.4476806640625,145.28980102539063,-128.9369140625,1.6887023574807406e+18,45.49574047851562,0.1490236818790435,-0.2981249491373698,-0.0285066035576165,0.0218504414272804,1.053311824798584,1.0784193277359009,0.0684499088674783
0.55,1.6887023575326415e+18,45.54764152018229,4.771808783213298,6.737339019775391,3.88361930847168,1.6887023575326415e+18,45.54764152018229,0.3625126133362452,-1.9998014643788335,3.2061829566955566,1.6887023575326415e+18,45.54764152018229,-4.415142218271892,-8.719635963439941,-0.7401238083839417,1.6887023575412902e+18,45.55629036458333,-2.264477491378784,-7.927656491597493,1.7666223049163818,1.688702357528316e+18,45.543315999348955,-1.9038124481836955,-7.873594919840495,1.620727300643921,,,,,,,,,,,,1.688702357539115e+18,45.55411508789062,-0.4318800210952759,50.16639862060547,1.693359997868538,1.688702357539115e+18,45.55411508789062,-254.9726745605469,145.63139953613282,-131.5184356689453,1.6887023575326415e+18,45.54764152018229,-0.514153778553009,0.8494763573010763,-0.0601936448365449,0.0825510434806346,2.9710818926493325,1.0908684730529783,-0.0376286755005518
0.6,1.6887023575845532e+18,45.59955338541666,3.818466583887736,10.604560216267904,3.3779958883921304,1.6887023575845532e+18,45.59955338541666,0.4468596279621124,1.4257234732309978,2.526222467422486,1.6887023575845532e+18,45.59955338541666,-3.377453088760376,-9.161332448323568,-0.914460817972819,1.688702357584545e+18,45.59954504394531,-2.9988138675689697,-7.057478904724121,1.0806969702243805,1.6887023575802255e+18,45.5952255859375,-2.934291203816732,-7.144934336344401,1.180751621723175,,,,,,,,,,,,1.6887023575891154e+18,45.604115429687496,-3.028039932250977,50.22251968383789,-6.348879766464234,1.6887023575891154e+18,45.604115429687496,-257.56883544921874,145.68751525878906,-139.56067504882813,1.6887023575845532e+18,45.59955338541666,-0.5309596459070841,0.7908235390981039,-0.2164709816376368,0.2072654167811075,2.8707056840260825,1.2003169854482014,-0.3493233770132065
0.65,1.68870235763645e+18,45.65144995117188,5.809395670890808,9.77066214879354,1.372831126054128,1.68870235763645e+18,45.65144995117188,2.951347231864929,0.3840480248133341,0.979661464691162,1.68870235763645e+18,45.65144995117188,-2.863894462585449,-9.369109789530436,-0.4558570484320323,1.6887023576278003e+18,45.64280029296875,-2.7869199911753335,-5.821698347727458,0.5026402771472931,1.688702357632131e+18,45.64713094075521,-2.6405159632364907,-5.319872697194417,0.691957600414753,,,,,,,,,,,,1.6887023576391153e+18,45.65411538085938,-1.0101599842309952,48.40471878051758,-14.17639980316162,1.6887023576391153e+18,45.65411538085938,-255.55095520019532,143.86971435546874,-147.38819580078126,1.68870235763645e+18,45.65144995117188,-0.5170281728108724,0.7218223214149475,-0.3544486363728841,0.2907635668913523,2.966880480448405,1.2655831178029378,-0.7855101823806763
0.7,1.688702357688358e+18,45.70335782877604,0.8386956850687662,6.212459882100423,-0.0458389570315678,1.688702357688358e+18,45.70335782877604,-0.9752746423085532,-3.4396825035413108,-0.1479562123616536,1.688702357688358e+18,45.70335782877604,-1.8198163906733196,-9.634637832641602,-0.1648046523332595,1.6887023576797071e+18,45.694707112630205,-0.3590869605541228,0.0524325966835022,2.404365579287211,1.6887023576840312e+18,45.69903108723958,-0.1582140872875849,0.3685044720768928,2.2607104778289795,,,,,,,,,,,,1.6887023576891156e+18,45.70411557617187,-5.590039920806885,47.41163864135742,-16.838439559936525,1.6887023576891156e+18,45.70411557617187,-260.13084106445314,142.87663879394532,-150.05023803710938,1.688702357688358e+18,45.70335782877604,-0.5493492682774862,0.67413858572642,-0.3739727139472961,0.3219781418641408,3.014488935470581,1.3791462182998655,-0.9072710474332174
0.75,1.6887023577402662e+18,45.755266113281245,-2.9218812783559165,-0.8285727500915527,5.38519024848938,1.6887023577402662e+18,45.755266113281245,-4.726622194051742,-10.481559912363688,5.1942198276519775,1.6887023577402662e+18,45.755266113281245,-1.8105868895848591,-9.635482788085938,-0.2536578824122746,1.6887023577316124e+18,45.74661214192708,1.0151053071022034,4.701778968175252,-0.7231626411279043,1.688702357735939e+18,45.750939046223955,1.03551842768987,4.902295351028442,-0.9519826086858908,,,,,,,,,,,,1.688702357739116e+18,45.754116162109376,-9.55015983581543,47.83619918823242,-14.02023983001709,1.688702357739116e+18,45.754116162109376,-264.09096069335936,143.30120239257812,-147.23203735351564,1.6887023577402662e+18,45.755266113281245,-0.5744373003641764,0.7066786885261536,-0.3072750071684519,0.2731587986151377,2.9705527623494468,1.3773180643717449,-0.6796801090240479
0.8,1.6887023577921636e+18,45.80716357421875,-9.150007088979086,-25.76856231689453,6.693741162618001,1.6887023577921636e+18,45.80716357421875,-12.064412434895834,-35.136606216430664,6.348158518473308,1.6887023577921636e+18,45.80716357421875,-2.920251448949178,-9.350538889567057,-0.4082701504230499,1.688702357783516e+18,45.798515787760415,1.2042699257532756,2.7028241952260337,-2.336203177769979,1.688702357787847e+18,45.80284659830729,1.0576113909482956,2.329891045888265,-2.3400211334228516,1.688702357795194e+18,45.81019384765625,0.0,0.0,1.1268864870071411,7.442999839782715,2.7841930389404297,53.86240768432617,43.400001525878906,-122.7525891,49.1875268,1.6887023577891151e+18,45.80411508789062,-7.21019983291626,48.99275894165039,-9.420839881896972,1.6887023577891151e+18,45.80411508789062,-261.75099487304686,144.45775756835937,-142.6326416015625,1.6887023577921636e+18,45.80716357421875,-0.5527393619219462,0.7695571382840475,-0.2437951862812041,0.2059473594029744,2.987811326980591,1.2581743001937866,-0.5018576780954996
0.85,1.6887023578354232e+18,45.85042333984375,0.8717492818832396,-6.323284149169922,-0.8044098317623138,1.6887023578354232e+18,45.85042333984375,-2.9240293502807617,-15.380465507507324,-0.8018946647644043,1.6887023578354232e+18,45.85042333984375,-3.801624655723572,-9.039677143096924,-0.0601722337305545,1.6887023578354207e+18,45.85042057291667,-1.714240570863088,-0.2217950026194254,-2.367153724034627,1.688702357839747e+18,45.85474739583333,-1.8759162823359172,-0.4153883457183838,-2.45481284459432,,,,,,,,,,,,1.6887023578391158e+18,45.85411577148437,-1.232199990749359,49.10255889892578,-10.265079879760744,1.6887023578391158e+18,45.85411577148437,-255.7729949951172,144.56755676269532,-143.4768798828125,1.6887023578354232e+18,45.85042333984375,-0.5214791893959045,0.7940513491630554,-0.2573897466063499,0.1763692125678062,-0.0316997766494751,1.1655033230781555,-0.6053058207035065
0.9,1.6887023578786734e+18,45.89367358398437,6.749415159225464,-4.065855979919434,-4.778386116027832,1.6887023578786734e+18,45.89367358398437,1.3734801610310872,-12.199606895446776,-4.408775647481282,1.6887023578786734e+18,45.89367358398437,-5.381780942281087,-8.116246541341146,0.3069229995210965,1.6887023578873262e+18,45.9023260904948,-3.253570159276326,-7.883368651072184,-8.357807477315268,1.6887023578916529e+18,45.90665283203125,-3.204853614171346,-8.943830808003744,-8.050643761952719,,,,,,,,,,,,1.6887023578891146e+18,45.90411459960937,12.300039768218994,45.484038543701175,-15.01819953918457,1.6887023578891146e+18,45.90411459960937,-242.24075622558593,140.94903259277345,-148.22999877929686,1.6887023578786734e+18,45.89367358398437,-0.4390013416608174,0.8120835820833842,-0.3393755654493968,0.1650107155243555,-3.0924644470214844,0.9786205490430196,-0.8173447450002035
0.95,1.688702357930581e+18,45.94558089192708,44.95028845469157,-9.015796979268393,1.5458282629648843,1.688702357930581e+18,45.94558089192708,37.652859369913735,-15.41675662994385,0.2237288951873779,1.688702357930581e+18,45.94558089192708,-7.303277492523193,-6.383455594380696,-1.3847868243853252,1.6887023579392274e+18,45.95422745768229,-2.1695388158162436,-0.1713984807332357,1.797979990641276,1.6887023579349064e+18,45.94990625,-2.443461060523987,-0.3992769718170166,1.6902641505002975,,,,,,,,,,,,1.6887023579391178e+18,45.95411782226562,31.375959396362305,38.35192031860352,-12.531839752197266,1.6887023579391178e+18,45.95411782226562,-223.16483154296876,133.8169158935547,-145.74363403320314,1.688702357930581e+18,45.94558089192708,-0.2531952063242593,0.7960091034571329,-0.4887262284755707,0.2498862991730372,2.9439531167348227,0.7047538558642069,-1.0291159351666768
1.0,1.6887023579824852e+18,45.99748518880208,-2.6094671885172525,2.6594347953796387,-1.8823544184366865,1.6887023579824852e+18,45.99748518880208,-8.592625935872396,-5.103890657424927,-1.8618154128392537,1.6887023579824852e+18,45.99748518880208,-5.989004770914714,-7.745820840199788,-0.0421483895430962,1.6887023579911324e+18,46.006132649739584,-0.0585921630263328,0.7187338570753733,4.3340888023376465,1.6887023579781568e+18,45.99315665690104,-0.4392121334870656,2.488817721605301,4.392273902893066,,,,,,,,,,,,1.6887023579891185e+18,46.00411831054687,20.254439544677737,41.96311950683594,-18.180439758300786,1.6887023579891185e+18,46.00411831054687,-234.2863555908203,137.42811584472656,-151.392236328125,1.6887023579824852e+18,45.99748518880208,-0.3708317379156748,0.7663493156433105,-0.468139757712682,0.23457300166289,3.1220800081888833,0.9088431199391684,-1.087670167287191
1.05,1.6887023580343898e+18,46.04938956705729,-0.0850419998168945,9.89225991566976,-1.7207724650700886,1.6887023580343898e+18,46.04938956705729,-4.3984066645304365,1.0931211411952972,-2.0851455132166543,1.6887023580343898e+18,46.04938956705729,-4.319210688273112,-8.781634330749512,-0.4270604699850082,1.6887023580343892e+18,46.04938928222656,-0.0849866233766079,-3.1712305545806885,3.6755762100219727,1.6887023580300646e+18,46.04506469726562,-0.0560977952554822,-2.872441132863363,3.748676379521688,,,,,,,,,,,,1.688702358039122e+18,46.05412192382812,12.13411979675293,45.36203994750976,-17.260559463500975,1.688702358039122e+18,46.05412192382812,-242.40667114257812,140.82703552246093,-150.47236022949218,1.6887023580343898e+18,46.04938956705729,-0.4269808928171794,0.7148129542668661,-0.4580186506112416,0.3094642062981923,3.023094892501831,1.1082446177800498,-1.0648417075475056
1.1,1.6887023580862907e+18,46.10129052734376,3.330265482266744,0.8053992589314779,-6.664486567179362,1.6887023580862907e+18,46.10129052734376,0.7056833505630493,-8.614959061145782,-7.417949517567952,1.6887023580862907e+18,46.10129052734376,-2.6304282347361245,-9.402853965759276,-0.8161505858103434,1.6887023580776428e+18,46.09264290364583,-1.2966632843017578,-4.614323457082112,3.245781580607096,1.6887023580819684e+18,46.096968424479165,-1.3202834129333496,-4.422918876012166,3.197828690210978,,,,,,,,,,,,1.688702358089113e+18,46.10411293945312,7.932440090179443,46.12088012695313,-17.18492012023926,1.688702358089113e+18,46.10411293945312,-246.60835876464844,141.58588256835938,-150.39671630859374,1.6887023580862907e+18,46.10129052734376,-0.4398826758066813,0.627361019452413,-0.4896936118602752,0.4142615397771199,2.818845748901367,1.2839051485061646,-1.0825349887212117
1.15,1.6887023581381957e+18,46.15319563802083,15.52376381556193,-29.710771560668945,-0.4465170303980509,1.6887023581381957e+18,46.15319563802083,13.555938720703123,-39.223349253336586,-1.7555340925852458,1.6887023581381957e+18,46.15319563802083,-1.9736712376276653,-9.49507204691569,-1.3717047572135923,1.688702358129551e+18,46.14455110677083,3.905210624138514,10.061103463172913,1.300328443447749,1.6887023581338714e+18,46.1488711751302,4.550335129102071,12.169759114583334,0.9239845673243204,,,,,,,,,,,,1.6887023581391178e+18,46.154117773437505,-0.6636799335479736,47.71663970947266,-13.344359874725342,1.6887023581391178e+18,46.154117773437505,-255.20447998046876,143.181640625,-146.55615844726563,1.6887023581381957e+18,46.15319563802083,-0.4986212352911631,0.67266978820165,-0.369026983777682,0.3818317155043284,2.533419450124105,1.3191980520884197,-0.530820777018865
1.2,1.6887023581901033e+18,46.20510310872396,-1.980388641357422,-10.020148913065592,0.3496537208557129,1.6887023581901033e+18,46.20510310872396,-6.2558354139328,-18.800208409627277,-0.1333998441696167,1.6887023581901033e+18,46.20510310872396,-4.281292835871379,-8.762555122375488,-0.5457411135236422,1.6887023581814518e+18,46.19645190429688,3.075910121202469,18.80049769083659,-3.1262047290802,1.6887023581857784e+18,46.20077848307292,2.467386613289515,16.95975701014201,-3.176092028617859,,,,,,,,,,,,1.688702358189117e+18,46.20411689453125,-1.178519892692566,49.78331909179688,2.7767199695110323,1.688702358189117e+18,46.20411689453125,-255.7193115234375,145.24831848144532,-130.43507690429686,1.6887023581901033e+18,46.20510310872396,-0.1913734475771586,0.2663930654525757,-0.0455511087396492,0.0675813152144352,0.900635878245036,1.1029874483744304,0.0296167712658643
1.25,1.6887023582420042e+18,46.25700439453126,4.635374704996745,3.837793509165446,3.03232208887736,1.6887023582420042e+18,46.25700439453126,-0.1170489067832629,-4.700500567754109,2.253041923046112,1.6887023582420042e+18,46.25700439453126,-4.758269627888997,-8.52078946431478,-0.8419676025708517,1.688702358233357e+18,46.24835677083333,-0.5595525751511256,-6.3847635587056475,0.2532036503156027,1.688702358237681e+18,46.252680908203125,-0.6820310453573862,-7.174612204233806,0.5897903839747111,,,,,,,,,,,,1.68870235823912e+18,46.25412006835937,3.423319959640503,49.81991958618164,3.830799961090088,1.68870235823912e+18,46.25412006835937,-251.1174743652344,145.2849151611328,-129.38099670410156,1.6887023582420042e+18,46.25700439453126,-0.4973641335964203,0.8615933259328207,-0.0362066458910703,0.0722594056278467,2.961925824483236,1.0467727184295654,0.0207152183478077
1.3,1.6887023582852577e+18,46.3002578125,5.037373304367065,9.156436920166016,4.483642101287842,1.6887023582852577e+18,46.3002578125,1.2912269234657288,0.2398804724216461,2.83878493309021,1.6887023582852577e+18,46.3002578125,-3.751992344856262,-8.899052143096924,-1.7075446248054504,1.688702358285261e+18,46.300260986328134,-2.196620464324951,-7.781404972076416,1.1846204201380413,1.6887023582895885e+18,46.30458854166667,-2.2934935887654624,-7.507228533426921,1.1026626825332642,1.688702358306892e+18,46.32189208984375,0.0,0.0,1.0925190448760986,7.442999839782715,2.78389573097229,52.361114501953125,43.400001525878906,-122.7525797,49.1875341,1.6887023582891156e+18,46.304115576171874,-0.5123999819159508,49.99803924560547,0.3440399765968323,1.6887023582891156e+18,46.304115576171874,-255.05319213867188,145.463037109375,-132.86775817871094,1.6887023582852577e+18,46.3002578125,-0.5125170052051544,0.8179389238357544,-0.1558606326580047,0.2069012746214866,2.7099591493606567,1.129278600215912,-0.1006053574383258
1.35,1.6887023583285158e+18,46.34351578776042,5.472559690475463,11.179502169291178,3.162503719329834,1.6887023583285158e+18,46.34351578776042,2.383849541346232,1.9696918328603108,1.7762719790140789,1.6887023583285158e+18,46.34351578776042,-3.0945560932159424,-9.19230588277181,-1.448919137318929,1.688702358337162e+18,46.35216178385417,-2.9303205808003745,-4.156174262364705,0.0686714376012484,1.688702358341489e+18,46.35648901367187,-2.9465084870656333,-4.080172538757324,0.0251472865541775,,,,,,,,,,,,1.6887023583391196e+18,46.3541197265625,-0.6246399939060211,49.69791946411133,-6.595319843292236,1.6887023583391196e+18,46.3541197265625,-255.1654357910156,145.1629211425781,-139.80711669921874,1.6887023583285158e+18,46.34351578776042,-0.5133440494537354,0.768673817316691,-0.2617970108985901,0.2754854460557301,2.695085128148397,1.2061326503753662,-0.3470928221940994
1.4,1.688702358380422e+18,46.395421630859374,4.012902498245239,8.743624846140543,0.809824268023173,1.688702358380422e+18,46.395421630859374,1.1892327467600503,-0.6352943976720172,0.1308076381683349,1.688702358380422e+18,46.395421630859374,-2.8295160134633384,-9.361414909362791,-0.7417040467262268,1.688702358389071e+18,46.4040712890625,-1.7490090131759644,-2.6759461561838784,0.7862344775348902,1.688702358384746e+18,46.399745971679685,-2.078468918800354,-3.310736894607544,0.6543894167989491,,,,,,,,,,,,1.688702358389113e+18,46.404113378906246,0.6709999829530716,48.18755874633789,-12.856359672546386,1.688702358389113e+18,46.404113378906246,-253.8697937011719,143.65255737304688,-146.0681579589844,1.688702358380422e+18,46.395421630859374,-0.5039223333199819,0.7155960996945699,-0.3652865389982859,0.3158805072307586,2.864666144053141,1.2616883516311646,-0.7417781352996826
1.45,1.6887023584323238e+18,46.44732389322917,1.410131812095642,5.334318955739339,0.0899953047434489,1.6887023584323238e+18,46.44732389322917,-1.01495561003685,-4.1579281489054365,-0.5806582570075989,1.6887023584323238e+18,46.44732389322917,-2.4309334754943848,-9.474742571512856,-0.7333409587542216,1.6887023584409713e+18,46.45597135416667,1.2746721307436626,1.6633860344688098,-0.1592831015586853,1.688702358428e+18,46.443000000000005,0.7610362768173218,0.7117089529832205,0.3948734800020854,,,,,,,,,,,,1.6887023584391176e+18,46.45411762695313,-1.2492799878120422,48.24611968994141,-13.934839820861816,1.6887023584391176e+18,46.45411762695313,-255.79007263183593,143.71112060546875,-147.14663696289062,1.6887023584323238e+18,46.44732389322917,-0.5129783153533936,0.6975663105646769,-0.3726932903130849,0.3334045211474101,2.824413855870565,1.3026886383692424,-0.7388936281204224
1.5,1.68870235848423e+18,46.49922965494792,-7.67728853225708,-7.275400320688884,4.7408127784729,1.68870235848423e+18,46.49922965494792,-10.620742797851562,-16.58983850479126,3.779064496358236,1.68870235848423e+18,46.49922965494792,-2.9493001302083335,-9.29693349202474,-1.0244356592496235,1.6887023584842289e+18,46.49922888183593,1.3717742562294006,3.033327698707581,-1.1961504817008972,1.6887023584799045e+18,46.49490437825521,1.3890057404836018,2.994715929031372,-1.152600924173991,,,,,,,,,,,,1.6887023584891205e+18,46.50412036132813,-0.7856799721717834,49.234318542480466,-10.426119995117189,1.6887023584891205e+18,46.50412036132813,-255.32647705078125,144.6993194580078,-143.6379180908203,1.68870235848423e+18,46.49922965494792,-0.5101495186487833,0.7421758572260538,-0.3185466925303141,0.29475004474322,2.7892587979634604,1.2393803199132285,-0.5583732525507609
1.55,1.6887023585361367e+18,46.55113663736979,-5.239614645640056,-27.39939562479655,3.0585869749387107,1.6887023585361367e+18,46.55113663736979,-8.809176683425903,-36.491143544514976,2.0829521814982095,1.6887023585361367e+18,46.55113663736979,-3.5754082202911377,-9.074243545532228,-1.0383221904436748,1.6887023585274826e+18,46.54248266601562,0.2947424650192261,1.3929763634999592,-0.9794206221898396,1.6887023585318062e+18,46.54680623372396,0.1185587594906489,1.387580394744873,-0.9579894145329794,,,,,,,,,,,,1.688702358539117e+18,46.55411708984375,0.5294799759984017,49.25627975463867,-8.715679931640626,1.688702358539117e+18,46.55411708984375,-254.01131591796872,144.72127685546874,-141.92748107910157,1.6887023585361367e+18,46.55113663736979,-0.4974082509676615,0.7748764554659525,-0.2907264530658722,0.2597665439049402,2.843627691268921,1.1731463273366292,-0.5187328457832336
1.6,1.6887023585880384e+18,46.60303833007813,3.2966109116872153,-1.040284792582194,-1.612299124399821,1.6887023585880384e+18,46.60303833007813,-1.1234302123387654,-9.797212918599447,-1.820937991142273,1.6887023585880384e+18,46.60303833007813,-4.425887107849121,-8.739423433939615,-0.2713262165586154,1.6887023585793836e+18,46.594383870442705,-1.6150258779525757,0.7757988522450129,-2.2458970149358115,1.6887023585837138e+18,46.59871370442708,-1.7298176685969036,0.6221153363585472,-2.3942354122797647,,,,,,,,,,,,1.6887023585891156e+18,46.604115478515624,3.7258798837661744,48.37543869018555,-11.370399856567383,1.6887023585891156e+18,46.604115478515624,-250.81491394042968,143.84043579101564,-144.58219299316406,1.6887023585880384e+18,46.60303833007813,-0.4767966369787852,0.7944032351175944,-0.3118605315685271,0.2092880805333455,3.0604093869527182,1.093285123507182,-0.6969634691874186
1.65,1.688702358639943e+18,46.65494295247396,28.427852312723797,-7.586512724558513,1.9022964835166931,1.688702358639943e+18,46.65494295247396,21.40619095166524,-14.191831588745115,0.83748792608579,1.688702358639943e+18,46.65494295247396,-7.027506987253825,-6.587814490000407,-1.1274960488080978,1.688702358631288e+18,46.64628833007813,-3.005049784978231,-9.05531374613444,-8.854033470153809,1.6887023586356145e+18,46.65061458333333,-3.0602312088012695,-9.716880798339844,-9.03189738591512,,,,,,,,,,,,1.688702358639116e+18,46.65411601562501,22.291839599609375,41.83135986328125,-13.80307960510254,1.688702358639116e+18,46.65411601562501,-232.24895629882812,137.29635925292968,-147.01487731933594,1.688702358639943e+18,46.65494295247396,-0.28312748670578,0.8107009331385294,-0.4462088743845622,0.2275841484467188,2.9831722577412925,0.7375056147575378,-0.950596570968628
1.7,1.688702358691844e+18,46.70684407552083,15.301226298014322,-2.2261668841044107,-0.0938429435094197,1.688702358691844e+18,46.70684407552083,8.112067222595215,-8.703094641367594,-1.4217354655265808,1.688702358691844e+18,46.70684407552083,-7.195005734761556,-6.459423065185547,-1.3905799388885498,1.6887023586831964e+18,46.6981963704427,-2.364913821220398,2.1174116134643555,1.998394767443339,1.6887023586875228e+18,46.702522867838546,-2.1962133248647056,3.3801719347635903,2.607885509729386,,,,,,,,,,,,1.6887023586891177e+18,46.70411762695313,35.24335975646973,36.01684036254883,-10.365119743347169,1.6887023586891177e+18,46.70411762695313,-219.29743041992188,131.48183898925782,-143.57691955566406,1.688702358691844e+18,46.70684407552083,-0.2464958031972249,0.772168238957723,-0.520306666692098,0.2640784531831741,2.942082643508911,0.7162841558456421,-1.113837520281474
1.75,1.6887023587350963e+18,46.75009643554687,0.135054349899292,4.769456267356873,-0.9036280512809752,1.6887023587350963e+18,46.75009643554687,-5.95334267616272,-2.927319288253784,-0.9152546525001526,1.6887023587350963e+18,46.75009643554687,-6.094243049621582,-7.679271221160889,-0.0743140224367379,1.6887023587351002e+18,46.75010017903646,-0.0198531150817871,1.8651243497927985,4.1787764231363935,1.688702358739424e+18,46.75442390950521,0.0965167135000228,1.4512121975421906,4.152051289876302,,,,,,,,,,,,1.688702358739116e+18,46.75411611328125,23.777799224853517,40.523519134521486,-18.0877197265625,1.688702358739116e+18,46.75411611328125,-230.76300048828125,135.98851318359374,-151.29952087402344,1.6887023587350963e+18,46.75009643554687,-0.3587846606969833,0.7567554712295532,-0.4890215545892715,0.2431383058428763,3.1142570972442627,0.8964148461818695,-1.1343576312065125
1.8,1.6887023587783557e+18,46.79335546875,-0.150784174601237,8.492042541503906,-1.8691312472025552,1.6887023587783557e+18,46.79335546875,-4.872584501902263,-0.0975075090924898,-2.120838483174642,1.6887023587783557e+18,46.79335546875,-4.727646350860596,-8.57204564412435,-0.3143946503599484,1.6887023587870052e+18,46.80200512695313,0.0682132840156555,-2.2135720252990723,3.999436537424723,1.6887023587913185e+18,46.806318115234376,-0.0589993993441264,-2.4999660650889077,4.042248090108235,,,,,,,,,,,,1.6887023587891185e+18,46.80411826171875,12.956399726867676,45.349839782714845,-17.262999725341796,1.6887023587891185e+18,46.80411826171875,-241.5843933105469,140.81483764648436,-150.47479553222655,1.6887023587783557e+18,46.79335546875,-0.4131864309310913,0.7243387699127197,-0.4660300711790721,0.294126292069753,3.054241895675659,1.0622043013572693,-1.0906740427017212
1.85,1.6887023588302597e+18,46.84525968424479,4.551504214604696,-6.888801733652751,-7.532286961873372,1.6887023588302597e+18,46.84525968424479,1.843470335006714,-16.28036665916443,-8.247461318969727,1.6887023588302597e+18,46.84525968424479,-2.713879942893982,-9.37406094868978,-0.7778620521227518,1.6887023588389115e+18,46.85391162109375,0.4741332431634267,-0.745357354482015,3.6981781323750815,1.688702358834586e+18,46.84958581542969,-0.4489096105098724,-3.0311896204948425,4.250705718994141,1.6887023588259354e+18,46.84093530273437,0.0,0.0,1.0925190448760986,7.434999942779541,2.7957980632781982,51.034759521484375,43.400001525878906,-122.7525595,49.187548,1.6887023588391186e+18,46.8541185546875,5.553439950942993,46.99195938110351,-16.347999572753906,1.6887023588391186e+18,46.8541185546875,-248.987353515625,142.4569549560547,-149.55979614257814,1.6887023588302597e+18,46.84525968424479,-0.4517404834429423,0.6463708877563477,-0.469430536031723,0.3954497178395589,2.823620637257894,1.2743481794993083,-1.016121546427409
1.9,1.688702358882164e+18,46.89716381835938,9.776725689570108,-27.884620666503903,1.1289339462916057,1.688702358882164e+18,46.89716381835938,7.105486234029134,-37.23112424214681,-0.0835493852694829,1.688702358882164e+18,46.89716381835938,-2.6770866314570108,-9.328999201456703,-1.2751707633336384,1.688702358890808e+18,46.90580802408854,4.650109767913818,19.18788782755534,-1.4033101797103882,1.6887023588778396e+18,46.89283976236979,4.733798424402873,16.11218198140462,-0.6429865757624308,,,,,,,,,,,,1.6887023588891177e+18,46.90411772460938,-3.023159956932068,49.35875930786133,-6.922279739379884,1.6887023588891177e+18,46.90411772460938,-257.56395568847654,144.8237548828125,-140.1340759277344,1.688702358882164e+18,46.89716381835938,-0.5168441832065582,0.7388120690981547,-0.2827284783124923,0.293629730741183,2.667086124420166,1.25491205851237,-0.3848902732133865
1.95,1.6887023589340664e+18,46.94906656901042,3.0052055517832437,-4.957865397135416,-0.8182328144709269,1.6887023589340664e+18,46.94906656901042,-1.5254244009653728,-13.655440330505373,-0.9906285901864368,1.6887023589340664e+18,46.94906656901042,-4.536475817362468,-8.680070559183756,-0.2350832251831889,1.6887023589340687e+18,46.94906884765625,1.3411546349525452,5.528254300355911,-3.9136608839035034,1.688702358929744e+18,46.944743896484376,1.7414241035779316,8.183456103006998,-2.9009989897410073,,,,,,,,,,,,1.6887023589391178e+18,46.954117773437495,1.7738799571990966,50.24447937011719,1.3761600077152252,1.6887023589391178e+18,46.954117773437495,-252.76691589355468,145.7094757080078,-131.83563537597655,1.6887023589340664e+18,46.94906656901042,-0.5132286449273428,0.8560636440912882,-0.0328581705689429,0.0352216338117917,3.0857255458831787,1.0808330376942952,-0.0431977144132057
2.0,1.6887023589859684e+18,47.00096818033854,2.727919816970825,3.726576805114746,4.4697372118632,1.6887023589859684e+18,47.00096818033854,-1.6755740642547607,-4.8893342812856035,2.9417760372161865,1.6887023589859684e+18,47.00096818033854,-4.409339984258016,-8.598406473795572,-1.5906486511230469,1.6887023589773222e+18,46.99232242838542,-0.2234239553411801,-8.118908087412516,0.6849326441685358,1.6887023589816492e+18,46.99664900716146,-0.3937535484631856,-8.398887952168783,0.8513934314250946,,,,,,,,,,,,1.688702358989116e+18,47.0041158203125,2.4497599363327027,50.33719940185547,3.154919958114624,1.688702358989116e+18,47.0041158203125,-252.09103393554688,145.802197265625,-130.0568817138672,1.6887023589859684e+18,47.00096818033854,-0.4958499471346537,0.8471481601397196,-0.0940047539770602,0.1536540016531944,2.78922168413798,1.060672918955485,-0.0120023328539293
2.05,1.6887023590378783e+18,47.05287801106771,3.0357311566670737,9.736897786458334,5.0306657155354815,1.6887023590378783e+18,47.05287801106771,-0.0572283379733562,0.6827520777781805,2.8875388304392495,1.6887023590378783e+18,47.05287801106771,-3.0988055070241294,-9.036641120910645,-2.2058144410451255,1.6887023590292206e+18,47.04422078450521,-2.2127575874328613,-7.224194208780925,0.989601711432139,1.6887023590335537e+18,47.048553466796875,-2.3053544759750366,-7.059616883595784,0.9165524045626322,,,,,,,,,,,,1.6887023590391163e+18,47.05411655273438,-0.2342399939894676,50.37379989624024,-0.4294399917125702,1.6887023590391163e+18,47.05411655273438,-254.77503051757813,145.83879699707032,-133.6412353515625,1.6887023590378783e+18,47.05287801106771,-0.500575989484787,0.7790567874908447,-0.228323479493459,0.2962997555732726,2.5141191482543945,1.162493109703064,-0.1503764688968658
2.1,1.688702359089783e+18,47.10478312174479,0.1378694772720337,10.789177258809408,4.660173416137695,1.688702359089783e+18,47.10478312174479,-2.1258235375086465,1.3960126241048176,2.956132968266805,1.688702359089783e+18,47.10478312174479,-2.2695390383402505,-9.375660260518393,-1.7667278051376345,1.6887023590811282e+18,47.09612841796875,-2.6200010776519775,-6.301940282185872,0.3121521373589833,1.6887023590854592e+18,47.10045906575521,-2.5968390305836997,-6.282290776570638,0.3117957959572474,,,,,,,,,,,,1.6887023590891118e+18,47.10411186523437,0.590479987859726,49.61007919311523,-6.770999717712402,1.6887023590891118e+18,47.10411186523437,-253.9503143310547,145.07507934570313,-139.98279724121093,1.688702359089783e+18,47.10478312174479,-0.4836617211500804,0.69814133644104,-0.3581704894701639,0.3847991426785787,2.4607067108154297,1.263594627380371,-0.4414060016473134
2.15,1.6887023591416873e+18,47.15668741861979,2.685923059781393,8.429428418477377,2.5031891663869223,1.6887023591416873e+18,47.15668741861979,1.0751749525467555,-1.1886346638202665,1.3806586265563965,1.6887023591416873e+18,47.15668741861979,-1.6165940761566162,-9.600558280944824,-1.1852178970972698,1.6887023591330363e+18,47.14803637695312,-1.806277632713318,-4.027434666951497,0.5915720760822296,1.6887023591373627e+18,47.152362792968745,-1.672243595123291,-3.594483812650045,0.6192646423975626,,,,,,,,,,,,1.6887023591391176e+18,47.15411757812499,2.654719877243042,48.45107879638672,-12.19755973815918,1.6887023591391176e+18,47.15411757812499,-251.88607177734377,143.91607666015625,-145.40935974121095,1.6887023591416873e+18,47.15668741861979,-0.4650755524635315,0.6167670885721842,-0.4496609270572662,0.4478800197442372,2.4632221857706704,1.3557678858439128,-0.7066917816797892
2.2,1.688702359184941e+18,47.199941162109376,0.7459070682525635,4.990359306335449,3.43330717086792,1.688702359184941e+18,47.199941162109376,-0.5153541564941406,-4.7060840129852295,2.5226332545280457,1.688702359184941e+18,47.199941162109376,-1.2671072483062744,-9.67893886566162,-0.9733613729476928,1.6887023591849428e+18,47.19994270833333,0.3404555817445119,1.4767157932122548,0.603534867366155,1.6887023591892636e+18,47.20426383463541,0.5334380666414896,1.9306395947933197,0.525904064377149,,,,,,,,,,,,1.6887023591891177e+18,47.20411787109375,1.3712799444794654,48.04603881835938,-14.05927963256836,1.6887023591891177e+18,47.20411787109375,-253.16951599121097,143.51103820800782,-147.27107849121094,1.688702359184941e+18,47.199941162109376,-0.4763577878475189,0.5991342663764954,-0.4541071951389313,0.4558747857809067,2.424781918525696,1.3968594074249268,-0.6876502633094788
2.25,1.688702359228192e+18,47.24319197591146,-4.932948112487793,-11.869532585144045,8.70564572016398,1.688702359228192e+18,47.24319197591146,-6.744968334833781,-21.430519104003903,7.513463020324707,1.688702359228192e+18,47.24319197591146,-1.8178662061691284,-9.543481826782228,-1.2548701763153076,1.6887023592368456e+18,47.25184545898438,1.673770745595296,5.908135890960693,-3.2206342816352844,1.688702359241168e+18,47.256168131510414,1.544165551662445,6.16301949818929,-3.634139140446981,,,,,,,,,,,,1.6887023592391148e+18,47.25411469726562,0.0756399869918823,48.66335906982422,-10.694519805908204,1.6887023592391148e+18,47.25411469726562,-254.46515502929688,144.12835693359375,-143.90632019042968,1.688702359228192e+18,47.24319197591146,-0.4896053075790405,0.6590369939804077,-0.3986487885316213,0.4059022863705953,2.4764161904652915,1.3298779328664143,-0.5566110809644064
2.3,1.6887023592801e+18,47.29509985351563,-7.717885971069336,-21.02356243133545,4.091410160064697,1.6887023592801e+18,47.29509985351563,-11.848260561625162,-29.89373270670573,3.691726639866829,1.6887023592801e+18,47.29509985351563,-4.136220693588257,-8.852665583292643,-0.4623708228270213,1.68870235928875e+18,47.30375,-1.4915802280108137,5.085554997126262,-3.2613585789998374,1.6887023592844268e+18,47.29942687988281,-1.442863702774048,5.805510759353638,-3.521180033683777,,,,,,,,,,,,1.6887023592891172e+18,47.304116943359375,6.448919868469238,48.21439819335937,-11.365519714355468,1.6887023592891172e+18,47.304116943359375,-248.0918762207031,143.67939453125,-144.5773132324219,1.6887023592801e+18,47.29509985351563,-0.4686074753602345,0.7704322735468546,-0.3476964433987935,0.2518532822529475,0.8940509955088297,1.116690953572591,-0.7477830251057943
2.35,1.6887023593320038e+18,47.34700406901042,-1.230018933614095,-5.5813649495442705,-4.150799830754598,1.6887023593320038e+18,47.34700406901042,-6.384649117787679,-13.89053471883138,-3.2107690572738647,1.6887023593320038e+18,47.34700406901042,-5.160476207733154,-8.291665077209473,0.877343475818634,1.6887023593406546e+18,47.3556543782552,-2.7572929859161377,-2.152180110414823,-3.1100676457087197,1.6887023593276805e+18,47.3426806640625,-2.349184195200602,-0.317802627881368,-1.5993469953536987,1.6887023593449846e+18,47.359984619140626,0.0,0.0,1.0951459407806396,7.402999877929688,2.818474054336548,49.3218879699707,43.400001525878906,-122.7525401,49.1875631,1.6887023593391153e+18,47.35411528320313,10.238239669799803,45.725599670410155,-17.17271957397461,1.6887023593391153e+18,47.35411528320313,-244.30255432128905,141.1905944824219,-150.38451538085937,1.6887023593320038e+18,47.34700406901042,-0.4536045193672179,0.7932068308194479,-0.3712239563465118,0.1635821859041849,-2.9997761249542236,0.9996501803398132,-0.9523320198059082
2.4,1.6887023593839045e+18,47.39890470377603,36.442291259765625,-4.326550165812175,-6.389711221059163,1.6887023593839045e+18,47.39890470377603,29.72802956899007,-11.305688063303627,-4.789832750956218,1.6887023593839045e+18,47.39890470377603,-6.720109462738037,-6.961633205413818,1.5371911525726318,1.688702359392559e+18,47.40755932617188,-3.016910672187805,1.0301223993301392,0.2415463129679362,1.688702359379581e+18,47.394580566406255,-3.550501585006714,-1.1014409859975178,-2.842966715494791,,,,,,,,,,,,1.688702359389118e+18,47.4041177734375,20.744879722595215,39.06195983886719,-23.853439331054688,1.688702359389118e+18,47.4041177734375,-233.7959167480469,134.5269561767578,-157.06523742675782,1.6887023593839045e+18,47.39890470377603,-0.3694303234418233,0.7887658079465231,-0.4726164738337199,0.1311218192179997,-2.938385327657064,0.7843834161758423,-1.1643420060475669
2.45,1.68870235943581e+18,47.45081022135417,-2.763956069946289,1.101516564687093,-7.557852109273274,1.68870235943581e+18,47.45081022135417,-8.083154201507568,-6.727221488952637,-4.923432032267253,1.68870235943581e+18,47.45081022135417,-5.32504415512085,-7.8112335205078125,2.5717329184214273,1.6887023594358075e+18,47.45080773925781,-0.5827654600143433,-0.1356884241104126,4.0272053480148315,1.6887023594314888e+18,47.44648868815104,-0.83021679520607,0.6490951975186666,4.0341542561848955,,,,,,,,,,,,1.688702359439118e+18,47.45411811523438,13.459039688110352,39.41331939697265,-28.24543991088867,1.688702359439118e+18,47.45411811523438,-241.08175659179688,134.8783172607422,-161.45723571777344,1.68870235943581e+18,47.45081022135417,-0.4555101195971171,0.7369719545046488,-0.4815185268719991,0.1291792268554369,-2.715301195780436,0.9210228125254312,-1.372729778289795
2.5,1.688702359487718e+18,47.50271809895833,2.3566139539082847,9.271484375,-7.229842821756999,1.688702359487718e+18,47.50271809895833,-1.7870396971702576,0.6767699718475342,-4.845665295918782,1.688702359487718e+18,47.50271809895833,-4.149499575297038,-8.577210108439127,2.3214901288350425,1.688702359479067e+18,47.49406689453125,-1.0464630325635274,-3.002708117167155,3.24873415629069,1.688702359483393e+18,47.49839314778646,-1.1854349374771118,-3.0857349236806235,3.090519984563192,,,,,,,,,,,,1.6887023594891156e+18,47.50411557617188,9.218319702148438,40.16727828979492,-28.69195976257324,1.6887023594891156e+18,47.50411557617188,-245.32247314453124,135.6322784423828,-161.90375366210938,1.688702359487718e+18,47.50271809895833,-0.4928847948710124,0.6731964151064554,-0.5099552174409231,0.2068119943141937,-2.6564231713612876,1.0661437114079793,-1.5872736771901448
2.55,1.688702359539619e+18,47.55461938476562,5.616438388824463,2.648599147796631,-8.929824193318685,1.688702359539619e+18,47.55461938476562,1.7876378893852234,-6.05025190114975,-6.384848435719808,1.688702359539619e+18,47.55461938476562,-3.834646542867025,-8.681346575419107,2.4822882811228433,1.6887023595309711e+18,47.54597135416666,-1.5336790184179945,-1.7495689590771992,0.6755660573641459,1.6887023595352978e+18,47.55029801432292,-1.2536990642547607,-1.4717779457569122,0.4857396980126698,,,,,,,,,,,,1.6887023595391135e+18,47.55411372070313,10.05767993927002,37.98591918945313,-30.83183937072754,1.6887023595391135e+18,47.55411372070313,-244.48311767578124,133.45091857910157,-164.04364013671875,1.688702359539619e+18,47.55461938476562,-0.4924646119276682,0.6205358902613322,-0.5581008990605673,0.2466795941193897,-2.5871476332346597,1.0898887713750205,-1.8065400123596191
2.6,1.6887023595915272e+18,47.60652718098959,5.927321275075276,-13.876698493957518,-6.606468518575032,1.6887023595915272e+18,47.60652718098959,2.0630119244257608,-22.793430010477703,-5.26042111714681,1.6887023595915272e+18,47.60652718098959,-3.870155254999797,-8.899227460225424,1.283359905083974,1.6887023595828726e+18,47.59787255859376,4.8992919921875,2.449416915575663,-0.5385795334974924,1.6887023595872023e+18,47.602202473958336,5.519167582194011,3.139491021633148,-0.6285294195016226,,,,,,,,,,,,1.6887023595891144e+18,47.604114550781254,9.640439796447756,41.338479614257814,-26.508159255981447,1.6887023595891144e+18,47.604114550781254,-244.90036010742188,136.80347595214843,-159.71995849609374,1.6887023595915272e+18,47.60652718098959,-0.4836918811003367,0.6750650604565939,-0.489230881134669,0.2597887714703877,-2.8475446701049805,1.1369675397872925,-1.4418659607569375
2.65,1.6887023596347812e+18,47.649781127929685,-3.5647873878479004,-33.553348541259766,-3.2787652015686035,1.6887023596347812e+18,47.649781127929685,-7.650152921676636,-42.47828483581543,-3.5727832317352295,1.6887023596347812e+18,47.649781127929685,-4.091211557388306,-8.907430171966553,-0.3567053079605102,1.688702359634781e+18,47.649780680338544,8.591463406880697,13.520025889078775,-0.2099849184354146,1.6887023596391076e+18,47.654107666015626,8.338310718536377,14.582575480143229,-0.138004645705223,,,,,,,,,,,,1.6887023596391155e+18,47.654115527343755,3.677079916000366,48.463278198242186,-10.487119579315186,1.6887023596391155e+18,47.654115527343755,-250.86371154785155,143.92827453613282,-143.69891662597655,1.6887023596347812e+18,47.649781127929685,-0.5029256641864777,0.8012635707855225,-0.2547428309917449,0.1863274425268173,3.0424234867095947,1.1318805813789368,-0.5529729872941971
2.7,1.6887023596780332e+18,47.693033203125,12.720209121704102,-11.8121608098348,6.492034753163655,1.6887023596780332e+18,47.693033203125,7.908079465230306,-20.345173517862957,6.848058859507243,1.6887023596780332e+18,47.693033203125,-4.8179755210876465,-8.515507698059082,0.2933365056912104,1.688702359686682e+18,47.70168172200521,1.074868346254031,4.481460253397625,-1.8528052965799968,1.6887023596910134e+18,47.70601334635416,0.4813109636306762,1.539024035135905,-1.8429296016693115,,,,,,,,,,,,1.6887023596891156e+18,47.704115625,4.426159816980362,49.94923934936523,0.954040002822876,1.6887023596891156e+18,47.704115625,-250.11463623046876,145.41423645019532,-132.25775756835938,1.6887023596780332e+18,47.693033203125,0.1440256933371226,-0.3019645015398661,-0.0412170079847176,0.0510648849109808,-0.996785322825114,1.044277052084605,-0.0318598562541107
2.75,1.6887023597299384e+18,47.74493863932292,5.789462089538574,6.9087551434834795,5.134186267852783,1.6887023597299384e+18,47.74493863932292,1.3549358000357945,-1.8111673990885415,4.510071913401286,1.6887023597299384e+18,47.74493863932292,-4.440372308095296,-8.702418009440104,-0.6868015875418981,1.68870235973859e+18,47.753589680989585,-2.8059585889180503,-10.78299331665039,2.087733785311381,1.688702359734265e+18,47.74926538085938,-2.693228602409363,-11.36186456680298,2.193922519683838,,,,,,,,,,,,1.6887023597391158e+18,47.754115673828124,2.79379997253418,50.12491912841797,-0.9369600057601928,1.6887023597391158e+18,47.754115673828124,-251.7469970703125,145.5899200439453,-134.1487579345703,1.6887023597299384e+18,47.74493863932292,-0.5045069456100464,0.8466305534044901,-0.1019842252135276,0.1064038996895154,2.9752840995788574,1.0819411277770996,-0.1389336834351221
2.8,1.6887023597818422e+18,47.79684220377604,7.372660636901856,11.390215555826822,2.825990001360575,1.6887023597818422e+18,47.79684220377604,4.086143533388774,2.167498469352722,2.1517457564671836,1.6887023597818422e+18,47.79684220377604,-3.292363007863363,-9.205212593078612,-0.7369317412376404,1.6887023597904945e+18,47.80549438476563,-3.8996619383494058,-4.864981810251872,0.5454517640173435,1.6887023597775188e+18,47.79251871744791,-3.7670023441314697,-6.176153024037679,1.0045169989267986,,,,,,,,,,,,1.688702359789116e+18,47.80411572265625,0.8417999655008316,49.52223892211914,-8.96943998336792,1.688702359789116e+18,47.80411572265625,-253.6989990234375,144.98723754882812,-142.18123779296874,1.6887023597818422e+18,47.79684220377604,-0.5190932154655457,0.7701151768366495,-0.2770531525214513,0.2422352135181426,2.9034763971964517,1.20832363764445,-0.5275333424409231
2.85,1.688702359833744e+18,47.84874389648437,-0.0568670034408569,9.893893241882324,-0.5331949790318807,1.688702359833744e+18,47.84874389648437,-3.3631121714909873,0.6560322009027004,-0.0532403091589609,1.688702359833744e+18,47.84874389648437,-3.3120911916097007,-9.220356623331703,0.4172672753532727,1.6887023598423954e+18,47.85739526367187,-3.190345605214437,-4.104403575261434,-0.4387030601501465,1.6887023598294244e+18,47.84442447916666,-3.558239142100016,-3.8781797885894775,-0.3599014381567636,,,,,,,,,,,,1.6887023598391176e+18,47.85411752929688,3.974759960174561,46.60399856567383,-17.831519889831544,1.6887023598391176e+18,47.85411752929688,-250.5660369873047,142.068994140625,-151.04331970214844,1.688702359833744e+18,47.84874389648437,-0.5072384377320608,0.7115740378697714,-0.4048734207948049,0.2665908833344777,-0.9597591559092205,1.218204379081726,-1.0946117043495178
2.9,1.688702359885654e+18,47.9006542154948,2.5950022538503013,5.497063318888347,-1.3258050481478374,1.688702359885654e+18,47.9006542154948,-1.1481560866038003,-3.5605201721191406,-0.6017949183781942,1.688702359885654e+18,47.9006542154948,-3.749004364013672,-9.040079116821287,0.6613227526346842,1.6887023598856474e+18,47.90064733886719,-0.4922810159623624,-2.567466616630554,-0.7614435255527496,1.6887023598813286e+18,47.89632853190104,-0.9074911971886952,-2.8023442029953003,-0.6760751108328501,1.6887023598640274e+18,47.87902734375,0.0,0.0,1.0951459407806396,7.407000064849853,2.8320727348327637,48.553993225097656,43.400001525878906,-122.7525299,49.1875718,1.6887023598891195e+18,47.90411967773438,9.430599880218503,44.13227920532226,-21.613519287109376,1.6887023598891195e+18,47.90411967773438,-245.11019287109377,139.59727478027344,-154.8253173828125,1.688702359885654e+18,47.9006542154948,-0.46668275197347,0.6715655326843262,-0.4912247161070506,0.2994423309961955,-2.99603533744812,1.1712276935577393,-1.3598179817199707
2.95,1.6887023599375608e+18,47.95256087239583,-3.247235059738159,1.2655442555745442,2.146359841028849,1.6887023599375608e+18,47.95256087239583,-7.181857744852702,-7.724829037984212,2.6187450091044107,1.6887023599375608e+18,47.95256087239583,-3.9404686292012534,-8.97286860148112,0.4096977561712265,1.6887023599289068e+18,47.94390665690104,1.4632768432299297,1.7943148612976074,-0.1818342308203379,1.6887023599332332e+18,47.94823291015624,1.6533576846122742,1.8748472929000857,-0.0117082521319388,,,,,,,,,,,,1.6887023599391145e+18,47.954114404296874,10.201639556884766,44.58611907958984,-20.8180793762207,1.6887023599391145e+18,47.954114404296874,-244.3391540527344,140.05111389160157,-154.02987670898438,1.6887023599375608e+18,47.95256087239583,-0.4618773261706034,0.6942369143168131,-0.4691305061181386,0.2901827295621236,-3.067385991414388,1.1523864269256592,-1.236483891805013
3.0,1.6887023599894628e+18,48.004462727864585,-6.210093816121419,-31.42841148376465,2.4249579111735025,1.6887023599894628e+18,48.004462727864585,-9.28036324183146,-40.7009162902832,1.5567305088043213,1.6887023599894628e+18,48.004462727864585,-3.076115369796753,-9.254998524983725,-0.9309148987134298,1.688702359980804e+18,47.99580403645833,3.904090722401937,1.3956743876139324,2.5169174671173096,1.6887023599851377e+18,48.0001376953125,3.836081027984619,1.6615535020828247,2.5057183106740317,,,,,,,,,,,,1.6887023599891182e+18,48.00411811523438,3.306199958920479,47.90207901000976,-13.55175952911377,1.6887023599891182e+18,48.00411811523438,-251.2345947265625,143.36707458496093,-146.76355590820313,1.6887023599894628e+18,48.004462727864585,-0.4848832388718923,0.7196018298467001,-0.3741763035456339,0.3251864314079284,2.813161611557007,1.2255491415659587,-0.723743220170339
3.05,1.6887023600413668e+18,48.056367024739586,2.8867228428522744,-4.580831050872803,-1.580439805984497,1.6887023600413668e+18,48.056367024739586,-0.5686941693226496,-13.73500140508016,-2.133600195248922,1.6887023600413668e+18,48.056367024739586,-3.4612630208333335,-9.136665980021158,-0.6158477875093619,1.6887023600327148e+18,48.04771492513021,-0.8209519386291504,4.37603497505188,-1.810451862712701,1.6887023600370322e+18,48.05203230794271,-1.2084950904051464,4.278398434321086,-2.2189680337905884,,,,,,,,,,,,1.6887023600391137e+18,48.05411372070313,1.4884000062942504,48.98299942016602,-10.867759704589844,1.6887023600391137e+18,48.05411372070313,-253.0523956298828,144.4480010986328,-144.07955627441407,1.6887023600413668e+18,48.056367024739586,-0.5035476088523865,0.7620866696039835,-0.3141847153504689,0.255988339583079,2.9283854961395264,1.1909393866856892,-0.6331704060236613
3.1,1.6887023600846152e+18,48.099615234375,3.439295768737793,3.624402523040771,-0.5786659121513367,1.6887023600846152e+18,48.099615234375,-2.4927229285240173,-4.128217110410333,-0.5350949680432677,1.6887023600846152e+18,48.099615234375,-5.937864780426025,-7.735115051269531,-0.0191164463758468,1.6887023600846177e+18,48.099617675781246,-2.0883446534474692,-7.022863268852234,-9.266112804412842,1.688702360088947e+18,48.10394694010417,-1.9899954001108808,-8.982875208059946,-9.584832032521566,,,,,,,,,,,,1.6887023600891174e+18,48.10411752929688,19.146679878234863,43.46615905761719,-13.715239524841309,1.6887023600891174e+18,48.10411752929688,-235.39411315917968,138.93115844726563,-146.92703552246093,1.6887023600846152e+18,48.099615234375,-0.3951888829469681,0.8132857084274292,-0.3779415935277939,0.1891328915953635,-0.01420259475708,0.9090873301029204,-0.8644849956035614
3.15,1.688702360127875e+18,48.14287491861979,46.71948782602946,-5.207510153452556,9.098593473434446,1.688702360127875e+18,48.14287491861979,39.51607116063436,-11.261221567789711,6.41156808535258,1.688702360127875e+18,48.14287491861979,-7.209264755249023,-6.03620719909668,-2.749712864557902,1.6887023601365217e+18,48.151521728515625,-3.145396073659261,-1.623069127400716,-0.0269288619359334,1.6887023601408512e+18,48.15585123697917,-3.2489376862843833,0.5571091969807943,0.8783224821090697,,,,,,,,,,,,1.688702360139112e+18,48.15411215820313,36.363319396972656,36.04367904663086,-5.555879926681518,1.688702360139112e+18,48.15411215820313,-218.1774749755859,131.50867614746093,-138.76767578125,1.688702360127875e+18,48.14287491861979,-0.1879997750123341,0.778184175491333,-0.5103611747423807,0.311096449693044,2.763509432474772,0.6578042904535929,-1.031224052111308
3.2,1.6887023601797765e+18,48.19477604166667,-1.2368688583374023,1.0395520528157551,0.0983417928218841,1.6887023601797765e+18,48.19477604166667,-7.688538074493408,-6.308078606923421,-0.3511467278003692,1.6887023601797765e+18,48.19477604166667,-6.457515239715576,-7.330126126607259,-0.5121759615334062,1.6887023601884296e+18,48.20342960611979,-1.20223368704319,3.2815171480178833,4.072282234827678,1.6887023601840937e+18,48.19909375,-1.3819299042224884,3.74956727027893,4.147622346878052,,,,,,,,,,,,1.688702360189118e+18,48.20411796875,26.442279815673828,39.94767837524414,-16.81403980255127,1.688702360189118e+18,48.20411796875,-228.09851684570313,135.41268005371094,-150.02583923339844,1.6887023601797765e+18,48.19477604166667,-0.3159786760807037,0.7480785250663757,-0.5197868148485819,0.2621654570102691,3.04863707224528,0.8423071304957072,-1.1750839551289876
3.25,1.688702360231685e+18,48.246685139973955,-0.8477840423583984,7.400308450063069,-2.0113748709360757,1.688702360231685e+18,48.246685139973955,-5.788237889607747,-1.0741779903570812,-2.007578214009603,1.688702360231685e+18,48.246685139973955,-4.946299870808919,-8.456981976826986,-0.0588907226920127,1.6887023602403308e+18,48.25533048502603,-0.0052432616551717,-1.9231565097967784,3.663715283075968,1.68870236022736e+18,48.242360026041666,0.0241800794998804,-0.7737626632054647,3.684942801793417,,,,,,,,,,,,1.6887023602391168e+18,48.25411679687499,16.701799583435058,43.578398895263675,-18.365879821777344,1.6887023602391168e+18,48.25411679687499,-237.83899841308593,139.04339294433595,-151.57767639160156,1.688702360231685e+18,48.246685139973955,-0.4018262028694153,0.71315069993337,-0.4944463471571604,0.2910942435264587,3.104905764261882,1.0384095708529155,-1.1906938552856443
