seconds_elapsed_rounded,accelerometer_time,accelerometer_seconds_elapsed,accelerometer_z,accelerometer_y,accelerometer_x,accelerometeruncalibrated_time,accelerometeruncalibrated_seconds_elapsed,accelerometeruncalibrated_z,accelerometeruncalibrated_y,accelerometeruncalibrated_x,gravity_time,gravity_seconds_elapsed,gravity_z,gravity_y,gravity_x,gyroscope_time,gyroscope_seconds_elapsed,gyroscope_z,gyroscope_y,gyroscope_x,gyroscopeuncalibrated_time,gyroscopeuncalibrated_seconds_elapsed,gyroscopeuncalibrated_z,gyroscopeuncalibrated_y,gyroscopeuncalibrated_x,location_time,location_seconds_elapsed,location_bearingAccuracy,location_speedAccuracy,location_verticalAccuracy,location_horizontalAccuracy,location_speed,location_bearing,location_altitude,location_longitude,location_latitude,magnetometer_time,magnetometer_seconds_elapsed,magnetometer_z,magnetometer_y,magnetometer_x,magnetometeruncalibrated_time,magnetometeruncalibrated_seconds_elapsed,magnetometeruncalibrated_z,magnetometeruncalibrated_y,magnetometeruncalibrated_x,orientation_time,orientation_seconds_elapsed,orientation_qz,orientation_qy,orientation_qx,orientation_qw,orientation_roll,orientation_pitch,orientation_yaw
0.0,1.688702341987199e+18,30.002198811848956,16.080064058303833,-24.477492650349937,-0.10903795560201,1.6887023419785434e+18,29.99354353841146,14.971492608388266,-30.325238545735676,-2.5848466555277505,1.688702341987199e+18,30.002198811848956,-2.4067416985829673,-9.489065806070965,-0.607488214969635,1.688702341987199e+18,30.002198811848956,3.2795828580856323,10.114044765631355,1.9965112159649532,1.6887023419915264e+18,30.00652644856771,3.578804890314738,11.999582330385843,1.6727526783943176,,,,,,,,,,,,1.688702341989114e+18,30.004113720703124,-11.526559638977051,44.89843826293945,-19.380919456481937,1.688702341989114e+18,30.004113720703124,-266.0673522949219,140.36343383789062,-152.59272155761718,1.6887023419785434e+18,29.99354353841146,-0.545926590760549,0.7176229357719421,-0.3277293344338735,0.2736146052678426,2.989487648010254,1.3130025068918865,-0.7363988359769186
0.05,1.6887023420391022e+18,30.05410205078125,-4.919401089350383,-15.652589480082192,2.604306181271871,1.6887023420304543e+18,30.045454589843747,-5.399204730987549,-28.90689214070638,3.5032918055852256,1.6887023420391022e+18,30.05410205078125,-3.218253374099731,-9.2336057027181,-0.4418678681055705,1.6887023420391022e+18,30.05410205078125,3.1874439318974814,12.936802546183268,-2.9494609236717224,1.6887023420347807e+18,30.049780517578128,3.6218963861465454,15.275754928588864,-2.3882539719343185,,,,,,,,,,,,1.688702342039118e+18,30.054118017578123,-18.451279067993163,46.88459930419922,3.4208799719810488,1.688702342039118e+18,30.054118017578123,-272.9920715332031,142.34959716796874,-129.7909149169922,1.6887023420304543e+18,30.045454589843747,-0.2143822312355041,0.2521776755650838,-0.0661132376020153,0.0620045612255731,2.984297593434652,1.2805888255437214,0.1053697690367698
0.1,1.688702342091011e+18,30.106011555989586,2.8044562339782715,-0.737542470296224,1.8200637698173523,1.6887023420823583e+18,30.097358398437496,-1.1188439726829529,-11.21236801147461,0.5467599630355835,1.688702342091011e+18,30.106011555989586,-4.435028870900472,-8.707170804341635,-0.8125612239042918,1.688702342091011e+18,30.106011555989586,0.1403462886810302,-3.6491562326749167,-0.5147557531793912,1.6887023420780342e+18,30.093034179687503,0.7621562133232752,-0.9517279465993246,-2.0936897893746695,,,,,,,,,,,,1.6887023420891151e+18,30.10411528320312,-8.87672004699707,48.23391876220703,12.10971965789795,1.6887023420891151e+18,30.10411528320312,-263.4175109863281,143.69891967773438,-121.1020751953125,1.6887023420823583e+18,30.097358398437496,0.5293785929679871,-0.8398153980573019,-0.1129034658273061,0.0332016912288963,2.9971255461374917,1.1133246421813965,0.3570449848969777
0.15,1.6887023421342636e+18,30.149263549804687,3.2502336502075195,6.705510377883911,3.672529101371765,1.688702342134264e+18,30.14926407877604,-0.7517451153447231,-2.453839600086212,2.256032943725586,1.6887023421342636e+18,30.149263549804687,-3.7561795711517334,-8.94892406463623,-1.4156741499900818,1.6887023421342636e+18,30.149263549804687,-2.070833146572113,-6.471506357192993,1.32863187789917,1.6887023421299392e+18,30.14493929036458,-1.822058339913686,-6.413016001383464,1.2522737582524617,,,,,,,,,,,,1.688702342139118e+18,30.1541181640625,-13.393159675598143,48.36323928833008,7.071120023727417,1.688702342139118e+18,30.1541181640625,-267.9339538574219,143.82823486328124,-126.1406753540039,1.688702342134264e+18,30.14926407877604,-0.5562357902526855,0.8264157970746359,0.0127205162619551,0.0718567284444967,2.797049045562744,1.16756268342336,0.2593410511811574
0.2,1.6887023421775176e+18,30.192517496744788,3.038832664489746,10.041455268859863,2.7751002311706543,1.6887023421861704e+18,30.20117041015625,-0.0107677020132542,1.000798096259435,1.7684953610102336,1.6887023421775176e+18,30.192517496744788,-2.974090496699015,-9.286961555480955,-1.022432764371236,1.6887023421775176e+18,30.192517496744788,-3.019099712371826,-5.154888153076172,1.074155608812968,1.6887023421818442e+18,30.19684440104167,-3.0523409048716226,-5.081380685170491,1.0259991089502971,1.688702342207795e+18,30.222794921875,0.0,0.0,1.206685185432434,7.341000080108643,2.5964510440826416,104.07280731201172,43.400001525878906,-122.7530992,49.1874014,1.6887023421891151e+18,30.204115185546875,-16.74571990966797,47.80691833496094,-3.5111599445343016,1.6887023421891151e+18,30.204115185546875,-271.2865234375,143.27191772460938,-136.72295532226562,1.6887023421861704e+18,30.20117041015625,-0.5824347337086996,0.7891759475072225,-0.1261119817694027,0.1426759660243987,2.876638889312744,1.2748055855433147,-0.1219371370971202
0.25,1.688702342229419e+18,30.244418945312503,1.7661025524139404,10.851601282755531,1.9254632393519084,1.688702342238074e+18,30.25307430013021,-0.4390829801559448,1.2735798557599385,1.7373886505762737,1.688702342229419e+18,30.244418945312503,-2.5528063774108887,-9.467994372049969,-0.1373023738463719,1.688702342229419e+18,30.244418945312503,-2.949206511179606,-4.837441921234131,0.2914336373408635,1.6887023422337434e+18,30.24874340820313,-2.883843978246053,-4.770246664683024,0.2290744669735432,,,,,,,,,,,,1.6887023422391148e+18,30.254114794921872,-15.293919372558594,45.606038665771486,-15.813639640808104,1.6887023422391148e+18,30.254114794921872,-269.834716796875,141.07103576660157,-149.025439453125,1.688702342238074e+18,30.25307430013021,-0.5813591281572977,0.747066060702006,-0.2575816760460536,0.1899667680263518,-0.9856151739756266,1.3149763743082683,-0.7115065058072408
0.3,1.6887023422813274e+18,30.296327473958332,11.079450925191244,5.548094749450684,1.1678594648838043,1.6887023422899743e+18,30.304974202473957,6.865606506665547,-4.385844469070435,2.395813673734665,1.6887023422813274e+18,30.296327473958332,-1.9636574188868203,-9.584829330444336,0.5419364472230276,1.6887023422813274e+18,30.296327473958332,-0.3203479200601578,3.227811972300211,2.1369085113207498,1.6887023422856532e+18,30.30065340169271,0.0218384365240733,4.1743476788202925,2.308459719022115,,,,,,,,,,,,1.6887023422891177e+18,30.304117431640623,-19.300399589538575,43.20995941162109,-18.731879806518556,1.6887023422891177e+18,30.304117431640623,-273.8411926269531,138.67496032714843,-151.9436798095703,1.6887023422899743e+18,30.304974202473957,-0.6189619104067484,0.7158572673797607,-0.2655895253022511,0.1762269735336303,-2.696626822153727,1.383362889289856,-1.084442377090454
0.35,1.688702342333232e+18,30.348231933593752,-2.195815642674764,6.089726607004802,5.340312957763672,1.6887023423418836e+18,30.35688362630208,-3.8757744630177817,-4.175674915313721,6.4301126797993975,1.688702342333232e+18,30.348231933593752,-0.9191045761108398,-9.759960810343424,0.3160454183816909,1.688702342333232e+18,30.348231933593752,1.999361991882324,7.425219853719075,0.3913610180219014,1.6887023423375557e+18,30.35255550130208,1.943009614944458,7.227503140767415,0.0403680354356765,,,,,,,,,,,,1.688702342339119e+18,30.35411904296875,-27.801359176635746,42.69267883300781,-7.219959735870361,1.688702342339119e+18,30.35411904296875,-282.34215087890624,138.15767822265624,-140.43175659179687,1.6887023423418836e+18,30.35688362630208,-0.6719906727472941,0.727675994237264,-0.1049690383176008,0.0738063802321751,-2.7550483544667563,1.4779510100682576,-0.6406254271666209
0.4,1.6887023423851377e+18,30.400137776692706,-5.195420424143474,-17.98867193857829,11.510053952534994,1.6887023423851336e+18,30.40013342285156,-7.03370213508606,-29.370402336120605,12.776775360107422,1.6887023423851377e+18,30.400137776692706,-2.1216954390207925,-9.544385274251304,0.3494970574975014,1.6887023423851377e+18,30.400137776692706,-0.9108510414759318,2.2469150523344674,-4.331696271896362,1.6887023423894638e+18,30.404463867187506,-1.202437291542689,1.5906421740849812,-4.567490339279175,,,,,,,,,,,,1.6887023423891154e+18,30.404115478515628,-22.574879455566407,46.10624008178711,-0.5489999774843455,1.6887023423891154e+18,30.404115478515628,-277.1156799316406,141.571240234375,-133.76079711914062,1.6887023423851336e+18,30.40013342285156,-0.0169111192226409,-0.0138084590435028,0.0008940510451793,0.010231622494757,-2.945174813270569,1.3650344610214231,-0.249265357851982
0.45,1.688702342437042e+18,30.452041910807292,-4.800865491231282,-15.21377690633138,3.2202736139297485,1.6887023424283935e+18,30.4433935546875,-10.063015619913736,-29.05684280395508,6.08056120077769,1.688702342437042e+18,30.452041910807292,-4.211166063944499,-8.802030245463053,0.916044056415558,1.688702342437042e+18,30.452041910807292,-2.761212746302286,-5.131319046020508,-2.943606893221537,1.6887023424413676e+18,30.456367757161456,-2.821892023086548,-5.548183600107829,-2.6897923946380615,,,,,,,,,,,,1.6887023424391132e+18,30.45411298828125,-11.001959896087646,49.45879898071289,-7.356599807739258,1.6887023424391132e+18,30.45411298828125,-265.5427490234375,144.92379760742188,-140.56839904785156,1.6887023424283935e+18,30.4433935546875,0.2005711793899536,-0.2685807943344116,0.0035009148220221,0.0130901778902625,-2.888336976369222,1.1548243363698325,-0.4024936060110728
0.5,1.6887023424889428e+18,30.503943115234375,18.70349955558777,-3.786883989969889,-0.8708741962909698,1.6887023424802967e+18,30.495296630859375,-1.9906289900342624,-12.547762552897137,0.6085745568076769,1.6887023424889428e+18,30.503943115234375,-5.520506540934245,-8.076574007670084,0.4233411600192387,1.6887023424889428e+18,30.503943115234375,-2.9576059182484946,-7.40979544321696,-3.737935384114583,1.6887023424846223e+18,30.499622314453127,-3.035465717315674,-8.017911911010742,-2.327625691890717,,,,,,,,,,,,1.6887023424891154e+18,30.50411533203125,-0.6612399578094482,47.523878479003905,-16.30163993835449,1.6887023424891154e+18,30.50411533203125,-255.20203552246093,142.98887634277344,-149.51343383789063,1.6887023424802967e+18,30.495296630859375,-0.4735699991385142,0.8349515398343405,-0.2541248848040898,0.1007804398735363,-3.0060242811838784,1.008102019627889,-0.6659536163012186
0.55,1.6887023425408532e+18,30.555853352864585,35.445242404937744,-8.16902240117391,-4.020150740941365,1.6887023425322002e+18,30.547200032552084,31.246275583902996,-13.336796124776203,-2.491725961367289,1.6887023425408532e+18,30.555853352864585,-6.748582045237224,-6.808894157409668,1.7949497699737549,1.6887023425408532e+18,30.555853352864585,-0.8177449703216552,7.030346234639485,0.2222531636555989,1.688702342527876e+18,30.5428759765625,-1.7391842603683472,3.7718892097473145,-3.1352151234944663,,,,,,,,,,,,1.6887023425391153e+18,30.554115234375,10.211399936676026,43.47591934204102,-23.201959228515623,1.6887023425391153e+18,30.554115234375,-244.32939758300785,138.94091796875,-156.41375732421875,1.6887023425322002e+18,30.547200032552084,-0.3797854483127594,0.8541323145230612,-0.3441884617010752,0.06591190615048,-2.9316033522288003,0.7690414587656657,-0.8518120447794596
0.6,1.6887023425841055e+18,30.599105468749997,-3.982194423675537,2.8961472511291504,-5.790221452713013,1.688702342584107e+18,30.599107014973956,-9.11087163289388,-5.8400823672612505,-2.8133612473805747,1.6887023425841055e+18,30.599105468749997,-4.805609941482544,-8.074059009552002,2.7882505655288696,1.6887023425841055e+18,30.599105468749997,1.780214011669159,2.085188537836075,4.627533435821533,1.6887023425797809e+18,30.59478092447917,1.5688546498616536,3.0408362398544946,4.683249314626058,,,,,,,,,,,,1.6887023425891174e+18,30.604117333984373,-6.090240037441253,44.49095916748047,-22.74323959350586,1.6887023425891174e+18,30.604117333984373,-260.63103637695315,139.95595703125,-155.95503845214844,1.688702342584107e+18,30.599107014973956,0.1464584767818451,-0.2826701402664184,0.1020246148109435,0.0110923626925795,-2.5965709686279297,0.968476176261902,-0.9398139715194702
0.65,1.688702342627358e+18,30.642358072916664,-0.8626577854156494,10.121481895446776,-4.879207452138265,1.6887023426360105e+18,30.651010579427084,-4.085146427154541,1.347956756750743,-2.8979076544443765,1.688702342627358e+18,30.642358072916664,-3.379082520802816,-8.939071655273438,2.1624807516733804,1.688702342627358e+18,30.642358072916664,0.6970990468156136,-2.1384355227152505,3.987881024678548,1.6887023426316892e+18,30.64668904622396,0.5333871841430665,-2.4117977619171143,3.877467075983683,,,,,,,,,,,,1.688702342639117e+18,30.6541171875,-14.779079627990722,43.883399200439456,-20.874199676513673,1.688702342639117e+18,30.6541171875,-269.31987915039065,139.34840087890626,-154.08599853515625,1.6887023426360105e+18,30.651010579427084,-0.5829627712567648,0.7649631301561991,-0.265641431013743,0.0577784292399882,-2.520620663960775,1.1770615577697754,-1.0917458534240725
0.7,1.6887023426792645e+18,30.69426416015625,1.555707931518555,4.8466769854227705,-5.722903251647949,1.68870234268791e+18,30.70290983072917,0.5589235027631124,-6.8622167110443115,-4.001796404520671,1.6887023426792645e+18,30.69426416015625,-2.39086635907491,-9.373740832010904,1.6127562920252485,1.6887023426792645e+18,30.69426416015625,-0.125176469484965,-4.193793535232544,2.1076377630233765,1.688702342683591e+18,30.69859090169271,0.0219402412573496,-4.1237984498341875,1.944587667783101,,,,,,,,,,,,1.6887023426891156e+18,30.70411552734375,-16.677399826049804,41.58491897583008,-24.06083946228027,1.6887023426891156e+18,30.70411552734375,-271.21819458007815,137.04991760253907,-157.27264099121095,1.68870234268791e+18,30.70290983072917,-0.6021522482236227,0.7147899866104126,-0.3200435042381286,0.1520717789729435,-2.505662759145101,1.283750057220459,-1.3242790699005127
0.75,1.688702342731167e+18,30.7461669921875,13.422664642333984,-17.37356980641683,-4.7542487780253095,1.6887023427398213e+18,30.75482137044271,10.58863894144694,-31.769107818603516,-4.843072891235352,1.688702342731167e+18,30.7461669921875,-2.285335063934326,-9.51502005259196,0.299336036046346,1.688702342731167e+18,30.7461669921875,4.794375896453857,3.960188627243042,-1.1522445678710938,1.6887023427354954e+18,30.750495524088542,5.22315239906311,5.492798288663228,-1.565393070379893,1.6887023427343186e+18,30.749318603515626,0.0,0.0,1.206685185432434,7.361000061035156,2.6283481121063232,101.29425811767578,43.400001525878906,-122.7530763,49.1874008,1.6887023427391186e+18,30.754118701171876,-16.00151996612549,43.71991882324219,-19.93967933654785,1.6887023427391186e+18,30.754118701171876,-270.5423156738281,139.18491821289064,-153.15147705078124,1.6887023427398213e+18,30.75482137044271,-0.5859315991401672,0.7453908324241638,-0.2451539238293965,0.1847261538108189,-0.9603177706400552,1.3175862630208333,-0.7111494342486063
0.8,1.6887023427830702e+18,30.7980703125,3.0413310527801514,-28.13843568166097,1.1833141644795735,1.688702342791722e+18,30.806721923828125,2.466401894887289,-32.578081130981445,2.014756739139557,1.6887023427830702e+18,30.7980703125,-3.8009162743886313,-9.021942138671877,-0.0703277637561162,1.6887023427830702e+18,30.7980703125,4.3516004880269366,17.212095260620117,-3.4142277240753174,1.6887023427873997e+18,30.80239949544271,3.90291976928711,16.696473757425945,-3.700570623079936,,,,,,,,,,,,1.6887023427891192e+18,30.80411904296875,-13.039359617233275,48.2705192565918,2.715719985961914,1.6887023427891192e+18,30.80411904296875,-267.5801513671875,143.73551330566406,-130.49608001708984,1.688702342791722e+18,30.806721923828125,0.1588308314482371,-0.2818840146064758,-0.0974918790161609,0.0890318676829337,-0.9984480539957682,1.1511479218800862,0.141881451010704
0.85,1.6887023428349734e+18,30.84997322591146,3.2570109367370605,0.6140464146931967,-1.266581376393636,1.6887023428349716e+18,30.84997180175781,-2.9985058903694153,-7.499405145645141,-0.9514460563659668,1.6887023428349734e+18,30.84997322591146,-5.066845734914144,-8.365837415059408,0.6621189365784327,1.6887023428349734e+18,30.84997322591146,-0.3803145090738932,-2.909296671549479,-0.8607600961501399,1.688702342839306e+18,30.854305826822912,-0.6192646473646163,-4.679838577906291,-0.0804306070009867,,,,,,,,,,,,1.688702342839111e+18,30.854110937500003,-2.720599913969636,48.95859832763672,11.9291597366333,1.688702342839111e+18,30.854110937500003,-257.2613922119141,144.42359619140626,-121.2826370239258,1.6887023428349716e+18,30.84997180175781,0.4736818969249725,-0.852465033531189,-0.1695966720581054,0.1392461024224757,-2.992898106575012,1.0266476273536682,0.3089786022901535
0.9,1.688702342886876e+18,30.90187581380208,3.00052817662557,7.376729170481364,5.171724637349446,1.6887023428782264e+18,30.8932265625,-1.4309079075853033,-2.470190624396006,4.313661019007365,1.688702342886876e+18,30.90187581380208,-3.9519379138946538,-8.925127665201822,-0.7879494726657867,1.688702342886876e+18,30.90187581380208,-2.387261390686035,-10.536152839660645,2.877582550048828,1.6887023428912005e+18,30.906200602213545,-2.521040916442871,-10.3836399714152,2.872899293899536,,,,,,,,,,,,1.6887023428891154e+18,30.904115478515628,-12.387879753112792,48.76095886230469,4.435919916629791,1.6887023428891154e+18,30.904115478515628,-266.9286743164063,144.2259552001953,-128.7758773803711,1.6887023428782264e+18,30.8932265625,-0.195762554804484,0.271144966284434,-0.0341182860235373,0.0498531417300303,2.9999569257100425,1.1311341126759846,0.1654532328248023
0.95,1.6887023429387855e+18,30.953785644531248,2.4042210578918457,11.23423989613851,3.659341176350912,1.688702342930136e+18,30.94513623046875,0.2652045056844751,1.4909279147783916,3.344567855199178,1.6887023429387855e+18,30.953785644531248,-2.3761688073476157,-9.483733495076498,-0.6903223196665446,1.6887023429387855e+18,30.953785644531248,-3.395749012629191,-7.683055877685547,1.9857702255249023,1.6887023429344596e+18,30.94945959472656,-3.377321243286133,-7.9265875816345215,2.0894646048545837,,,,,,,,,,,,1.6887023429391155e+18,30.954115380859378,-17.21420021057129,46.860198974609375,-9.296399784088134,1.6887023429391155e+18,30.954115380859378,-271.75498657226564,142.3251953125,-142.50819396972656,1.688702342930136e+18,30.94513623046875,-0.5848660469055176,0.7736536661783854,-0.1627792194485663,0.1702906886736551,2.8763769467671714,1.301508625348409,-0.2153064832091331
1.0,1.688702342986363e+18,31.00136303710938,-0.7599982023239136,10.794859886169434,0.4511505216360092,1.6887023429820347e+18,30.997034912109378,-2.471586505572001,1.328016589085261,1.0051849465817213,1.688702342986363e+18,31.00136303710938,-1.683236837387085,-9.659907341003418,0.214178399182856,1.688702342990686e+18,31.005685872395834,-2.933476765950521,-4.935638348261516,1.263116617997487,1.6887023429777134e+18,30.99271362304688,-3.276986598968506,-5.717087904612224,1.4222979148228962,,,,,,,,,,,,1.6887023429891092e+18,31.00410908203125,-16.055200004577635,42.88055953979492,-22.018559646606445,1.6887023429891092e+18,31.00410908203125,-270.59599609375,138.34556274414064,-155.23035583496093,1.6887023429820347e+18,30.997034912109378,-0.5948335925738016,0.6932025750478109,-0.3196776707967122,0.2488417526086171,-0.8291678428649902,1.3953941663106282,-1.0493251085281372
1.05,1.68870234303394e+18,31.04893986002604,2.100976308186849,7.1987613042195635,-2.1762030919392905,1.68870234303394e+18,31.04893986002604,0.6229315002759298,-2.484946330388387,-1.3449657410383224,1.68870234303394e+18,31.04893986002604,-1.4838908513387044,-9.666203180948893,0.7685499588648478,1.6887023430425915e+18,31.05759147135417,0.4804455240567525,1.2268210252126055,-0.6868670793871084,1.6887023430296156e+18,31.04461572265625,-0.4485278030236561,-0.4716898202896118,-0.1458949844042459,,,,,,,,,,,,1.688702343039111e+18,31.054110791015624,-13.817719841003418,40.62844009399414,-26.574039459228516,1.688702343039111e+18,31.054110791015624,-268.3585144042969,136.09343872070312,-159.78583984375,1.68870234303394e+18,31.04893986002604,-0.5924387176831564,0.655530313650767,-0.3806607226530711,0.2725834548473357,-2.5806287924448648,1.3933146397272749,-1.525418241818746
1.1,1.6887023430858452e+18,31.100845214843748,-0.3976569175720214,6.012254079182942,3.0638955434163413,1.6887023430858452e+18,31.100845214843748,-2.3898316621780396,-3.6000017325083413,3.464209000269572,1.6887023430858452e+18,31.100845214843748,-1.9980207681655884,-9.594751358032228,0.3376259456078211,1.688702343085842e+18,31.100841796875,2.284865021705627,4.829042434692383,-1.534111738204956,1.688702343081519e+18,31.09651912434896,2.162717501322428,4.530533075332642,-1.4779884417851763,,,,,,,,,,,,1.6887023430891085e+18,31.104108447265624,-15.659919738769531,43.37099914550781,-21.61595916748047,1.6887023430891085e+18,31.104108447265624,-270.2007141113281,138.83599548339845,-154.8277557373047,1.6887023430858452e+18,31.100845214843748,-0.590538223584493,0.7079728841781616,-0.3117909729480743,0.2261546750863393,-2.8939810593922934,1.362680713335673,-1.0330618222554524
1.15,1.688702343137748e+18,31.152748046875,-7.180395444234212,-23.72560628255208,9.57166067759196,1.688702343137748e+18,31.152748046875,-10.302298069000244,-33.016565004984535,9.213962395985922,1.688702343137748e+18,31.152748046875,-3.127748727798462,-9.273453076680502,-0.4203859716653823,1.688702343129099e+18,31.14409903971354,3.491044044494629,6.3364033699035645,-2.649424393971761,1.6887023431334264e+18,31.14842635091146,3.3697871367136636,6.5319821039835615,-2.805653174718221,,,,,,,,,,,,1.6887023431391112e+18,31.154111181640623,-15.362239646911622,47.29451904296875,-10.443199729919431,1.6887023431391112e+18,31.154111181640623,-269.9030334472656,142.75951538085937,-143.65499877929688,1.688702343137748e+18,31.152748046875,-0.5674423178037008,0.7894073327382406,-0.1733726263046264,0.145860952635606,3.046332041422526,1.2519925435384114,-0.366441677014033
1.2,1.6887023431896568e+18,31.204656982421877,-4.094738483428955,-14.769792238871256,-1.1930680871009829,1.6887023431896568e+18,31.204656982421877,-8.462616125742594,-23.528625170389812,-0.4881357947985331,1.6887023431896568e+18,31.204656982421877,-4.37372366587321,-8.741328239440918,0.6422448325902224,1.688702343181002e+18,31.196002278645835,-1.302161047856013,4.995248715082805,-2.030159711837769,1.6887023431853292e+18,31.200329264322917,-1.6804393529891968,4.498360872268677,-1.8227710326512656,,,,,,,,,,,,1.6887023431891103e+18,31.204110644531248,-10.911679840087892,49.28311920166016,-4.840959930419922,1.6887023431891103e+18,31.204110644531248,-265.4524719238281,144.74811706542968,-138.0527587890625,1.6887023431896568e+18,31.204656982421877,-0.1811068654060363,0.2779473861058553,-0.0282128329078356,0.0281022476653257,-2.977520227432251,1.1097488403320312,-0.3250089933474858
1.25,1.6887023432415585e+18,31.256558430989585,3.9949354330698656,-3.4831868807474766,-4.879046519597371,1.6887023432415585e+18,31.256558430989585,-1.8610177040100095,-11.082159042358398,-3.222533861796061,1.6887023432415585e+18,31.256558430989585,-5.861799081166585,-7.581467787424724,1.5938251813252766,1.6887023432329106e+18,31.24791056315104,-4.221384286880493,-4.205654382705689,-4.708854635556539,1.6887023432372316e+18,31.252231770833333,-4.444350083669026,-5.627850751082103,-5.633449951807658,1.6887023432458872e+18,31.26088720703125,0.0,0.0,1.2697945833206177,7.375,2.7270681858062744,97.27021026611328,43.400001525878906,-122.7530597,49.1874023,1.6887023432391127e+18,31.254112548828125,-4.69455988407135,48.15095901489258,-11.69491958618164,1.6887023432391127e+18,31.254112548828125,-259.2353546142578,143.61595458984374,-144.9067169189453,1.6887023432415585e+18,31.256558430989585,0.2049474517504374,-0.2741695443789164,0.0116496632496515,0.0330014837284882,-2.8418736457824707,0.8995722929636637,-0.5705387790997823
1.3,1.6887023432848148e+18,31.29981481933594,55.75226593017578,-9.224768161773682,-1.9942850470542908,1.6887023432848148e+18,31.29981481933594,48.09513568878174,-15.362220287322998,-1.9621146023273468,1.6887023432848148e+18,31.29981481933594,-7.662974119186401,-6.119948148727417,-0.0305169075727463,1.688702343284813e+18,31.299813069661457,-3.199254115422567,-4.3724205493927,-1.1720977127552032,1.6887023432891412e+18,31.304141276041666,-2.9137763182322183,-2.3065762221813197,-0.1363247632980346,,,,,,,,,,,,1.6887023432891113e+18,31.304111328124996,16.962879753112794,43.458839416503906,-18.53667907714844,1.6887023432891113e+18,31.304111328124996,-237.57791442871093,138.92383728027343,-151.74847412109375,1.6887023432848148e+18,31.29981481933594,-0.3116842359304427,0.878954291343689,-0.3416205793619156,0.1156292222440242,0.0128734111785888,0.6774239540100098,-0.7461941242218018
1.35,1.6887023433280696e+18,31.343069824218748,-0.171759287516276,-1.1416846911112468,-4.877416769663493,1.6887023433280696e+18,31.343069824218748,-6.989435036977132,-8.014360745747885,-3.259024461110433,1.6887023433280696e+18,31.343069824218748,-6.823521773020427,-6.855171362559001,1.555704911549886,1.6887023433367155e+18,31.35171565755208,-0.2660827239354452,2.251038445159793,2.8145107428232827,1.6887023433410383e+18,31.356038248697917,-0.1045088631411393,1.707215666770935,2.8472429116566977,,,,,,,,,,,,1.68870234333911e+18,31.3541099609375,9.02555980682373,43.1635986328125,-23.26539916992187,1.68870234333911e+18,31.3541099609375,-245.5152374267578,138.62859802246095,-156.477197265625,1.6887023433280696e+18,31.343069824218748,-0.3887352148691812,0.8561672568321228,-0.3352417151133218,0.0521545521914958,-2.897317091623942,0.7766316135724386,-0.8478865623474121
1.4,1.6887023433799708e+18,31.394970865885416,2.8807784716288247,6.917200406392415,-3.938025633494059,1.6887023433799708e+18,31.394970865885416,-2.848455905914306,-0.908674438794454,-2.393022060394287,1.6887023433799708e+18,31.394970865885416,-5.735080401102702,-7.808370431264241,1.4823161363601685,1.6887023433886195e+18,31.40361946614583,0.8286386926968893,-0.9520334800084432,2.87473193804423,1.6887023433842975e+18,31.39929736328125,0.952567994594574,-0.8003098368644714,2.8428142070770264,,,,,,,,,,,,1.6887023433891136e+18,31.404113525390624,2.310679924488068,44.77887878417969,-22.89695930480957,1.6887023433891136e+18,31.404113525390624,-252.23011779785156,140.24387817382814,-156.10875854492187,1.6887023433799708e+18,31.394970865885416,-0.4522549013296763,0.8293155233065287,-0.3187504808108012,0.0749755253394444,-2.8664492766062417,0.9244380593299866,-0.8712001442909241
1.45,1.6887023434318886e+18,31.446888509114583,2.325981616973877,4.2574818929036455,-6.822108109792073,1.6887023434318886e+18,31.446888509114583,-2.2323041359583535,-4.393022924661636,-5.944369475046794,1.6887023434318886e+18,31.446888509114583,-4.564131736755371,-8.633000055948893,0.8150514165560404,1.6887023434405335e+18,31.45553361002604,-0.2809471115469932,-2.609260002772013,3.3216306368509927,1.6887023434275615e+18,31.442561604817712,-0.2186897695064544,-2.5764260292053223,3.256624380747477,,,,,,,,,,,,1.688702343439114e+18,31.454114013671877,-3.9088798999786376,44.99115982055664,-21.90387954711914,1.688702343439114e+18,31.454114013671877,-258.4496765136719,140.45615844726564,-155.115673828125,1.6887023434318886e+18,31.446888509114583,-0.4987016816933949,0.789637545744578,-0.3253696560859679,0.1443212007482846,-2.933535019556681,1.081164280573527,-0.906975766023
1.5,1.688702343483787e+18,31.498786865234376,13.452789386113484,-23.051909764607743,-2.9648470878601074,1.688702343483787e+18,31.498786865234376,10.03569793701172,-32.25345547993978,-2.525823712348938,1.688702343483787e+18,31.498786865234376,-3.4229377110799155,-9.184040705362955,0.3763359785079956,1.6887023434924352e+18,31.507435058593742,5.494529167811076,13.070327123006184,0.3352122989793618,1.6887023434794637e+18,31.49446370442708,3.803450624148051,8.35719664891561,1.277370144923528,,,,,,,,,,,,1.6887023434891182e+18,31.504118115234377,-13.388279819488526,45.937879180908205,-14.230079460144044,1.6887023434891182e+18,31.504118115234377,-267.9290710449219,141.402880859375,-147.44187927246094,1.688702343483787e+18,31.498786865234376,-0.5552746653556824,0.7794268528620402,-0.2364991754293441,0.1348530252774556,-2.993564049402873,1.218153953552246,-0.6909717818101248
1.55,1.6887023435356923e+18,31.550692464192707,3.10794989267985,-22.6377805074056,-1.0088966091473897,1.6887023435356923e+18,31.550692464192707,-0.6516456604003888,-31.696325302124023,-0.8061817983786265,1.6887023435356923e+18,31.550692464192707,-3.76544197400411,-9.04103978474935,0.1400274684031804,1.6887023435356897e+18,31.550689819335936,4.687627077102661,12.514261722564695,-3.1060207039117813,1.6887023435313656e+18,31.54636564127604,5.042336304982503,13.314622243245443,-2.7406469186147056,,,,,,,,,,,,1.6887023435391132e+18,31.554113134765625,-12.02675986289978,47.73127899169922,9.330559873580931,1.6887023435391132e+18,31.554113134765625,-266.56755981445315,143.19627685546874,-123.88123779296876,1.6887023435356923e+18,31.550692464192707,0.5532547831535339,-0.8187334338823954,-0.0986696520509819,0.074909466629227,-3.0944648583730063,1.1900039116541543,0.2053386953969796
1.6,1.688702343587599e+18,31.60259912109375,2.9664063453674316,1.7770177523295083,4.481787919998169,1.688702343587599e+18,31.60259912109375,-1.6664015452067058,-6.863412857055664,4.178665955861409,1.688702343587599e+18,31.60259912109375,-4.638653914133708,-8.622926076253256,-0.3658093760410945,1.6887023435789476e+18,31.593947428385416,0.212937427063783,-3.5740199089050293,-0.7455609962344171,1.688702343583274e+18,31.59827400716146,0.0020362064242363,-4.8051170078106225,-0.0737620194753011,,,,,,,,,,,,1.6887023435891162e+18,31.604116064453127,-5.7217999458312985,47.94356002807617,13.75915985107422,1.6887023435891162e+18,31.604116064453127,-260.26259155273436,143.40855712890624,-119.45263671875,1.688702343587599e+18,31.60259912109375,0.5126569370428721,-0.8403497934341431,-0.152133526901404,0.0713726604978243,0.9676856199900308,1.0884110530217488,0.4071894784768422
1.65,1.6887023436395e+18,31.6545,2.9952808221181235,10.52425479888916,4.479464054107666,1.6887023436395e+18,31.6545,-0.167497585217158,1.3433704872926076,3.1367910703023276,1.6887023436395e+18,31.6545,-3.1686244010925293,-9.163379669189451,-1.4053603013356526,1.6887023436308524e+18,31.645852376302084,-1.7035504579544067,-8.542543411254881,2.5490897496541343,1.6887023436351788e+18,31.6501787109375,-1.8260289430618288,-8.354905923207602,2.5263350009918213,,,,,,,,,,,,1.6887023436391155e+18,31.654115576171876,-15.733119583129882,47.572679138183595,6.839319705963135,1.6887023436391155e+18,31.654115576171876,-270.27391357421874,143.0376770019531,-126.37247467041016,1.6887023436395e+18,31.6545,-0.579604427019755,0.8085740208625793,0.0051086355621616,0.0815586944421132,2.7233476638793945,1.2226875225702922,0.3086589872837066
1.7,1.688702343691405e+18,31.706404947916667,0.622343381245931,11.838359514872232,3.1525344053904214,1.688702343691405e+18,31.706404947916667,-1.232503076394399,2.245664119720459,2.2319053014119468,1.688702343691405e+18,31.706404947916667,-1.8606925010681152,-9.575190862019856,-0.9833165407180786,1.6887023436827574e+18,31.69775716145833,-2.569553772608439,-5.585955460866292,1.563356876373291,1.6887023436870833e+18,31.702083577473957,-2.61073629061381,-5.421480019887288,1.5009467999140422,,,,,,,,,,,,1.6887023436891156e+18,31.704115673828124,-21.237759399414063,45.92567901611328,-4.594519877061248,1.6887023436891156e+18,31.704115673828124,-275.7785583496094,141.39067687988282,-137.8063201904297,1.688702343691405e+18,31.706404947916667,-0.6161767641703287,0.7551690737406412,-0.1375833054383595,0.1714835812648137,2.697695175806681,1.3670103947321577,0.0006796264400084
1.75,1.6887023437346624e+18,31.749662475585936,0.0575983226299285,11.23327398300171,1.9948524832725525,1.6887023437346624e+18,31.749662475585936,-1.192822054028511,1.4895320534706116,1.94506573677063,1.6887023437346624e+18,31.749662475585936,-1.2562664151191711,-9.726237773895264,-0.1124741211533546,1.68870234373466e+18,31.74966007486979,-2.68566902478536,-4.459621747334798,1.1703160206476848,1.6887023437389855e+18,31.75398592122396,-2.649373451868693,-4.322533210118611,1.1383473873138428,,,,,,,,,,,,1.6887023437391158e+18,31.754115673828124,-21.68427963256836,43.28559875488281,-15.791680145263673,1.6887023437391158e+18,31.754115673828124,-276.22507934570314,138.75059509277344,-149.00347595214845,1.6887023437346624e+18,31.749662475585936,-0.6272823810577393,0.7083148956298828,-0.2424473315477371,0.2133393734693527,0.028833270072937,1.4469357132911682,-0.6865592151880264
1.8,1.688702343777915e+18,31.79291479492187,0.7179378867149353,7.544286886850993,0.3668622175852458,1.688702343777915e+18,31.79291479492187,-0.3018944511810938,-2.2019951343536377,1.1359925270080566,1.688702343777915e+18,31.79291479492187,-1.0256783763567607,-9.728777567545572,0.7064429024855295,1.688702343786563e+18,31.80156331380208,-0.9917906920115152,-1.6991725626091163,-0.3938553730646769,1.68870234379089e+18,31.805889973958333,-0.681827445824941,-1.3394747575124104,-0.6526585817337036,1.6887023437649408e+18,31.77994091796875,0.0,0.0,1.2697945833206177,7.359000205993652,2.7654237747192383,95.0955810546875,43.400001525878906,-122.7530296,49.1874023,1.688702343789113e+18,31.804113232421876,-19.724959564208984,40.882198333740234,-23.07019920349121,1.688702343789113e+18,31.804113232421876,-274.26575927734376,136.34719543457032,-156.28199768066406,1.688702343777915e+18,31.79291479492187,-0.6286583145459493,0.670582135518392,-0.3168877760569255,0.2331014374891916,-2.446183522542318,1.4373447895050049,-1.4963105916976929
1.85,1.6887023438298214e+18,31.844821370442705,-2.6250357230504355,1.6544944445292156,3.7484325965245566,1.6887023438298214e+18,31.844821370442705,-4.445465564727783,-7.981858094533284,4.249453624089559,1.6887023438298214e+18,31.844821370442705,-1.8262758652369184,-9.618847846984863,0.4383336280783017,1.6887023438384714e+18,31.853471598307294,2.7415632009506226,2.6592491467793784,-2.4246259530385337,1.6887023438341473e+18,31.849147216796872,2.501645803451538,2.3832143545150757,-2.486374258995056,,,,,,,,,,,,1.6887023438391173e+18,31.8541173828125,-16.511479568481445,43.200198364257815,-20.954719924926756,1.6887023438391173e+18,31.8541173828125,-271.0522766113281,138.66519775390626,-154.16651611328126,1.6887023438298214e+18,31.844821370442705,-0.5987893541653951,0.7027987639109293,-0.3106459776560465,0.223808134595553,-2.809854825337728,1.3745886087417605,-1.1109424034754436
1.9,1.688702343881726e+18,31.896725911458333,-8.542556762695312,-24.525048573811848,8.278199672698975,1.688702343881726e+18,31.896725911458333,-11.74836015701294,-33.76512018839518,7.602396488189697,1.688702343881726e+18,31.896725911458333,-3.211649258931478,-9.222566286722818,-0.7384909093379974,1.6887023438903729e+18,31.905372802734377,3.214525739351908,6.342155615488688,-2.8726956844329834,1.6887023438773972e+18,31.89239737955729,4.094069798787435,5.560451666514079,-2.8327348232269287,,,,,,,,,,,,1.6887023438891144e+18,31.90411435546875,-13.778679656982424,47.72639923095703,-9.564799880981443,1.6887023438891144e+18,31.90411435546875,-268.31947021484376,143.19140014648437,-142.77659606933594,1.688702343881726e+18,31.896725911458333,-0.5546363393465678,0.7885169386863708,-0.1906899611155191,0.1759734501441319,2.9542651971181235,1.2360113859176636,-0.3452152162790298
1.95,1.6887023439336294e+18,31.94862947591146,-4.102975368499756,-11.231478055318195,-1.4769644439220428,1.6887023439336294e+18,31.94862947591146,-8.634700139363607,-19.91007900238037,-1.0472587148348491,1.6887023439336294e+18,31.94862947591146,-4.537570794423421,-8.661096572875977,0.3670183221499125,1.6887023439422802e+18,31.95728011067709,-3.15822426478068,3.8586321671803794,-1.8614591360092163,1.688702343929306e+18,31.944306070963545,-2.1133900632460914,5.255273660024007,-2.0741929610570273,,,,,,,,,,,,1.6887023439391196e+18,31.954119482421873,-9.67703981399536,49.30019912719727,-5.716919803619385,1.6887023439391196e+18,31.954119482421873,-264.21784057617185,144.76519775390625,-138.92871704101563,1.6887023439336294e+18,31.94862947591146,-0.1790345708529154,0.2774826486905415,-0.032709889113903,0.0440164745474854,-0.9533807436625162,1.0917200247446697,-0.3168598214785258
2.0,1.6887023439855355e+18,32.00053548177083,31.755886395772297,-7.331934452056885,-1.8985006014506025,1.6887023439855355e+18,32.00053548177083,25.405595302581787,-14.555539766947428,-1.002792199452718,1.6887023439855355e+18,32.00053548177083,-6.356136957804362,-7.206100781758626,0.8330209851264954,1.688702343985531e+18,32.00053100585937,-4.948466777801514,-13.70873212814331,-8.43681287765503,1.6887023439812073e+18,31.996207194010413,-4.499531507492065,-10.874114076296488,-6.317670186360677,,,,,,,,,,,,1.6887023439891164e+18,32.004116210937504,1.8690399408340457,47.482398986816406,-13.46879940032959,1.6887023439891164e+18,32.004116210937504,-252.6717559814453,142.94739685058593,-146.68059692382812,1.6887023439855355e+18,32.00053548177083,-0.0739082793394724,0.303654412428538,-0.1334807723760604,0.0638154254605372,-0.872567892074585,0.8401615619659424,-0.5997642278671265
2.05,1.6887023440374405e+18,32.05244034830729,27.01892630259196,-5.304187933603923,-2.3661471207936606,1.6887023440374405e+18,32.05244034830729,19.772690455118816,-11.832308451334637,-3.08833642800649,1.6887023440374405e+18,32.05244034830729,-7.252081712086995,-6.510615825653076,-0.7848767526447774,1.6887023440287885e+18,32.04378833007812,-2.323018709818522,-1.66613507270813,0.815250555674235,1.6887023440331082e+18,32.04810831705729,-2.090940753618876,0.5170466105143229,1.602401336034139,,,,,,,,,,,,1.6887023440391122e+18,32.05411206054687,18.451279830932616,43.78579940795898,-16.72619972229004,1.6887023440391122e+18,32.05411206054687,-236.08951416015623,139.25079650878905,-149.93799743652343,1.6887023440374405e+18,32.05244034830729,-0.3153464595476786,0.859063724676768,-0.3620560069878896,0.171720211704572,0.9599865277608236,0.7300110260645548,-0.7666656176249186
2.1,1.6887023440893489e+18,32.10434879557292,-1.3848779996236165,4.742245992024739,-1.7166641155878704,1.6887023440893489e+18,32.10434879557292,-7.318049271901448,-3.062414119640986,-1.45224396387736,1.6887023440893489e+18,32.10434879557292,-5.939017295837402,-7.787155628204346,0.2017327509820461,1.6887023440806943e+18,32.09569474283854,0.4728606070081393,1.2500847975413003,3.876347223917643,1.6887023440850166e+18,32.100016764322916,0.5867869754632314,0.6985243757565817,3.8609228134155273,,,,,,,,,,,,1.688702344089112e+18,32.10411215820313,5.763280010223388,45.71827926635742,-19.459000015258788,1.688702344089112e+18,32.10411215820313,-248.7775146484375,141.1832763671875,-152.6707977294922,1.6887023440893489e+18,32.10434879557292,-0.4208528399467468,0.8325976729393005,-0.3280902504920959,0.145848383506139,-3.0876502195994058,0.9224011301994324,-0.7768982450167338
2.15,1.6887023441412467e+18,32.15624666341146,-0.9465440909067788,8.854435920715332,-2.7633439699808755,1.6887023441412467e+18,32.15624666341146,-5.281557718912761,0.0869392156600952,-3.377469062805176,1.6887023441412467e+18,32.15624666341146,-4.340859651565552,-8.74999205271403,-0.676812489827474,1.688702344132595e+18,32.14759505208334,0.2761619885762532,-3.535128116607666,3.742924054463705,1.6887023441369252e+18,32.15192513020833,0.1009454925855,-3.808846712112427,3.783393939336141,,,,,,,,,,,,1.688702344139112e+18,32.154112109375,-0.4635999828577041,47.074919891357425,-17.875439834594726,1.688702344139112e+18,32.154112109375,-255.00439453125,142.5399200439453,-151.0872375488281,1.6887023441412467e+18,32.15624666341146,-0.4727053741614024,0.7812607884407043,-0.3300037582715352,0.2357554187377293,3.0099003314971924,1.1099395751953125,-0.7155880530675253
2.2,1.6887023441844987e+18,32.19949865722656,3.4046908617019653,-4.0861310958862305,-4.948537826538086,1.6887023441844987e+18,32.19949865722656,0.8793622255325315,-13.51884937286377,-5.8938212394714355,1.6887023441844987e+18,32.19949865722656,-2.5311747789382935,-9.41521406173706,-1.0079708695411682,1.6887023441845036e+18,32.199503580729164,-1.0371473878622055,-3.3192889417211213,4.225762128829956,1.6887023441888297e+18,32.20382975260417,-0.8091928561528524,-2.5030712286631265,4.180761734644572,,,,,,,,,,,,1.6887023441891162e+18,32.20411616210937,-6.519679927825928,45.34007873535156,-20.661919784545898,1.6887023441891162e+18,32.20411616210937,-261.0604736328125,140.805078125,-153.87371826171875,1.6887023441844987e+18,32.19949865722656,-0.5102926790714264,0.7006748914718628,-0.3706048876047134,0.3326568007469177,2.8084146976470947,1.2952375411987305,-0.7190159261226654
2.25,1.688702344227758e+18,32.242758056640625,15.981550296147663,-33.42254956563314,3.2499569257100425,1.688702344227758e+18,32.242758056640625,14.126826445261637,-42.97569147745768,2.0404795010884604,1.688702344227758e+18,32.242758056640625,-1.860571026802063,-9.53563658396403,-1.272164821624756,1.6887023442364086e+18,32.25140852864583,4.173278729120891,19.117129643758137,-0.1505273977915446,1.688702344240731e+18,32.25573087565104,4.355927308400472,20.8789161046346,-0.6448700825373331,,,,,,,,,,,,1.6887023442391155e+18,32.25411533203125,-17.90227928161621,46.13063888549805,-8.210599899291992,1.6887023442391155e+18,32.25411533203125,-272.4430725097656,141.59563598632812,-141.42239685058593,1.688702344227758e+18,32.242758056640625,-0.573509673277537,0.7244045734405518,-0.2335815355181693,0.2674371053775151,2.5717202027638755,1.3497680028279622,-0.1659249191482862
2.3,1.6887023442796626e+18,32.29466259765625,-1.8905169169108067,-7.618777592976888,-2.0989174842834473,1.6887023442796626e+18,32.29466259765625,-5.734599033991496,-16.628522237141926,-2.5431717236836753,1.6887023442796626e+18,32.29466259765625,-3.849928061167399,-8.992240269978842,-0.5069417854150137,1.6887023442883092e+18,32.303309407552085,1.784693698088328,5.495089213053386,-2.5264368851979575,1.6887023442926313e+18,32.30763134765625,1.5477798183759053,2.8996756176153817,-2.3277019560337067,1.6887023442839905e+18,32.29899047851563,0.0,0.0,1.2793829441070557,7.307000160217285,2.7692863941192627,94.02066040039062,43.400001525878906,-122.7530153,49.1874025,1.6887023442891116e+18,32.304111376953124,-10.631079864501952,47.31891860961914,13.437079811096192,1.6887023442891116e+18,32.304111376953124,-265.1718688964844,142.7839141845703,-119.77471771240236,1.6887023442796626e+18,32.29466259765625,0.1634426315625508,-0.2820142110188802,-0.0792089961469173,0.049482388421893,3.0090840657552085,1.1769859393437705,0.3598766426245371
2.35,1.6887023443315622e+18,32.34656209309896,1.3712326685587566,4.067982355753581,3.271944602330526,1.6887023443315622e+18,32.34656209309896,-2.573081930478414,-4.770889520645142,1.737787425518036,1.6887023443315622e+18,32.34656209309896,-3.950160582860311,-8.821367263793945,-1.5968445936838789,1.688702344340215e+18,32.35521500651041,-0.9829839964707692,-9.0202906926473,0.7418958445390066,1.68870234433589e+18,32.35089001464844,-0.7603745311498642,-9.238878726959229,0.8014551997184753,,,,,,,,,,,,1.6887023443391122e+18,32.35411215820312,-12.573319816589356,47.26523971557617,12.099959754943848,1.6887023443391122e+18,32.35411215820312,-267.11411743164064,142.73023986816406,-121.11183624267578,1.6887023443315622e+18,32.34656209309896,-0.1910133759180704,0.2725124955177307,-0.005528108527263,0.055346647898356,2.7547216415405273,1.132826328277588,0.4391211271286011
2.4,1.688702344383473e+18,32.39847314453125,2.3540335496266684,9.679486910502115,5.202994664510091,1.688702344383473e+18,32.39847314453125,-0.4564309219519297,0.5096712112426758,3.1507492065429688,1.688702344383473e+18,32.39847314453125,-2.8163105646769204,-9.152311325073242,-2.1149327357610064,1.6887023443921216e+18,32.40712166341146,-2.7634525299072266,-7.283397038777669,0.0288124804695447,1.688702344379147e+18,32.39414680989583,-2.532800038655599,-7.9138102531433105,0.2846632053454717,,,,,,,,,,,,1.6887023443891174e+18,32.40411762695312,-16.911639785766603,47.72883834838867,1.4176399469375611,1.6887023443891174e+18,32.40411762695312,-271.4524353027344,143.19383544921874,-131.79415740966795,1.688702344383473e+18,32.39847314453125,-0.5689549644788107,0.7937535444895426,-0.0845587930331627,0.1902158558368682,2.5061286290486655,1.217376669247945,0.2377632583181063
2.45,1.6887023444353772e+18,32.45037727864583,0.1612114111582438,11.658339818318684,4.004367510477702,1.6887023444353772e+18,32.45037727864583,-2.095115582148234,2.215554396311442,2.5794628461201987,1.6887023444353772e+18,32.45037727864583,-2.2621730168660483,-9.425280888875326,-1.4875920216242473,1.688702344435374e+18,32.45037426757813,-3.02011775970459,-6.0199244022369385,-0.0122173056006431,1.6887023444310454e+18,32.446045328776044,-3.002708117167155,-6.105547269185384,-0.029270626604557,,,,,,,,,,,,1.688702344439117e+18,32.454116943359374,-14.72295970916748,47.09931945800781,-10.83359966278076,1.688702344439117e+18,32.454116943359374,-269.2637512207031,142.56431884765624,-144.04539794921874,1.6887023444353772e+18,32.45037727864583,-0.5598415931065878,0.7452351252237955,-0.2365448425213495,0.2705513487259547,2.59786327679952,1.302124540011088,-0.1973473752538362
2.5,1.68870234448728e+18,32.50228019205729,1.848477482795715,10.815059026082356,2.4701178073883057,1.68870234448728e+18,32.50228019205729,0.1018943587938944,1.166899840037028,1.9635103940963743,1.68870234448728e+18,32.50228019205729,-1.7524291276931765,-9.630654652913412,-0.569294884800911,1.6887023444786312e+18,32.49363110351563,-2.797966480255127,-5.179373741149902,0.665537695089976,1.6887023444829563e+18,32.49795654296875,-2.7392725149790444,-5.015661716461182,0.6845254103342692,,,,,,,,,,,,1.6887023444891205e+18,32.504120166015625,-10.98243980407715,44.55195846557617,-21.137719345092773,1.6887023444891205e+18,32.504120166015625,-265.5232299804687,140.01695251464844,-154.34951782226562,1.68870234448728e+18,32.50228019205729,-0.5494341055552164,0.674578587214152,-0.3644975324471791,0.3297857145468393,2.9126478830973306,1.3845856189727783,-0.8029255270957947
2.55,1.6887023445391864e+18,32.55418644205729,7.915021737416584,5.071010748545329,3.0114689668019614,1.6887023445391864e+18,32.55418644205729,6.777071952819824,-4.686143716176351,3.222533861796061,1.6887023445391864e+18,32.55418644205729,-1.1437959273656209,-9.739649772644045,0.1483774880568186,1.6887023445305285e+18,32.54552840169271,-0.9382890164852142,0.9513716300328572,1.0890708963076274,1.688702344534864e+18,32.54986368815104,-0.6427829464276632,1.8984673420588176,1.1596767505009968,,,,,,,,,,,,1.688702344539116e+18,32.554116113281246,-10.923879814147949,41.943599700927734,-26.017719650268553,1.688702344539116e+18,32.554116113281246,-265.4646728515625,137.40859985351562,-159.2295166015625,1.6887023445391864e+18,32.55418644205729,-0.5744150082270304,0.6357865333557129,-0.3928090333938598,0.3327437539895375,-2.8971222241719565,1.448926369349162,-1.324647386868795
2.6,1.6887023445910876e+18,32.60608780924479,-2.1788097620010376,-2.360580762227377,10.47075080871582,1.6887023445910876e+18,32.60608780924479,-3.3880375623703003,-12.095718701680502,10.208778381347656,1.6887023445910876e+18,32.60608780924479,-1.215073784192403,-9.717633565266928,-0.3246601428836584,1.688702344582439e+18,32.59743863932292,2.523637056350708,7.600843588511149,-0.8962411483128866,1.688702344586763e+18,32.60176277669271,2.6908614238103232,7.832055886586507,-1.382693459590276,,,,,,,,,,,,1.6887023445891128e+18,32.60411279296875,-18.44395980834961,42.82931976318359,-19.946999740600585,1.6887023445891128e+18,32.60411279296875,-272.98475952148436,138.29432067871093,-153.15879516601564,1.6887023445910876e+18,32.60608780924479,-0.6133357683817545,0.6988741556803385,-0.2634587883949279,0.2485224505265554,0.9210949738820396,1.4443949063618975,-0.6177350878715515
2.65,1.6887023446343452e+18,32.64934521484375,-9.060833930969238,-31.440019607543945,12.1711163520813,1.6887023446343452e+18,32.64934521484375,-12.60329532623291,-40.57299995422363,12.0032958984375,1.6887023446343452e+18,32.64934521484375,-3.548307418823242,-9.115474224090576,-0.2305086366832256,1.6887023446343455e+18,32.649345540364585,-0.3016147414843241,7.497912883758545,-6.219168027242024,1.6887023446386708e+18,32.65367106119792,-0.82207190990448,7.148752212524414,-6.05275821685791,,,,,,,,,,,,1.6887023446391173e+18,32.6541173828125,-14.398439407348633,47.738599395751955,-9.045079803466797,1.6887023446391173e+18,32.6541173828125,-268.9392333984375,143.20359802246094,-142.2568786621094,1.6887023446343452e+18,32.64934521484375,-0.5536580979824066,0.8087610602378845,-0.154592603445053,0.1156545281410217,-0.0564258098602294,1.2026017308235168,-0.3348449766635895
2.7,1.688702344677599e+18,32.69259895833333,-8.275107383728027,-11.283502260843912,0.0332027276357015,1.688702344677599e+18,32.69259895833333,-13.03210973739624,-19.74038823445638,1.5702898502349854,1.688702344677599e+18,32.69259895833333,-4.7628482182820635,-8.439381917317709,1.4743997653325398,1.688702344686246e+18,32.70124584960937,-3.1820479234059653,-0.5016730427742004,-0.3469714745879173,1.688702344690576e+18,32.70557600911459,-3.177924633026123,-1.183907787005107,-0.0954477190971374,,,,,,,,,,,,1.688702344689113e+18,32.70411303710937,-7.590839958190918,47.84351806640625,-13.961679649353028,1.688702344689113e+18,32.70411303710937,-262.1316345214844,143.3085205078125,-147.17347412109376,1.688702344677599e+18,32.69259895833333,0.1676332354545593,-0.2800846298535664,0.0693195611238479,0.0100697379869718,-2.823796510696411,1.039620876312256,-0.5680899222691854
2.75,1.688702344729504e+18,32.7445039876302,20.768633524576824,-1.9999488194783528,-6.224163055419922,1.688702344729504e+18,32.7445039876302,15.12802267074585,-9.752147992451986,-4.332205494244893,1.688702344729504e+18,32.7445039876302,-5.646457513173421,-7.734694480895996,1.829269965489705,1.6887023447381542e+18,32.753154296875,-3.561598857243856,-4.334038138389587,-5.168327312916517,1.6887023447424748e+18,32.757474853515625,-3.4187583128611245,-3.614845911661784,-4.658967514832814,,,,,,,,,,,,1.6887023447391155e+18,32.75411528320312,3.0792799949645997,44.0346794128418,-22.064919662475585,1.6887023447391155e+18,32.75411528320312,-251.4615173339844,139.4996765136719,-155.2767120361328,1.688702344729504e+18,32.7445039876302,-0.4580965836842854,0.8381512562433878,-0.2842647681633631,0.0352389222631851,-2.8013275464375815,0.9155295888582864,-0.8256240288416544
2.8,1.6887023447814075e+18,32.79640763346354,10.348549365997314,-7.645447413126628,-9.026282946268717,1.6887023447814075e+18,32.79640763346354,4.289533297220865,-14.617354393005373,-5.804788271586101,1.6887023447814075e+18,32.79640763346354,-6.064863046010335,-6.954402446746826,3.1588072776794434,1.688702344790059e+18,32.80505908203125,0.2485203246275583,4.857702215512593,4.870479424794515,1.688702344785735e+18,32.80073461914063,0.0017562210559844,6.103536248207092,5.234198808670044,1.6887023448030234e+18,32.8180234375,0.0,0.0,1.2793829441070557,7.267000198364258,2.7649881839752197,92.15513610839844,43.400001525878906,-122.7529838,49.1874017,1.6887023447891136e+18,32.804113623046874,0.9442798733711244,41.50439987182617,-27.66715888977051,1.6887023447891136e+18,32.804113623046874,-253.59652099609377,136.96940002441406,-160.8789520263672,1.6887023447814075e+18,32.79640763346354,0.1840158899625142,-0.2634594440460205,0.0972296595573425,0.0300368967776496,-2.6394339402516684,0.7888650496800741,-0.9816906452178956
2.85,1.6887023448333148e+18,32.848314615885414,0.6574715773264567,6.899171829223633,-5.949639638264974,1.6887023448333148e+18,32.848314615885414,-3.2683962980906167,-1.5022937655448914,-2.7008985678354898,1.6887023448333148e+18,32.848314615885414,-3.931713898976644,-8.383961041768393,3.18605367342631,1.6887023448419628e+18,32.856962727864584,1.2456051111221311,-0.9148725345730782,4.106847047805786,1.688702344828989e+18,32.84398876953125,1.4696908791859944,-0.2531018157800038,4.347986062367757,,,,,,,,,,,,1.6887023448391173e+18,32.85411748046875,-11.875479698181152,42.2973991394043,-25.31011962890625,1.6887023448391173e+18,32.85411748046875,-266.41627807617186,137.76239624023438,-158.52191772460938,1.6887023448333148e+18,32.848314615885414,0.1664270162582397,-0.2711138327916463,0.1010880370934804,0.0181565362339218,-2.437366565068563,1.0254257917404177,-1.129144032796224
2.9,1.6887023448852122e+18,32.90021223958333,-0.5247454643249511,9.54478899637858,-6.591732501983643,1.6887023448852122e+18,32.90021223958333,-3.170490026473999,0.4398805697758992,-3.9708892504374185,1.6887023448852122e+18,32.90021223958333,-2.651590585708618,-9.087404251098633,2.5581557750701904,1.6887023448852124e+18,32.900212402343755,-0.1660026311874389,-3.100751996040344,3.102660894393921,1.68870234488089e+18,32.8958896484375,0.0164424475903312,-2.836654623349508,3.2020537853240967,,,,,,,,,,,,1.688702344889113e+18,32.9041130859375,-16.79695987701416,40.75531997680664,-25.263759613037102,1.688702344889113e+18,32.9041130859375,-271.33775634765624,136.22031860351564,-158.47555541992188,1.6887023448852122e+18,32.90021223958333,-0.6019822160402933,0.7318907777468363,-0.3099970817565917,0.0696634799242019,-2.339922110239665,1.181365927060445,-1.3561257521311445
2.95,1.688702344937123e+18,32.95212312825521,6.116709232330322,-5.919212023417155,-6.158457279205322,1.688702344937123e+18,32.95212312825521,4.0498524109522505,-15.330615361531576,-4.216951131820679,1.688702344937123e+18,32.95212312825521,-2.0727028449376426,-9.393898963928224,1.8788185516993203,1.6887023449284718e+18,32.943471761067705,1.073493838310242,-2.719266653060913,1.5492560863494873,1.6887023449327992e+18,32.94779923502605,1.496161679426829,-2.25017300248146,1.32181054353714,,,,,,,,,,,,1.6887023449391173e+18,32.954117285156244,-16.31627998352051,39.75979843139648,-26.95223922729492,1.6887023449391173e+18,32.954117285156244,-270.85707397460936,135.22479553222655,-160.1640380859375,1.688702344937123e+18,32.95212312825521,-0.6105314691861471,0.697149376074473,-0.3423649668693542,0.1532852848370869,-2.370977799097697,1.274746576944987,-1.4951720635096233
3.0,1.6887023449890276e+18,33.004027587890626,5.597148656845093,-31.45890235900879,-5.306782404581706,1.6887023449890276e+18,33.004027587890626,2.8628128369649253,-40.874594370524086,-5.265206813812256,1.6887023449890276e+18,33.004027587890626,-2.7401817639668784,-9.398186047871908,-0.0211118559042612,1.688702344980382e+18,32.99538208007812,6.478684107462565,9.338093121846518,-2.6430612007776895,1.6887023449847063e+18,32.999706217447915,6.500013510386149,10.462950865427652,-2.8345165252685547,,,,,,,,,,,,1.6887023449891182e+18,33.00411831054687,-17.87787971496582,45.149758911132814,-12.74167981147766,1.6887023449891182e+18,33.00411831054687,-272.41868286132814,140.61475830078126,-145.95347595214844,1.6887023449890276e+18,33.004027587890626,-0.5899664560953776,0.7763730883598328,-0.1559216355284054,0.11635942881306,1.1021405855814617,1.2910910447438555,-0.4476698897778988
3.05,1.6887023450409316e+18,33.055931640625,11.114133675893148,-8.731403350830078,5.65049409866333,1.6887023450409316e+18,33.055931640625,6.669394652048747,-17.442280769348145,6.328018799424172,1.6887023450409316e+18,33.055931640625,-4.450585047403972,-8.69337240854899,0.6148369560639063,1.688702345032276e+18,33.04727579752604,2.6903014282385507,13.336918671925863,-4.077627340952556,1.6887023450366042e+18,33.051603841145834,2.251802059588954,11.71873688697815,-4.0407209396362305,,,,,,,,,,,,1.6887023450391176e+18,33.0541173828125,-8.903559923171997,48.390079498291016,8.730319833755493,1.6887023450391176e+18,33.0541173828125,-263.44435424804686,143.855078125,-124.48147735595704,1.6887023450409316e+18,33.055931640625,0.510833611090978,-0.8368791341781616,-0.1369366000096002,0.1201740701993306,-3.0038722356160483,1.1046531597773237,0.2401838997999827
3.1,1.6887023450841864e+18,33.09918627929687,2.998483180999756,5.568238973617554,2.7426242232322693,1.6887023450841864e+18,33.09918627929687,-1.758126437664032,-3.018246650695801,2.947060227394104,1.6887023450841864e+18,33.09918627929687,-4.762455701828003,-8.568981170654297,0.1417486444115639,1.6887023450841833e+18,33.09918318684896,-1.569007416566213,-8.752426306406658,1.664658745129903,1.6887023450885128e+18,33.10351245117187,-1.7401514848073325,-9.280468146006266,1.939446210861206,,,,,,,,,,,,1.6887023450891192e+18,33.10411923828125,-5.004439926147461,49.04399871826172,9.179279899597168,1.6887023450891192e+18,33.10411923828125,-259.5452362060547,144.50899963378907,-124.03251800537107,1.6887023450841864e+18,33.09918627929687,0.5061005651950836,-0.8521474897861481,-0.1026899367570877,0.0712177380919455,0.0363931655883789,1.0742621421813965,0.2185137718915939
3.15,1.6887023451274404e+18,33.14244034830729,3.6251598993937177,9.492871602376304,3.724994738896688,1.6887023451274404e+18,33.14244034830729,-0.1250249892473221,0.4412763714790344,3.173281669616699,1.6887023451274404e+18,33.14244034830729,-3.7560309569040937,-9.034090995788576,-0.6144004861513773,1.6887023451360865e+18,33.15108650716146,-2.916016101837158,-8.67963171005249,1.8878280719121296,1.6887023451404137e+18,33.155413655598956,-2.963103691736857,-8.47998046875,1.7689640124638877,,,,,,,,,,,,1.688702345139114e+18,33.1541140625,-13.13451976776123,48.52671813964844,-0.7832399845123291,1.688702345139114e+18,33.1541140625,-267.6753173828125,143.99171447753906,-133.9950408935547,1.6887023451274404e+18,33.14244034830729,-0.5531937678654989,0.8256193399429321,-0.0544867785647511,0.0707482683161894,2.9948063691457114,1.1820826133092244,-0.0339247025549411
3.2,1.6887023451793452e+18,33.19434537760417,2.2460134029388428,10.773077646891275,2.442586660385132,1.6887023451793452e+18,33.19434537760417,-0.6851449136932691,1.4059826930363972,2.102493484814962,1.6887023451793452e+18,33.19434537760417,-2.937004327774048,-9.349590301513672,-0.4027804931004842,1.6887023451879964e+18,33.202996337890625,-3.0003155867258706,-6.811554908752441,0.4756095061699549,1.6887023451923205e+18,33.20732023111979,-2.9614237944285073,-6.7169725100199384,0.3894775087634722,,,,,,,,,,,,1.6887023451891174e+18,33.20411748046875,-12.971039581298829,46.89679870605469,-13.23455982208252,1.6887023451891174e+18,33.20411748046875,-267.5118347167969,142.3617950439453,-146.44635620117188,1.6887023451793452e+18,33.19434537760417,-0.5639679034550985,0.771473248799642,-0.2244319717089334,0.1837784846623738,3.041956822077433,1.2691906293233235,-0.4935879409313202
3.25,1.6887023452312463e+18,33.24624650065104,5.322617133458455,8.451154390970865,-0.1622595191001892,1.6887023452312463e+18,33.24624650065104,2.513859510421753,-0.9631111224492392,-0.0468594233194985,1.6887023452312463e+18,33.24624650065104,-2.814603567123413,-9.396761258443195,0.0527126528322696,1.688702345239893e+18,33.25489298502604,-1.6380860408147175,-3.0014864057302475,0.0057523176074028,1.688702345235577e+18,33.2505771484375,-1.9363664984703064,-3.796756684780121,0.034742958843708,,,,,,,,,,,,1.6887023452391145e+18,33.25411459960937,-7.988559818267822,44.090798950195314,-22.40651931762695,1.6887023452391145e+18,33.25411459960937,-262.52935791015625,139.55579833984376,-155.61831665039062,1.6887023452312463e+18,33.24624650065104,-0.5397851467132568,0.7180884480476379,-0.3560497562090556,0.2556399901707967,-3.081116278966268,1.279759407043457,-0.9657066265741984
