seconds_elapsed_rounded,accelerometer_time,accelerometer_seconds_elapsed,accelerometer_z,accelerometer_y,accelerometer_x,accelerometeruncalibrated_time,accelerometeruncalibrated_seconds_elapsed,accelerometeruncalibrated_z,accelerometeruncalibrated_y,accelerometeruncalibrated_x,gravity_time,gravity_seconds_elapsed,gravity_z,gravity_y,gravity_x,gyroscope_time,gyroscope_seconds_elapsed,gyroscope_z,gyroscope_y,gyroscope_x,gyroscopeuncalibrated_time,gyroscopeuncalibrated_seconds_elapsed,gyroscopeuncalibrated_z,gyroscopeuncalibrated_y,gyroscopeuncalibrated_x,location_time,location_seconds_elapsed,location_bearingAccuracy,location_speedAccuracy,location_verticalAccuracy,location_horizontalAccuracy,location_speed,location_bearing,location_altitude,location_longitude,location_latitude,magnetometer_time,magnetometer_seconds_elapsed,magnetometer_z,magnetometer_y,magnetometer_x,magnetometeruncalibrated_time,magnetometeruncalibrated_seconds_elapsed,magnetometeruncalibrated_z,magnetometeruncalibrated_y,magnetometeruncalibrated_x,orientation_time,orientation_seconds_elapsed,orientation_qz,orientation_qy,orientation_qx,orientation_qw,orientation_roll,orientation_pitch,orientation_yaw
0.0,,,,,,,,,,,,,,,,1.6887023120553096e+18,0.0703095703125,1.908037543296814,2.2802071571350098,-0.012980886735022,,,,,,,,,,,,,,,,,,,,,,,,,,,,,,,,,,,
0.05,1.6887023121072978e+18,0.1222978515625,-0.5891199111938477,-2.3374574184417725,2.049070119857788,1.688702312089999e+18,0.1049991455078125,8.201997756958008,2.5591238737106323,-0.5647061318159103,1.6887023121072978e+18,0.1222978515625,8.60640811920166,4.400227069854736,-1.6744691133499146,1.6887023120899973e+18,0.1049971516927083,1.9259562889734905,1.3566298882166543,0.8884526292483012,1.6887023120856732e+18,0.1006732177734375,1.912237286567688,1.404455542564392,0.9378308951854706,,,,,,,,,,,,1.688702312089107e+18,0.10410693359375,-42.30227890014648,-32.44467887878418,1.0052799820899962,1.6887023120941082e+18,0.1091080932617187,-296.71619415283203,62.85744857788086,-132.08634567260742,,,,,,,,,
0.1,1.688702312141914e+18,0.1569140624999999,0.3816305796305339,-2.940521637598674,-0.9813690185546876,1.6887023121332577e+18,0.148257568359375,8.775876681009928,2.5136601527531943,-2.6518457184235253,1.688702312141914e+18,0.1569140624999999,8.470752716064453,4.625823497772217,-1.7535029649734497,1.688702312141914e+18,0.1569140624999999,0.2657263875007629,0.6741406917572021,0.3321579893430074,1.6887023121289285e+18,0.1439283854166666,1.1313733557860055,0.8312857945760092,0.6417648295561472,,,,,,,,,,,,1.6887023121391122e+18,0.1541123046875,-41.050559997558594,-33.97699890136719,0.3220800008624792,1.6887023121391122e+18,0.1541123046875,-295.5913513183594,61.487998962402344,-132.88971862792968,1.6887023121332577e+18,0.148257568359375,-0.9475313027699788,-0.1988479246695835,0.125602014362812,0.2163403332233428,0.1692334562540054,-0.4458482960859934,2.7311085065205893
0.15,1.688702312185162e+18,0.2001619873046874,-1.7838451862335205,-1.711872100830078,-2.4128317832946777,1.6887023121851643e+18,0.2001643880208333,6.964509805043538,2.67178583641847,-3.9250267346700034,1.688702312185162e+18,0.2001619873046874,8.38667631149292,4.645629167556763,-2.076278328895569,1.688702312185162e+18,0.2001619873046874,-0.947986513376236,0.2690861411392689,0.6200282499194146,1.6887023121808384e+18,0.1958384602864583,-1.0374019344647725,0.2692388650029897,0.4712316493193307,,,,,,,,,,,,1.6887023121891123e+18,0.2041123535156249,-41.2384391784668,-34.318599700927734,1.7470399856567382,1.6887023121891123e+18,0.2041123535156249,-295.77923583984375,61.14639892578125,-131.46475524902343,1.6887023121851643e+18,0.2001643880208333,-0.9477680524190268,-0.2013196398814518,0.1415868500868479,0.2027005900939305,0.2095049619674682,-0.4544601639111836,2.7688682079315186
0.2,1.6887023122284175e+18,0.2434176432291666,-0.3099214235941569,-1.2494667371114094,-0.7030475536982218,1.6887023122370732e+18,0.2520732421875,6.964908440907795,3.0723843574523926,-1.7170496781667073,1.6887023122284175e+18,0.2434176432291666,8.26758861541748,4.8304823239644366,-2.13292129834493,1.6887023122284175e+18,0.2434176432291666,-0.1387682259082794,-0.1286380390326182,0.297593188782533,1.6887023122327488e+18,0.247748779296875,0.0084503019849459,-0.107664997378985,0.1907426690061887,,,,,,,,,,,,1.6887023122391114e+18,0.254111376953125,-40.37955856323242,-35.5995979309082,2.5009999752044676,1.6887023122391114e+18,0.254111376953125,-294.92035522460935,59.86539840698242,-130.71079711914064,1.6887023122370732e+18,0.2520732421875,-0.947379469871521,-0.2126849045356114,0.1440456211566925,0.1909969051678975,0.2173409909009932,-0.4757543504238128,2.7966086069742837
0.25,1.6887023122803208e+18,0.2953208821614583,-3.723640282948812,-3.146816809972127,1.883397936820984,1.6887023122889736e+18,0.3039732259114583,5.751548131306966,1.5706886450449626,0.2530410091082255,1.6887023122803208e+18,0.2953208821614583,8.310418446858725,4.918260256449382,-1.7085976600646973,1.6887023122803208e+18,0.2953208821614583,0.98191499710083,-1.3108149965604146,-0.1151481022437413,1.6887023122846456e+18,0.299645751953125,0.9226101636886596,-1.4172582825024922,-0.2325869500637055,,,,,,,,,,,,1.6887023122891154e+18,0.3041154296875,-39.935479736328126,-35.49223937988281,0.2269199967384338,1.6887023122891154e+18,0.3041154296875,-294.4762756347656,59.97275848388672,-132.98487854003906,1.6887023122889736e+18,0.3039732259114583,-0.945853590965271,-0.2185356467962264,0.1197371582190195,0.2074804107348124,0.1539727499087651,-0.481420894463857,2.747690121332804
0.3,1.688702312332231e+18,0.3472311197916666,-1.3416935602823894,-4.124235312143962,3.3261768023173013,1.6887023123408824e+18,0.3558824055989584,7.211967309315999,-0.4225326081116993,2.589432875315348,1.688702312332231e+18,0.3472311197916666,8.779121081034342,4.24203888575236,-1.00401775042216,1.688702312332231e+18,0.3472311197916666,-0.4056145151456197,-0.9998336633046468,-2.5403849283854165,1.6887023123365542e+18,0.3515543619791666,-0.576656793554624,-0.8586220045884451,-2.615419546763102,,,,,,,,,,,,1.6887023123391145e+18,0.35411455078125,-42.70975875854492,-31.4833194732666,-3.386719846725464,1.6887023123391145e+18,0.35411455078125,-297.25054931640625,63.9816780090332,-136.59851989746093,1.6887023123408824e+18,0.3558824055989584,-0.9593677918116252,-0.1777965029080709,0.0766821851332981,0.2041472742954889,0.080249731739362,-0.3818511366844177,2.737835089365641
0.35,1.688702312384133e+18,0.3991329752604167,-3.177264372507731,-6.595002015431722,3.51267417271932,1.6887023123841357e+18,0.3991357421875,6.053542375564575,-3.8282171487808223,2.615654230117798,1.688702312384133e+18,0.3991329752604167,9.24081293741862,3.0964531898498535,-1.089418311913808,1.688702312384133e+18,0.3991329752604167,-2.330501834551493,-0.2363030364116033,-1.7161750396092732,1.6887023123884575e+18,0.4034578450520834,-2.426814874013265,-0.215839053193728,-1.609477202097575,,,,,,,,,,,,1.688702312389117e+18,0.40411669921875,-46.935839080810545,-26.991279220581056,-2.4351199865341187,1.688702312389117e+18,0.40411669921875,-301.47662963867185,68.47371826171874,-135.64691772460938,1.6887023123841357e+18,0.3991357421875,-0.9746768176555634,-0.1303938478231429,0.0650261305272578,0.1691553518176078,0.0859395004808902,-0.2798257023096084,2.809976816177368
0.4,1.6887023124360397e+18,0.4510397135416666,-4.336749235788981,-5.546778837839763,-0.0128984053929646,1.6887023124273892e+18,0.4423892415364583,4.906283537546794,-3.4378878275553384,-0.5310072104136149,1.6887023124360397e+18,0.4510397135416666,9.437984466552734,2.15929651260376,-1.5311456521352131,1.6887023124360397e+18,0.4510397135416666,-2.968346913655599,0.640186787272493,-1.8842647075653076,1.6887023124403663e+18,0.4553662109375,-3.001028219858805,0.8088873972495397,-2.03932273387909,,,,,,,,,,,,1.6887023124391132e+18,0.454113427734375,-48.236359405517575,-23.85831985473633,1.8763599753379825,1.6887023124391132e+18,0.454113427734375,-302.7771484375,71.60667877197265,-131.33543701171874,1.6887023124273892e+18,0.4423892415364583,-0.9863366087277732,-0.0960412869850794,0.0680223157008488,0.1127052679657935,0.1146832729379335,-0.2060954272747039,2.925670305887858
0.45,1.6887023124879409e+18,0.502940673828125,-1.3817728360493975,-4.89888064066569,-5.512597481409709,1.6887023124792896e+18,0.4942897135416666,7.286942481994629,-4.098705768585205,-6.82871691385905,1.6887023124879409e+18,0.502940673828125,9.421992301940918,0.3592544893423716,-2.6176911195119223,1.6887023124879409e+18,0.502940673828125,-2.523891568183899,2.446922540664673,-3.6340881983439126,1.6887023124922698e+18,0.5072700195312501,-2.3868031899134317,2.5746443271636963,-3.627216100692749,,,,,,,,,,,,1.688702312489115e+18,0.504114794921875,-50.82031784057617,-16.27723979949951,8.469239616394043,1.688702312489115e+18,0.504114794921875,-305.3611145019531,79.18775787353516,-124.74255676269532,1.6887023124792896e+18,0.4942897135416666,-0.9925684928894044,-0.0161017117400964,0.1059281527996063,0.0446677009264627,0.2100424319505691,-0.0410438515245914,3.054980993270874
0.5,1.6887023125398456e+18,0.554845458984375,1.6594505310058594,-2.951135198275248,-8.472922166188559,1.688702312531196e+18,0.5461957194010417,10.647263209025065,-4.888337294260661,-12.599008878072103,1.6887023125398456e+18,0.554845458984375,8.718556722005209,-1.2931768298149109,-4.250589052836101,1.6887023125398456e+18,0.554845458984375,-1.5848389466603596,4.333019892374675,-2.0295997858047485,1.688702312535526e+18,0.550526123046875,-1.367498219013214,4.296597003936768,-2.039755344390869,,,,,,,,,,,,1.6887023125391153e+18,0.554115380859375,-50.07123947143555,-8.188639926910401,18.051119995117187,1.6887023125391153e+18,0.554115380859375,-304.6120361328125,87.27635803222657,-115.16067810058594,1.688702312531196e+18,0.5461957194010417,-0.3321888049443563,0.0115008441110451,0.0374401559432347,0.0091735688038169,0.3767475187778473,0.1403130268057187,3.1060051918029785
0.55,1.688702312591754e+18,0.6067537434895833,-1.2842804590861003,-1.7621907393137617,-8.925279458363852,1.6887023125831002e+18,0.5981000162760416,6.572286128997803,-3.8083767096201577,-13.64726448059082,1.688702312591754e+18,0.6067537434895833,7.470461050669352,-2.7527095476786294,-5.696736494700114,1.688702312591754e+18,0.6067537434895833,-3.3599116007486978,3.455461025238037,-1.9168951114018755,1.6887023125787738e+18,0.5937736002604167,-2.95159904162089,3.922722101211548,-1.7605136235555012,,,,,,,,,,,,1.6887023125891128e+18,0.604112646484375,-45.262000274658206,-1.4127599895000458,28.064879608154296,1.6887023125891128e+18,0.604112646484375,-299.80279541015625,94.05223846435548,-105.14691925048828,1.6887023125831002e+18,0.5981000162760416,0.9470814069112142,-0.1299678186575571,-0.286334067583084,0.0532722783585389,0.5829675793647766,0.2812375922997792,-1.0204765796661377
0.6,1.688702312635014e+18,0.65001416015625,-0.4051270484924316,-4.190706491470337,-14.164719104766846,1.6887023126350085e+18,0.6500083821614583,5.969494183858235,-8.167102336883545,-19.726229985555012,1.688702312635014e+18,0.65001416015625,6.383431434631348,-4.3625805377960205,-6.0251946449279785,1.688702312635014e+18,0.65001416015625,-3.1011338233947754,2.4303274154663086,-2.8218919038772583,1.688702312630684e+18,0.6456840820312499,-3.1846441427866616,2.5239423910776773,-2.707049290339152,,,,,,,,,,,,1.6887023126391148e+18,0.6541147949218751,-39.6695198059082,8.110560035705566,33.940399169921875,1.6887023126391148e+18,0.6541147949218751,-294.21030883789064,103.57555847167968,-99.27139892578126,1.6887023126350085e+18,0.6500083821614583,0.9049150546391804,-0.2079375435908635,-0.3473155697186787,0.1271249676744142,0.7093468507130941,0.4838519891103108,-3.045565923055013
0.65,1.6887023126782564e+18,0.6932562662760416,0.3674513498942056,-0.5040675004323324,-11.715375582377115,1.6887023126869092e+18,0.7019091796875,5.961318810780843,-5.043471972147624,-17.109280268351238,1.6887023126782564e+18,0.6932562662760416,5.283135890960693,-5.454701900482178,-6.198565165201823,1.6887023126782564e+18,0.6932562662760416,-0.4535165429115295,1.3042991161346436,-2.812983512878418,1.6887023126825871e+18,0.6975872395833332,-0.2684243842959404,1.2241230607032776,-2.7374398708343506,,,,,,,,,,,,1.6887023126891156e+18,0.7041154296875,-34.377159118652344,15.201199531555176,36.258399200439456,1.6887023126891156e+18,0.7041154296875,-288.91795654296874,110.66619720458984,-96.95339965820312,1.6887023126869092e+18,0.7019091796875,0.866694450378418,-0.2796095212300618,-0.3892025649547577,0.1371472676595051,0.8367507656415304,0.6326189239819845,-1.023042360941569
0.7,1.688702312730166e+18,0.7451658528645834,2.54006290435791,3.484763860702514,-7.1658705075581866,1.6887023127388111e+18,0.7538111165364584,7.1246293385823565,-2.144766688346863,-12.773086547851562,1.688702312730166e+18,0.7451658528645834,4.159378210703532,-5.930470943450928,-6.605298201243083,1.688702312730166e+18,0.7451658528645834,0.6714936196804047,1.33754034837087,-2.3409883975982666,1.6887023127344858e+18,0.7494858398437501,0.7293221950531006,1.3537282943725586,-2.3239858945210776,,,,,,,,,,,,1.6887023127391112e+18,0.7541111328125,-29.63623924255371,18.351240158081055,38.359239959716795,1.6887023127391112e+18,0.7541111328125,-284.1770385742187,113.8162368774414,-94.85255737304688,1.6887023127388111e+18,0.7538111165364584,0.8364923795064291,-0.322574883699417,-0.428501417239507,0.1105377425750095,0.9897311925888062,0.6867560148239136,3.022472858428955
0.75,1.6887023127820718e+18,0.7970719401041667,6.7015708684921265,6.087614138921102,0.5628746350606283,1.6887023127907218e+18,0.8057219238281249,8.247461199760437,-0.0153538386027016,-5.413960695266724,1.6887023127820718e+18,0.7970719401041667,3.0656679471333823,-6.045982042948405,-7.085385640462239,1.6887023127820718e+18,0.7970719401041667,-0.131386935710907,2.9989919662475586,0.3205515146255493,1.6887023127863951e+18,0.8013951009114583,-0.1885537405808766,3.1436143716176352,0.5732970386743546,,,,,,,,,,,,1.6887023127891164e+18,0.804116357421875,-23.860759735107425,19.461439514160155,41.611759948730466,1.6887023127891164e+18,0.804116357421875,-278.40155639648435,114.9264389038086,-91.60003814697264,1.6887023127907218e+18,0.8057219238281249,0.802738606929779,-0.3231204450130462,-0.4844181537628174,0.1264636913935343,1.1382461388905842,0.6968305706977844,2.99766214688619
0.8,1.6887023128339638e+18,0.8489637044270834,-1.7523380915323894,5.486414829889934,2.415101369222006,1.688702312842616e+18,0.8576162109375,0.035692940155665,0.58823561668396,-5.002793947855632,1.6887023128339638e+18,0.8489637044270834,2.45337176322937,-5.658342202504476,-7.625149250030518,1.6887023128339638e+18,0.8489637044270834,1.3726651271184285,1.1269954840342205,0.5474879741668701,1.6887023128382902e+18,0.8532902832031249,1.36538561185201,0.9576330582300822,0.5661702752113342,1.688702312834e+18,0.848999755859375,0.0,0.0,0.9279209971427916,54.16899871826172,0.0,0.0,43.400001525878906,-122.7540791,49.187963,1.688702312839111e+18,0.8541108886718749,-19.55171928405762,16.845759391784668,44.620278930664064,1.688702312839111e+18,0.8541108886718749,-274.09251708984374,112.31076049804688,-88.59151611328124,1.688702312842616e+18,0.8576162109375,0.7884431481361389,-0.2914418180783589,-0.5263352592786154,0.1275158822536468,1.2206435998280842,0.6358799735705057,3.009883244832357
0.85,1.6887023128858767e+18,0.900876708984375,-2.8205507596333823,5.616738955179851,1.2192959785461426,1.6887023128858757e+18,0.900875732421875,-0.4839483797550201,0.4854439198970794,-6.6230340003967285,1.6887023128858767e+18,0.900876708984375,2.4852927525838218,-5.253072738647461,-7.903322537740071,1.6887023128858767e+18,0.900876708984375,0.5389358699321747,-0.4411465227603912,-0.299629400173823,1.6887023128902062e+18,0.9052063802083332,0.4756095012029012,-0.4213952124118805,-0.3350086733698845,,,,,,,,,,,,1.6887023128891213e+18,0.904121337890625,-19.75180015563965,14.508239555358887,45.73292007446289,1.6887023128891213e+18,0.904121337890625,-274.2925964355469,109.97323760986328,-87.47887878417968,1.6887023128858757e+18,0.900875732421875,0.7927446663379669,-0.2798799276351928,-0.5296575725078583,0.1125507950782775,1.222267508506775,0.5979965925216675,2.998286247253418
0.9,1.6887023129377833e+18,0.952783447265625,-2.804744323094686,2.1820014317830405,0.1729756991068522,1.6887023129291318e+18,0.9441316731770834,-0.0707876483599345,-2.624727090199789,-7.804988384246826,1.6887023129377833e+18,0.952783447265625,2.4529360930124917,-5.120629946390788,-7.999575138092041,1.6887023129377833e+18,0.952783447265625,0.4906775057315826,0.0330376277367273,-0.3548108985026677,1.6887023129421107e+18,0.9571109212239582,0.5165374676386515,0.0075340047478675,-0.4322889745235443,,,,,,,,,,,,1.68870231293912e+18,0.9541203613281248,-19.47851982116699,13.7835599899292,46.35511856079101,1.68870231293912e+18,0.9541203613281248,-274.0193115234375,109.2485580444336,-86.85668029785157,1.6887023129291318e+18,0.9441316731770834,0.7932780782381693,-0.2809801995754241,-0.5304294228553772,0.1019287556409835,1.2285643418629966,0.5870661934216818,2.9770854314168296
0.95,1.6887023129896888e+18,1.0046888834635417,-0.9545701344807944,-0.0851898193359375,0.4067697525024413,1.6887023129810373e+18,0.9960374348958332,1.0829516450564067,-4.322634061177571,-7.509475072224935,1.6887023129896888e+18,1.0046888834635417,2.2332710425059,-5.030308882395427,-8.120108922322592,1.6887023129896888e+18,1.0046888834635417,0.3291545609633128,0.0471384388705095,-1.1240429480870564,1.688702312985369e+18,1.0003690185546874,0.3610977083444595,-0.0309250522404909,-1.068632423877716,,,,,,,,,,,,1.688702312989116e+18,1.00411591796875,-19.519999694824214,13.495639991760251,46.16968002319336,1.688702312989116e+18,1.00411591796875,-274.0607971191406,108.96063690185548,-87.04211730957032,1.6887023129810373e+18,0.9960374348958332,0.7893444101015726,-0.2900281151135762,-0.535075048605601,0.0803081691265105,1.2569040457407634,0.5749276876449585,2.9210222562154136
1.0,1.6887023130415903e+18,1.0565902506510418,-2.1405089696248374,-3.9488627115885415,0.6132702827453613,1.6887023130329375e+18,1.047937744140625,-0.3447658320267995,-9.093523820241291,-7.514858722686768,1.6887023130415903e+18,1.0565902506510418,1.5446327129999795,-5.115192254384358,-8.222521464029947,1.6887023130415903e+18,1.0565902506510418,0.1443678153057893,0.7395541866620382,-2.247780521710714,1.6887023130286154e+18,1.0436156412760418,0.2015855312347411,0.7166976531346639,-1.954259753227234,,,,,,,,,,,,1.6887023130391117e+18,1.054111669921875,-16.694479751586915,14.637559700012208,46.67231903076172,1.6887023130391117e+18,1.054111669921875,-271.2352783203125,110.10255889892578,-86.5394790649414,1.6887023130329375e+18,1.047937744140625,0.7714631160100301,-0.3174153168996175,-0.5481775999069214,0.057389836758375,1.3319663604100545,0.5852237542470297,2.824720541636149
1.05,1.6887023130848425e+18,1.09984228515625,-1.3649273812770844,0.1506323814392089,-1.8567867279052737,1.688702313084849e+18,1.0998487955729166,-0.1120638748009999,-5.725426355997722,-9.970094362894692,1.6887023130848425e+18,1.09984228515625,1.111723244190216,-5.28995943069458,-8.186065196990967,1.6887023130848425e+18,1.09984228515625,-0.4554000347852707,-0.884991005063057,-1.2383765876293182,1.688702313080523e+18,1.0955230305989585,-0.3773110955953598,-0.6034839550654093,-1.4903585116068525,,,,,,,,,,,,1.6887023130891167e+18,1.10411669921875,-14.732719802856446,16.247959709167482,46.660118865966794,1.6887023130891167e+18,1.10411669921875,-269.2735168457031,111.71295776367188,-86.55167999267579,1.688702313084849e+18,1.0998487955729166,0.753393809000651,-0.3576962351799011,-0.5507090091705322,0.032266713057955,1.4021475315093994,0.6121317744255066,2.7059037685394287
1.1,1.6887023131280978e+18,1.143097981770833,-1.3609851598739624,-2.359490235646566,-6.2185366948445635,1.6887023131367493e+18,1.1517493489583333,0.1609173417091369,-8.499904155731201,-15.09233029683431,1.6887023131280978e+18,1.143097981770833,1.5383894443511963,-5.468472321828206,-7.995104789733887,1.6887023131280978e+18,1.143097981770833,-0.3172426869471867,-1.7839810053507488,-0.2042835255463918,1.6887023131324234e+18,1.1474235839843752,-0.2572760799278815,-1.819920261700948,-0.1017599652210871,,,,,,,,,,,,1.6887023131391135e+18,1.154113427734375,-17.509439849853514,17.633879470825196,45.07899856567383,1.6887023131391135e+18,1.154113427734375,-272.05023803710935,113.0988784790039,-88.13279724121094,1.6887023131367493e+18,1.1517493489583333,0.7702200611432394,-0.3732224603494008,-0.5166695912679037,0.0180751023193199,1.335786501566569,0.6356421510378519,2.680704673131307
1.15,1.688702313180001e+18,1.1950008951822917,-0.9238665501276652,-3.999793370564779,-9.955595334370932,1.688702313188652e+18,1.203652099609375,1.15533451239268,-8.947760581970215,-17.577077229817707,1.688702313180001e+18,1.1950008951822917,2.21532924969991,-5.2750295003255205,-7.96652094523112,1.688702313180001e+18,1.1950008951822917,1.102866291999817,-0.7289149711529413,0.291179100672404,1.688702313184326e+18,1.1993259277343749,1.3104077577590942,-0.5248859524726868,0.1803070604801178,,,,,,,,,,,,1.6887023131891113e+18,1.204111474609375,-21.17187919616699,16.13815975189209,44.683718872070315,1.6887023131891113e+18,1.204111474609375,-275.7126708984375,111.60315856933592,-88.52807922363282,1.688702313188652e+18,1.203652099609375,-0.2634558478991191,0.1149167418479919,0.1688027679920196,0.0085782066841298,1.270593285560608,0.597444752852122,2.686499277750651
1.2,1.688702313231908e+18,1.2469083658854163,-1.1703967650731404,-1.7627956867218018,-2.0952272415161133,1.688702313240563e+18,1.25556298828125,0.7762715389641622,-5.532604853312175,-9.046863555908203,1.688702313231908e+18,1.2469083658854163,2.182297945022583,-4.240839083989461,-8.561882336934408,1.688702313231908e+18,1.2469083658854163,3.2983669439951577,-0.4162028506398201,-0.9732101559638976,1.6887023132362337e+18,1.251233642578125,3.3465234438578286,-0.4969897841413815,-1.0157161951065063,,,,,,,,,,,,1.6887023132391155e+18,1.254115625,-21.410999298095703,10.818959808349607,45.93055953979492,1.6887023132391155e+18,1.254115625,-275.95180053710936,106.2839584350586,-87.28123779296875,1.688702313240563e+18,1.25556298828125,-0.7827083865801493,0.3355825146039327,0.5183303356170654,0.0736638605594634,1.3016222318013508,0.4658839305241902,2.5965476830800376
1.25,1.6887023132838093e+18,1.29880908203125,-2.7740907669067383,-0.4055666128794352,5.6218803723653155,1.6887023132924598e+18,1.3074596354166663,-1.0183454006910324,-2.857429027557373,-2.070788582166036,1.6887023132838093e+18,1.29880908203125,2.094465732574463,-2.9976683457692466,-9.098328272501629,1.6887023132838093e+18,1.29880908203125,2.4856106837590537,0.0548760543266932,-1.3737341165542605,1.68870231328814e+18,1.3031399739583334,2.3113104502360025,0.1103629867235819,-1.3829479614893596,,,,,,,,,,,,1.688702313289115e+18,1.304114697265625,-21.506159591674805,5.48755989074707,47.070038604736325,1.688702313289115e+18,1.304114697265625,-276.0469543457031,100.95256042480467,-86.14175872802734,1.6887023132924598e+18,1.3074596354166663,-0.7662821809450785,0.3232590456803639,0.5344428221384684,0.1496735264857609,1.3352356751759846,0.3420032461484273,2.4852022329966226
1.3,1.68870231333572e+18,1.350719970703125,-2.3912441730499268,2.3159296115239463,10.515849113464355,1.6887023133357215e+18,1.3507216796875,-0.2404786795377731,-0.3460619822144509,1.4823536276817322,1.68870231333572e+18,1.350719970703125,2.061370094617208,-2.570608695348104,-9.239153861999512,1.68870231333572e+18,1.350719970703125,0.3907501399517059,-1.0420342981815338,-1.329497297604879,1.688702313340048e+18,1.3550480957031248,0.212479293346405,-1.196990470091502,-1.280169943968455,,,,,,,,,,,,1.68870231333911e+18,1.35411015625,-21.476879501342772,3.867400026321411,46.948038482666014,1.68870231333911e+18,1.35411015625,-276.01768188476564,99.3323974609375,-86.26375732421874,1.6887023133357215e+18,1.3507216796875,-0.7570229172706604,0.3325324952602386,0.5304814279079437,0.1867065727710723,1.3420035243034365,0.3104061782360076,2.410858988761902
1.35,1.6887023133876173e+18,1.4026174316406248,-1.2884326378504436,5.200758616129558,8.560434977213541,1.6887023133789745e+18,1.393974365234375,1.0654043157895403,2.3102702299753823,0.2675973276297251,1.6887023133876173e+18,1.4026174316406248,2.845299164454142,-3.1986070473988852,-8.811158180236816,1.6887023133876173e+18,1.4026174316406248,-2.3692917029062905,-2.484338084856669,-0.4437935948371887,1.688702313391951e+18,1.4069510904947915,-2.556216518084208,-2.6371053059895835,-0.3674863477547962,,,,,,,,,,,,1.688702313389115e+18,1.404114697265625,-24.805039596557616,7.073559856414795,45.00335922241211,1.688702313389115e+18,1.404114697265625,-279.3458312988281,102.53855743408204,-88.20843811035157,1.6887023133789745e+18,1.393974365234375,-0.7749541203180949,0.3493090669314067,0.489177942276001,0.1939504394928613,1.2701139052708943,0.3594696819782257,2.3854056199391684
1.4,1.6887023134395292e+18,1.454529296875,4.662134011586507,1.0727190971374512,-0.3845340410868326,1.6887023134308751e+18,1.4458751627604167,8.285347779591879,-2.907080094019572,-6.90349268913269,1.6887023134395292e+18,1.454529296875,4.0849653879801435,-4.441457430521647,-7.71863587697347,1.6887023134395292e+18,1.454529296875,-3.466303904851278,-1.72406538327535,0.779464066028595,1.6887023134351995e+18,1.4501995849609377,-3.097468614578247,-2.3941335678100586,0.7579310834407806,,,,,,,,,,,,1.6887023134391127e+18,1.454112548828125,-32.03719978332519,12.856359672546386,39.20347900390625,1.6887023134391127e+18,1.454112548828125,-286.57799072265624,108.32135772705078,-94.00831756591796,1.6887023134308751e+18,1.4458751627604167,-0.8218715588251749,0.3672719796498616,0.4038374026616414,0.1604609837134679,1.0934154987335205,0.4936331212520599,2.4520856539408364
1.45,1.6887023134914304e+18,1.5064305013020831,-3.672373135884603,-1.042730490366618,-2.4498465855916343,1.6887023134827835e+18,1.49778369140625,2.1914267539978027,-6.085745493570964,-8.730213165283203,1.6887023134914304e+18,1.5064305013020831,4.15047550201416,-6.033487002054851,-6.4951982498168945,1.6887023134914304e+18,1.5064305013020831,-5.784181276957194,1.3350460131963091,1.1218031446139018,1.6887023134784586e+18,1.493458984375,-5.5521542231241865,1.4251995086669922,1.1865548690160117,,,,,,,,,,,,1.6887023134891167e+18,1.50411650390625,-32.85703887939453,19.727399826049805,35.10915908813477,1.6887023134891167e+18,1.50411650390625,-287.3978332519531,115.19239959716796,-98.10263671875,1.6887023134827835e+18,1.49778369140625,-0.280585765838623,0.1219641268253326,0.1274714469909667,0.0508356986877818,0.9872903625170388,0.6695059935251871,2.6612223784128823
1.5,1.688702313534684e+18,1.5496839599609376,-5.937289595603943,-4.126851797103882,-3.841765165328979,1.6887023135346844e+18,1.5496846516927083,-1.795015811920166,-11.374481836954752,-9.087940533955893,1.688702313534684e+18,1.5496839599609376,4.32735538482666,-7.233216047286987,-5.005871772766113,1.688702313534684e+18,1.5496839599609376,-4.215046644210815,-1.3741413950920105,0.0919352322816849,1.688702313530359e+18,1.5453592936197915,-4.420220931371053,-0.9550878008206686,0.2159408628940582,,,,,,,,,,,,1.6887023135391114e+18,1.5541115722656251,-33.32551956176758,27.51343955993652,28.682199478149418,1.6887023135391114e+18,1.5541115722656251,-287.86631469726564,122.9784378051758,-104.52959747314452,1.6887023135346844e+18,1.5496846516927083,0.8467386364936829,-0.4219066798686981,-0.3144746621449788,0.0724997085829575,0.8104834953943888,0.8633014361063639,2.923296133677165
1.55,1.6887023135779418e+18,1.5929416503906249,-3.517740567525228,0.7359259923299154,-3.574915965398153,1.6887023135865866e+18,1.6015866699218748,2.0783658822377524,-6.417949199676514,-5.931807279586792,1.6887023135779418e+18,1.5929416503906249,4.380688508351644,-7.951724847157796,-3.682191610336304,1.6887023135779418e+18,1.5929416503906249,-2.6974790891011557,-2.3137539625167847,-1.3111713528633118,1.6887023135822674e+18,1.597267252604167,-2.729142347971598,-2.400649587313334,-1.4682654937108357,,,,,,,,,,,,1.6887023135891144e+18,1.6041145019531249,-34.4161994934082,32.99367904663086,20.049479675292968,1.6887023135891144e+18,1.6041145019531249,-288.9569946289063,128.45867767333985,-113.16231689453124,1.6887023135865866e+18,1.6015866699218748,0.8423482378323873,-0.4696871836980184,-0.2392323315143584,0.1081535046299298,0.5933120250701904,1.0036844611167908,3.0661423206329346
1.6,1.6887023136298465e+18,1.6448463541666667,3.6012810866038003,2.048175652821859,2.130087931950887,1.6887023136384975e+18,1.6534976399739585,6.717650095621745,-7.001598358154297,1.045862893263499,1.6887023136298465e+18,1.6448463541666667,3.8152093092600503,-8.831870396931967,-1.8296645482381184,1.6887023136298465e+18,1.6448463541666667,-2.7290913263956704,-3.0830368995666504,-2.332029024759928,1.68870231363417e+18,1.649169921875,-2.6341017882029214,-3.1646382808685303,-2.179159998893738,,,,,,,,,,,,1.688702313639108e+18,1.6541082519531252,-32.32511940002441,38.476358795166014,10.282159900665285,1.688702313639108e+18,1.6541082519531252,-286.86591186523435,133.941357421875,-122.9296371459961,1.6887023136384975e+18,1.6534976399739585,0.8193102280298868,-0.5411609411239624,-0.1446948920687039,0.1180293386181195,0.2793514976898829,1.171391487121582,-3.039273818333944
1.65,1.6887023136817467e+18,1.69674658203125,3.7442822456359863,2.7112504641215005,1.793876051902771,1.6887023136904005e+18,1.7054004720052085,9.003792762756348,-6.816752910614014,1.6468602021535237,1.6887023136817467e+18,1.69674658203125,3.6115900675455728,-9.109700838724772,-0.3624451259771983,1.6887023136817467e+18,1.69674658203125,-1.2204578518867493,-2.469931880633036,0.1923207441965738,1.68870231368607e+18,1.701070068359375,-1.070083220799764,-2.1706079045931497,0.372576892375946,,,,,,,,,,,,1.6887023136891172e+18,1.7041169921875,-32.39099960327148,40.47227935791015,2.127679967880249,1.6887023136891172e+18,1.7041169921875,-286.9317932128906,135.9372802734375,-131.08411560058593,1.6887023136904005e+18,1.7054004720052085,0.816765546798706,-0.562814195950826,-0.06272612636288,0.1095589051644007,-0.0570167837043603,1.2032411495844524,-2.83611790339152
1.7,1.6887023137336607e+18,1.7486608886718749,3.2036251227060952,2.3722023963928223,1.192400336265564,1.688702313742306e+18,1.7573058268229165,4.787639498710633,-5.897111256917317,0.7692924936612447,1.6887023137336607e+18,1.7486608886718749,3.779963652292887,-9.047422726949057,-0.2425249765316645,1.6887023137336607e+18,1.7486608886718749,0.3791437074542045,0.9720393419265748,-0.5100215673446654,1.6887023137379822e+18,1.7529823404947915,0.4374304364124934,1.0595457553863523,-0.8169304132461548,,,,,,,,,,,,1.6887023137391145e+18,1.754114501953125,-32.70087928771973,39.86471939086914,1.817799973487854,1.6887023137391145e+18,1.754114501953125,-287.2416687011719,135.3297149658203,-131.393994140625,1.688702313742306e+18,1.7573058268229165,0.81720370054245,-0.5607373913129171,-0.0696446349223454,0.1127121349175771,-0.0332456296309828,1.200764775276184,-2.845224062601725
1.75,1.688702313785562e+18,1.8005616861979166,-5.7891935507456465,-3.4194844563802085,2.107977350552877,1.6887023137855565e+18,1.8005565185546877,-2.289333164691925,-11.016256093978882,1.0752747058868408,1.688702313785562e+18,1.8005616861979166,2.554632226626078,-9.427224477132162,-0.7457388242085775,1.688702313785562e+18,1.8005616861979166,0.4250604013601939,2.803667902946472,-3.170645236968994,1.6887023137898885e+18,1.8048881022135417,0.4056654274463653,3.2021556297938027,-3.0935235023498535,,,,,,,,,,,,1.6887023137891128e+18,1.804112841796875,-26.92783966064453,43.29535903930664,5.084959936141968,1.6887023137891128e+18,1.804112841796875,-281.4686340332031,138.76035766601564,-128.12683868408203,1.6887023137855565e+18,1.8005565185546877,0.7807902693748474,-0.6024319529533386,-0.1122051142156123,0.1201011650264263,0.1272276490926742,1.3173848986625671,-2.936084985733032
1.8,1.6887023138374646e+18,1.852464599609375,-11.049319585164389,-13.192394574483236,4.188495953877767,1.6887023138288148e+18,1.8438148600260416,-10.33659521738688,-25.840290705362957,3.346561829249064,1.6887023138374646e+18,1.852464599609375,1.5242265065511067,-9.56458822886149,-1.532936692237854,1.6887023138374646e+18,1.852464599609375,0.9684250553448996,5.559993584950765,-0.079565204679966,1.688702313841786e+18,1.8567858072916668,1.0248791774113972,5.3808573087056475,0.0501418511072794,,,,,,,,,,,,1.688702313839113e+18,1.85411298828125,-20.691199111938477,44.55927963256836,11.877919769287107,1.688702313839113e+18,1.85411298828125,-275.23198852539065,140.02427978515624,-121.33387908935546,1.6887023138288148e+18,1.8438148600260416,0.7415654261906942,-0.612801710764567,-0.2065232843160629,0.1734381069739659,0.5211266477902731,1.381496548652649,-1.0212692419687908
1.85,1.688702313889371e+18,1.9043706868489585,-3.8300061225891113,2.980510870615641,0.4873623450597127,1.6887023138807163e+18,1.895716796875,-3.2777682145436606,-7.311269760131836,-1.1529417037963867,1.688702313889371e+18,1.9043706868489585,1.1270500818888347,-9.490626335144045,-2.2074782053629556,1.688702313889371e+18,1.9043706868489585,0.4348851442337036,2.4263567129770913,-0.290619134902954,1.6887023138850412e+18,1.900041015625,0.5878814458847046,2.5422685146331787,-0.2612212523818015,,,,,,,,,,,,1.6887023138891167e+18,1.90411669921875,-17.709519958496095,44.08591995239258,17.650959777832032,1.6887023138891167e+18,1.90411669921875,-272.25031127929685,139.55091552734376,-115.56083831787107,1.6887023138807163e+18,1.895716796875,0.7187721133232117,-0.5868880351384481,-0.3002443015575408,0.2201007256905237,0.9242556095123292,1.351760466893514,2.9758219718933105
1.9,1.6887023139412698e+18,1.956269775390625,-3.8349921703338623,2.27227512995402,-1.8634417454401653,1.688702313932623e+18,1.947623046875,-2.929014285405477,-7.009375254313151,-3.5511481761932373,1.6887023139412698e+18,1.956269775390625,0.680191437403361,-9.582989056905111,-1.9705335696538289,1.6887023139412698e+18,1.956269775390625,-1.337591250737508,0.4392630259195964,-0.7733045021692911,1.6887023139282993e+18,1.9432992350260416,-0.9355401198069254,1.0209085543950398,-0.6342308322588602,,,,,,,,,,,,1.6887023139391124e+18,1.9541124511718748,-15.403719711303712,44.67151870727539,18.30731964111328,1.6887023139391124e+18,1.9541124511718748,-269.94451904296875,140.1365173339844,-114.90447692871092,1.688702313932623e+18,1.947623046875,0.6955188314119974,-0.5896189411481222,-0.328559289375941,0.2460038314263025,1.0838173627853394,1.380590597788493,2.898617426554362
1.95,1.6887023139845286e+18,1.999528564453125,3.741727590560912,1.5912160873413086,-4.048323750495911,1.6887023139845292e+18,1.999529134114583,2.1003000736236572,-8.33320411046346,-4.914658387502034,1.6887023139845286e+18,1.999528564453125,0.2379714511334895,-9.731441974639893,-1.1939273476600647,1.6887023139845286e+18,1.999528564453125,-2.164066433906555,-0.8297840803861618,-1.5855771303176875,1.688702313980197e+18,1.995197184244792,-2.083101391792298,-0.5727880001068116,-1.5072082082430522,,,,,,,,,,,,1.688702313989118e+18,2.0041179687499997,-12.490359497070312,46.50639877319336,14.04219970703125,1.688702313989118e+18,2.0041179687499997,-267.0311584472656,141.9713928222656,-119.16959838867189,1.6887023139845292e+18,1.999529134114583,0.6682782967885336,-0.6265954772631327,-0.3025318185488382,0.2623565296332041,1.2754507462183635,1.4875588417053225,2.6888726552327475
2.0,1.6887023140277824e+18,2.0427824707031252,0.1561744213104247,-0.4925788243611653,-4.305538018544515,1.6887023140364326e+18,2.0514326171875,-1.8430716196695964,-10.232905705769856,-4.509274164835612,1.6887023140277824e+18,2.0427824707031252,-0.7913327813148499,-9.763500531514486,-0.3535621662934621,1.6887023140277824e+18,2.0427824707031252,-1.519578178723653,1.8353954950968423,-2.428596576054891,1.6887023140321083e+18,2.0471083170572917,-1.3539828459421794,1.766978661219279,-2.3405301570892334,,,,,,,,,,,,1.6887023140391163e+18,2.054116455078125,-6.495279979705811,48.77315902709961,10.233359909057617,1.6887023140391163e+18,2.054116455078125,-261.03607788085935,144.2381561279297,-122.97843933105467,1.6887023140364326e+18,2.0514326171875,0.6071927944819132,-0.6690380970637003,-0.3097492655118306,0.2955861389636993,-0.8712443510691324,1.48054301738739,0.7098403573036194
2.05,1.6887023140796826e+18,2.0946826171875,-0.1618493398030599,2.3824461301167807,-4.0117081006368,1.6887023140883415e+18,2.103341389973958,-1.54556405544281,-7.028517723083496,-3.850849231084188,1.6887023140796826e+18,2.0946826171875,-1.5622427463531494,-9.684186935424806,-0.0611505980292955,1.6887023140796826e+18,2.0946826171875,-0.1463531305392582,-0.0423024209837118,-0.8140797515710195,1.688702314084014e+18,2.099013916015625,-0.1246165086825688,-0.1776090711355209,-0.7065165638923645,,,,,,,,,,,,1.6887023140891144e+18,2.10411455078125,-2.6449599266052246,49.32947845458985,8.649799728393555,1.6887023140891144e+18,2.10411455078125,-257.1857543945313,144.7944763183594,-124.56199798583984,1.6887023140883415e+18,2.103341389973958,0.5796019236246744,-0.687428891658783,-0.3204309443632762,0.2979980707168578,-2.8922184308369956,1.414875626564026,0.6587779323259989
2.1,1.6887023141315878e+18,2.146587565104167,1.8698349396387737,1.1248294512430828,-3.733568112055461,1.6887023141402396e+18,2.1552394205729164,0.4420739809672038,-9.145766894022625,-3.971487363179525,1.6887023141315878e+18,2.146587565104167,-1.8078842957814536,-9.640329678853352,-0.1474659293889999,1.6887023141315878e+18,2.146587565104167,0.0920879350354274,-1.0602075656255086,-0.5975789328416189,1.6887023141359132e+18,2.150913167317708,0.115708057458202,-0.9930123488108316,-0.6674211720625559,,,,,,,,,,,,1.688702314139112e+18,2.1541119140625,-0.9589199602603912,49.44171829223633,8.918199920654297,1.688702314139112e+18,2.1541119140625,-255.49972229003907,144.9067169189453,-124.29359741210938,1.6887023141402396e+18,2.1552394205729164,0.5782402753829956,-0.7016481955846151,-0.3115585247675577,0.2760168313980102,-2.989787340164185,1.3888373772303264,0.708953062693278
2.15,1.6887023141834888e+18,2.1984886881510417,1.7978886763254802,-2.4011621475219727,-4.050829966862996,1.6887023141921462e+18,2.2071461588541665,-1.0899306883414586,-12.324831326802572,-4.079762538274129,1.6887023141834888e+18,2.1984886881510417,-2.381601413091024,-9.51055113474528,-0.2523378034432729,1.6887023141834888e+18,2.1984886881510417,0.2217949926853179,0.8065966417392095,-1.525585055351257,1.6887023141878182e+18,2.2028184407552085,0.2317724575599034,0.9482155839602152,-1.5646804173787434,,,,,,,,,,,,1.688702314189117e+18,2.204116552734375,2.3277599096298216,49.33435974121094,9.159759902954102,1.688702314189117e+18,2.204116552734375,-252.2130340576172,144.7993591308594,-124.05203704833984,1.6887023141921462e+18,2.2071461588541665,0.5535985032717387,-0.7168958981831869,-0.3287951250871022,0.2669611175855,-3.0637764930725098,1.323184569676717,0.799156665802002
2.2,1.688702314235398e+18,2.25039794921875,5.745371182759603,-3.911371548970541,-2.1848706901073456,1.6887023142354022e+18,2.2504022216796873,0.1301096677780151,-13.218550682067873,-2.8187451362609863,1.688702314235398e+18,2.25039794921875,-3.129879951477051,-9.292465845743816,-0.2493033309777577,1.688702314235398e+18,2.25039794921875,0.5348125298817953,1.7642297347386675,-1.255837122599284,1.6887023142397248e+18,2.2547248535156252,0.5434664388497671,1.9565504789352417,-1.1015427509943645,,,,,,,,,,,,1.6887023142391124e+18,2.25411240234375,7.083320045471192,48.824398803710935,9.63555965423584,1.6887023142391124e+18,2.25411240234375,-247.4574737548828,144.28939819335938,-123.57623748779297,1.6887023142354022e+18,2.2504022216796873,0.5222998261451721,-0.7234514653682709,-0.360257476568222,0.2719727456569671,-3.085123300552368,1.258839190006256,0.8828140795230865
2.25,1.688702314287305e+18,2.3023050944010417,5.244423945744832,-2.0063355763753257,-3.1897553205490112,1.6887023142786532e+18,2.2936534830729163,5.019743273655574,-11.773086229960125,-2.2173489232858024,1.688702314287305e+18,2.3023050944010417,-2.8069986502329507,-9.39171854654948,-0.0585765680298208,1.688702314287305e+18,2.3023050944010417,0.4065308173497517,2.205376257499059,2.25918326775233,1.6887023142916283e+18,2.306628336588542,0.4015420973300934,1.867465908328692,2.523331602414449,,,,,,,,,,,,1.6887023142891118e+18,2.30411201171875,6.539199733734131,48.690198516845705,9.862479782104492,1.6887023142891118e+18,2.30411201171875,-248.00159606933593,144.1551940917969,-123.34931640625,1.6887023142786532e+18,2.2936534830729163,0.5091372132301331,-0.6977988481521606,-0.3947955469290415,0.3120333850383758,-3.023735205332438,1.278336803118388,0.9416431188583374
2.3,1.6887023143392097e+18,2.3542096354166664,4.362406412760417,1.6217117309570312,-4.46324880917867,1.6887023143305592e+18,2.34555908203125,2.7962125887473426,-8.66401195526123,-5.117051283518474,1.6887023143392097e+18,2.3542096354166664,-1.3357485334078472,-9.708498001098633,-0.2357319096724192,1.6887023143392097e+18,2.3542096354166664,0.552374909321467,0.3807726800441742,2.7398833433787027,1.68870231433488e+18,2.349880004882813,0.4849506616592407,0.2315179258584976,2.8610637187957764,,,,,,,,,,,,1.6887023143391117e+18,2.354111767578125,-1.273679929971695,48.92687911987305,10.875079727172851,1.6887023143391117e+18,2.354111767578125,-255.8144744873047,144.39187622070312,-122.33671875,1.6887023143305592e+18,2.34555908203125,0.554791788260142,-0.6459625959396362,-0.3892781833807627,0.3506613075733184,-2.9931271076202393,1.430619716644287,0.9560649394989014
2.35,1.6887023143911117e+18,2.406111490885417,-0.0564341743787129,0.7863984107971191,-2.1663288275400796,1.6887023143824635e+18,2.3974636230468747,-0.6093721439441044,-7.995417594909668,-2.503291289011637,1.6887023143911117e+18,2.406111490885417,-0.2674578875303269,-9.77986494700114,-0.6596700549125671,1.6887023143911117e+18,2.406111490885417,1.050179163614909,0.6696610252062479,1.90981928507487,1.6887023143781356e+18,2.3931357421875,0.9542733430862428,0.7500916222731272,1.9412788947423296,,,,,,,,,,,,1.6887023143891136e+18,2.404113525390625,-6.4464798927307125,48.189999389648435,13.249199676513673,1.6887023143891136e+18,2.404113525390625,-260.9872802734375,143.65499877929688,-119.96259765625,1.6887023143824635e+18,2.3974636230468747,0.592755913734436,-0.5974323749542236,-0.3910655379295349,0.3722178141276042,2.265678564707438,1.531871994336446,2.0164058605829873
2.4,1.688702314434368e+18,2.449367919921875,5.836688995361328,-9.489087104797363,-2.8402621746063232,1.688702314434365e+18,2.4493649088541667,6.967500527699788,-19.219948768615723,-4.102693796157837,1.688702314434368e+18,2.449367919921875,0.7410173863172531,-9.685043334960938,-1.329107105731964,1.688702314434368e+18,2.449367919921875,2.056401491165161,3.7698020935058594,3.4366514682769775,1.688702314430044e+18,2.4450438639322916,1.9065104325612383,3.2695544163386026,3.165300130844116,,,,,,,,,,,,1.6887023144391124e+18,2.4541125,-11.304519844055177,45.737799072265624,17.438679695129395,1.6887023144391124e+18,2.4541125,-265.8453125,141.20279541015626,-115.77311706542967,1.688702314434365e+18,2.4493649088541667,0.6246351599693298,-0.5224542518456777,-0.4171990652879079,0.4010173082351684,0.8052427172660828,1.423985203107198,-2.707489093144735
2.45,1.6887023144776223e+18,2.4926227213541665,-0.3374020258585612,-14.869172732035318,-1.2738416194915771,1.68870231448627e+18,2.501269775390625,-0.3274179697036743,-23.55295181274414,-4.592624346415202,1.6887023144776223e+18,2.4926227213541665,1.4172992308934529,-9.244341850280762,-2.9054977099100747,1.6887023144776223e+18,2.4926227213541665,3.221194267272949,6.157216231028239,2.057139645020167,1.6887023144819425e+18,2.496942464192708,3.2535192171732583,5.790951649347941,1.715156835814317,,,,,,,,,,,,1.6887023144891162e+18,2.504116064453125,-10.73599967956543,40.67479934692383,27.689119338989254,1.6887023144891162e+18,2.504116064453125,-265.27679443359375,136.13979797363282,-105.5226791381836,1.68870231448627e+18,2.501269775390625,0.6191529035568237,-0.3733057677745819,-0.5191766122976939,0.4540352026621501,1.0258791248003645,1.208128770192464,-2.6160125732421875
2.5,1.6887023145295268e+18,2.544526692708333,-1.668545484542847,-9.713425318400065,-2.760610898335775,1.6887023145381742e+18,2.5531742350260416,-1.5730814536412556,-15.912270863850912,-7.7661051750183105,1.6887023145295268e+18,2.544526692708333,1.1452515125274658,-8.432588259379068,-4.8388698895772295,1.6887023145295268e+18,2.544526692708333,4.16325028737386,1.85453599691391,0.7104362944761912,1.68870231453385e+18,2.5488499348958333,4.151033004124959,1.5441146393616991,0.7913759152094523,,,,,,,,,,,,1.6887023145391168e+18,2.554116748046875,-7.363919925689697,34.15511932373047,36.50240020751953,1.6887023145391168e+18,2.554116748046875,-261.90471801757815,129.6201187133789,-96.7093978881836,1.6887023145381742e+18,2.5531742350260416,0.631949762503306,-0.2771175056695937,-0.5857685605684916,0.4239371716976166,1.2640189727147422,1.011672596136729,-2.729910453160604
2.55,1.6887023145814313e+18,2.5964313151041667,-3.4669500986735025,3.0680106480916343,2.1013575394948325,1.688702314590079e+18,2.605079020182292,-1.503689577182134,-3.746562004089355,-2.307478661338488,1.6887023145814313e+18,2.5964313151041667,1.9267065127690632,-7.659680843353272,-5.802331765492757,1.6887023145814313e+18,2.5964313151041667,0.614174077908198,-3.415093024571737,0.8867727319399515,1.6887023145857577e+18,2.6007578938802083,0.1780162639915944,-3.694716691970825,0.8413650592168173,,,,,,,,,,,,1.68870231458911e+18,2.6041100585937498,-12.053599739074707,29.140919494628907,39.61827926635742,1.68870231458911e+18,2.6041100585937498,-266.5943969726562,124.60591735839844,-93.59351806640623,1.688702314590079e+18,2.605079020182292,0.6886706153551737,-0.2548232525587081,-0.5520193378130595,0.3938556313514709,1.135801116625468,0.9046701391537983,-2.7040175596872964
2.6,1.6887023146333358e+18,2.6483357747395835,-4.726710478464763,5.337232271830241,5.000690619150798,1.6887023146419866e+18,2.656986572265625,-1.3433704773585002,-2.4015963474909463,0.5856433312098185,1.6887023146333358e+18,2.6483357747395835,3.1733065446217856,-8.072869618733725,-4.548123439153035,1.6887023146333358e+18,2.6483357747395835,-2.467081069946289,-4.05242904027303,-0.3357213536898295,1.6887023146376622e+18,2.652662353515625,-2.5403339862823486,-3.837455590565999,-0.462730440000693,,,,,,,,,,,,1.6887023146391137e+18,2.65411357421875,-21.032799530029298,32.18847999572754,33.786679077148435,1.6887023146391137e+18,2.65411357421875,-275.5736022949219,127.65347747802734,-99.42511749267578,1.6887023146419866e+18,2.656986572265625,0.7222883701324463,-0.3246329526106516,-0.4596463044484456,0.4008334875106811,0.8316441377003988,0.9934185743331908,-2.597087542215983
2.65,1.6887023146852396e+18,2.70023974609375,-5.1075113614400225,8.417032241821289,3.950779676437378,1.6887023146852372e+18,2.7002373046875,-2.017747640609741,-0.3496512100100517,0.9421739280223846,1.6887023146852396e+18,2.70023974609375,3.2462308406829834,-8.742299715677897,-3.0224396387736,1.6887023146852396e+18,2.70023974609375,-2.43669056892395,-0.9803369045257568,-0.7390960653622946,1.6887023146895598e+18,2.704559895833333,-2.366288344065348,-0.8064948270718256,-0.6477207889159521,,,,,,,,,,,,1.6887023146891126e+18,2.704112353515625,-23.550879287719727,36.802519989013675,26.713119125366212,1.6887023146891126e+18,2.704112353515625,-278.0916748046875,132.26751708984375,-106.49867706298828,1.6887023146852372e+18,2.7002373046875,0.7101539075374603,-0.3819698393344879,-0.4174172729253768,0.4188204854726791,0.6480614542961121,1.1021649837493896,-2.4827017784118652
2.7,1.688702314737146e+18,2.752146158854167,-3.6047613620758057,9.868271191914875,3.0149391492207847,1.688702314728495e+18,2.7434951171875,-0.8073782424132031,0.7134599486986796,1.1359925866127014,1.688702314737146e+18,2.752146158854167,3.2481674353281655,-9.00629997253418,-2.1310658057530723,1.688702314737146e+18,2.752146158854167,-1.3802500168482463,0.1158098652958869,0.4030692627032597,1.6887023147414715e+18,2.7564715169270833,-1.3114258845647175,0.1640682226667801,0.4513276070356369,,,,,,,,,,,,1.6887023147391145e+18,2.7541146484374996,-23.438639450073243,39.62316055297852,22.035639572143555,1.6887023147391145e+18,2.7541146484374996,-277.97943725585935,135.0881561279297,-111.17615661621092,1.688702314728495e+18,2.7434951171875,0.6939610441525778,-0.4037102162837982,-0.3981366256872813,0.4436336954434712,0.4981441696484883,1.1517645120620728,-2.3313185373942056
2.75,1.6887023147890483e+18,2.804048258463542,-2.5490522384643555,8.595253149668375,2.361827294031779,1.6887023147803973e+18,2.7953973795572917,1.001994490623474,0.0187437757849693,0.4963112970193227,1.6887023147890483e+18,2.804048258463542,3.3743132750193277,-9.046343167622885,-1.7343847751617432,1.6887023147890483e+18,2.804048258463542,-0.6340781251589457,0.4275547663370768,-0.1095484967033068,1.6887023147847255e+18,2.799725341796875,-0.7002806663513184,0.401491180062294,0.0242055356502533,,,,,,,,,,,,1.6887023147891128e+18,2.804112841796875,-24.033999633789065,40.430799102783205,20.705839538574217,1.6887023147891128e+18,2.804112841796875,-278.5747924804688,135.8957977294922,-112.5059585571289,1.6887023147803973e+18,2.7953973795572917,0.6837756236394247,-0.4049447774887085,-0.38569642106692,0.46870090564092,0.3759269217650096,1.1563237110773723,-2.1867485841115317
2.8,1.688702314840951e+18,2.855951171875,-3.274223963419596,2.667452017466227,5.563122431437175,1.6887023148322967e+18,2.8472964680989583,-0.680957426627477,-4.736392974853516,3.2889347076416016,1.688702314840951e+18,2.855951171875,2.689913034439087,-9.303589502970375,-1.520723025004069,1.688702314840951e+18,2.855951171875,0.2615012234697739,-1.5401440064112346,-2.6304366191228232,1.6887023148279788e+18,2.842978841145833,0.042964182794094,-1.1944452027479808,-1.9434677561124163,,,,,,,,,,,,1.6887023148391145e+18,2.85411455078125,-21.3914794921875,42.22663955688476,19.30283966064453,1.6887023148391145e+18,2.85411455078125,-275.93226928710936,137.69163818359374,-113.9089584350586,1.6887023148322967e+18,2.8472964680989583,0.6741288105646769,-0.4355548620223999,-0.3853962322076161,0.4547507067521413,0.3679752151171366,1.2173882325490315,-2.213415543238322
2.85,1.6887023148842092e+18,2.899208984375,-9.457558631896973,-25.510089874267575,10.94143295288086,1.6887023148842097e+18,2.8992096354166663,-7.7814591725667315,-32.819756189982094,8.641280174255371,1.6887023148842092e+18,2.899208984375,1.2413402497768402,-9.589171886444092,-1.6149844527244568,1.6887023148842092e+18,2.899208984375,0.2759583611041307,1.3896420747041702,-3.9164862632751465,1.6887023148798843e+18,2.8948847656249996,0.2767219593127568,1.0504336555798848,-3.672470887502034,,,,,,,,,,,,1.688702314889115e+18,2.904114697265625,-14.069039726257325,44.48607864379883,19.273559951782225,1.688702314889115e+18,2.904114697265625,-268.60984497070314,139.95107727050782,-113.93823852539064,1.6887023148842097e+18,2.8992096354166663,0.6391981641451517,-0.4947240948677063,-0.4202109277248382,0.4113216896851857,0.7307580610116323,1.3620896339416504,-2.606907844543457
2.9,1.6887023149274614e+18,2.942461344401042,-9.248879750569662,-19.8949073155721,2.0150622129440308,1.688702314936114e+18,2.95111376953125,-8.518847465515137,-26.011776606241863,-0.9615159034729004,1.6887023149274614e+18,2.942461344401042,0.0751330219209194,-9.72050412495931,-1.276353379090627,1.6887023149274614e+18,2.942461344401042,-1.6442455848058064,3.089705467224121,-1.3557135860125225,1.6887023149317857e+18,2.9467853190104165,-1.825010855992635,2.806009570757548,-1.1960232257843018,,,,,,,,,,,,1.688702314939111e+18,2.954110986328125,-6.3927998542785645,46.50883865356445,18.14139938354492,1.688702314939111e+18,2.954110986328125,-260.93359375,141.97383728027344,-115.07039794921874,1.688702314936114e+18,2.95111376953125,0.5660794774691263,-0.5122821728388468,-0.472617616256078,0.4396126468976338,1.275781551996867,1.481348713239034,-3.013130029042562
2.95,1.688702314979368e+18,2.9943678385416668,3.4514707724253335,-5.114885648091634,-9.026327133178713,1.688702314988018e+18,3.00301806640625,22.55155595143636,-12.528021812438965,-12.079566955566406,1.688702314979368e+18,2.9943678385416668,-0.835381398598353,-9.732821146647137,0.2102954039971033,1.688702314979368e+18,2.9943678385416668,-4.372675180435181,-0.6647740999857584,-3.52611780166626,1.688702314983691e+18,2.9986911621093753,-4.798091888427734,-0.1217149098714192,-4.190128227074941,,,,,,,,,,,,1.6887023149891164e+18,3.00411630859375,-1.2736799836158752,48.753639221191406,10.133319997787476,1.6887023149891164e+18,3.00411630859375,-255.8144714355469,144.21863708496093,-123.07847900390624,1.688702314988018e+18,3.00301806640625,0.4895195563634236,-0.5838220318158468,-0.4505554835001628,0.4613953232765197,-2.4316465854644775,1.435896873474121,0.6987207333246866
3.0,1.688702315031268e+18,3.0462680664062503,7.192969957987468,-7.074754397074382,-13.26593017578125,1.6887023150399194e+18,3.054919189453125,-2.904288421074549,-15.18425464630127,-9.07278569539388,1.688702315031268e+18,3.0462680664062503,-2.034107486406962,-8.994089762369791,3.2905757427215576,1.688702315031268e+18,3.0462680664062503,-4.524831612904866,4.010737558205922,-0.8056294868389765,1.688702315035598e+18,3.050598063151041,-4.086942990620931,3.30747902393341,-0.1761328317224978,,,,,,,,,,,,1.688702315039116e+18,3.054116064453125,7.249240016937256,49.16843872070312,-4.2870799720287325,1.688702315039116e+18,3.054116064453125,-247.2915557861328,144.63343811035156,-137.49887390136718,1.6887023150399194e+18,3.054919189453125,0.3418243527412414,-0.6254272063573202,-0.4348924954732259,0.5499031742413839,-1.9663094679514568,1.1337989568710327,0.4134931266307831
3.05,1.6887023150831762e+18,3.0981764322916665,2.2565034230550136,4.351500193277995,-9.97985299428304,1.6887023150918234e+18,3.1068231608072914,1.714058518409729,-2.7824539144833884,-4.85025151570638,1.6887023150831762e+18,3.0981764322916665,-1.846596598625183,-8.559521039326986,4.417860666910808,1.6887023150831762e+18,3.0981764322916665,-2.009033958117167,-1.0067059397697449,0.8198829591274261,1.6887023150875013e+18,3.1025013834635415,-1.9582303762435913,-0.8755226284265518,0.8706865906715393,,,,,,,,,,,,1.6887023150891195e+18,3.104119384765625,5.73887996673584,48.553559112548825,-10.738439750671386,1.6887023150891195e+18,3.104119384765625,-248.80191650390623,144.0185546875,-143.95023498535156,1.6887023150918234e+18,3.1068231608072914,0.3275616069634755,-0.6530026793479919,-0.3833901385466258,0.5648445884386698,-1.8655213117599487,1.0372353792190552,0.2611585259437561
3.1,1.6887023151350807e+18,3.1500809733072916,1.4101900259653728,8.023029009501139,-8.520109176635742,1.6887023151350838e+18,3.150083740234375,-0.6508477926254272,-0.495912492275238,-2.921636462211609,1.6887023151350807e+18,3.1500809733072916,-1.2405622800191245,-8.2645476659139,5.128606796264648,1.6887023151350807e+18,3.1500809733072916,-1.196125050385793,2.252005616823832,0.682692805926005,1.688702315139406e+18,3.1544061686197917,-1.0943142175674438,2.28881029287974,0.690684974193573,1.6887023151111667e+18,3.126166748046875,0.0,1.2234703302383425,1.0400148630142212,46.60599899291992,0.4388920962810516,64.67472839355469,43.400001525878906,-122.7537841,49.1880542,1.6887023151391145e+18,3.154114599609375,2.7205999851226808,47.77763900756836,-14.578999519348145,1.6887023151391145e+18,3.154114599609375,-251.82019653320313,143.24263610839844,-147.79079895019532,1.6887023151350838e+18,3.150083740234375,0.3108004182577133,-0.6430873870849609,-0.3611866980791092,0.5993656516075134,-1.7310603260993958,0.9841019809246062,0.1672483086585998
3.15,1.688702315186982e+18,3.201981770833333,-4.316463788350423,6.243282000223796,-9.453099727630615,1.6887023151783304e+18,3.193330403645833,-4.981457869211833,-1.4063815375169118,-4.74995231628418,1.688702315186982e+18,3.201981770833333,-0.5378390153249105,-8.301351547241211,5.193002382914226,1.688702315186982e+18,3.201981770833333,1.0604620377222698,-0.4722497264544169,1.586060682932536,1.6887023151913083e+18,3.20630810546875,1.3787737463911374,-0.7841982444127401,1.697950839996338,,,,,,,,,,,,1.688702315189115e+18,3.204114892578125,-0.563639971613884,47.50191879272461,-15.572079467773438,1.688702315189115e+18,3.204114892578125,-255.10443420410155,142.9669158935547,-148.78387756347655,1.6887023151783304e+18,3.193330403645833,0.3113068143526712,-0.622726043065389,-0.3531913459300995,0.6248218019803365,-1.6153480609258015,0.9774340788523356,0.0905695309241612
3.2,1.6887023152388923e+18,3.253892333984375,-2.0140801270802817,0.2231272061665853,-3.419709841410319,1.688702315230241e+18,3.245240966796875,-2.737987279891968,-5.794219891230266,-0.0867398381233215,1.6887023152388923e+18,3.253892333984375,-0.0631526634097099,-9.11509895324707,3.5382787386576333,1.6887023152388923e+18,3.253892333984375,5.198055903116862,-2.86444886525472,2.4836254119873047,1.6887023152345677e+18,3.2495675048828128,4.716108798980713,-2.8543442487716675,2.459648847579956,,,,,,,,,,,,1.688702315239115e+18,3.2541149414062502,-4.628679943084717,49.13671951293945,-8.769359731674195,1.688702315239115e+18,3.2541149414062502,-259.1694763183594,144.60172119140626,-141.98115234375,1.688702315230241e+18,3.245240966796875,0.4039947787920634,-0.6067161560058594,-0.3502439856529235,0.586635688940684,-1.5225958824157717,1.1256374915440877,-0.1236143894493579
3.25,1.6887023152907912e+18,3.3057910970052085,-3.07692813873291,-37.5899543762207,-6.01530925432841,1.688702315282144e+18,3.297143880208333,-0.1216348807017008,-43.21318054199219,-4.684149781862895,1.6887023152907912e+18,3.3057910970052085,0.3037829399108886,-9.636429786682127,-0.9578502972920736,1.6887023152907912e+18,3.3057910970052085,10.281065622965494,8.202036698659262,0.9865982433160146,1.68870231527782e+18,3.2928199055989587,10.219113985697428,4.274987777074178,0.943634070456028,,,,,,,,,,,,1.6887023152891144e+18,3.304114453125,-7.551799869537353,47.75811920166016,10.633519810438155,1.6887023152891144e+18,3.304114453125,-262.09259643554685,143.22311706542968,-122.57827758789062,1.688702315282144e+18,3.297143880208333,0.529345432917277,-0.5001627802848816,-0.4557828704516093,0.5024461547533671,-0.1194983621438344,1.4000659386316936,-1.5230091909567516
3.3,1.6887023153340431e+18,3.349043212890625,3.910534381866454,-17.872343063354492,7.829172134399414,1.6887023153340465e+18,3.3490464680989582,0.826720396677653,-26.242085774739586,2.3096720377604165,1.6887023153340431e+18,3.349043212890625,-0.9504763334989548,-8.950742721557617,-3.8043205738067623,1.6887023153340431e+18,3.349043212890625,4.352643966674805,12.664458274841309,-2.602056920528412,1.6887023153297244e+18,3.344724609375,4.958851496378581,11.696847597757976,-1.752215951681137,,,,,,,,,,,,1.6887023153391168e+18,3.354116796875,6.129279947280883,38.73011932373047,30.470719146728516,1.6887023153391168e+18,3.354116796875,-248.41151733398436,134.1951171875,-102.74107971191408,1.6887023153340465e+18,3.3490464680989582,0.4672112663586934,-0.2512964904308318,-0.6806877056757609,0.4975499808788299,1.6932044823964436,1.1594196557998655,-2.7875051498413086
