seconds_elapsed_rounded,accelerometer_time,accelerometer_seconds_elapsed,accelerometer_z,accelerometer_y,accelerometer_x,accelerometeruncalibrated_time,accelerometeruncalibrated_seconds_elapsed,accelerometeruncalibrated_z,accelerometeruncalibrated_y,accelerometeruncalibrated_x,gravity_time,gravity_seconds_elapsed,gravity_z,gravity_y,gravity_x,gyroscope_time,gyroscope_seconds_elapsed,gyroscope_z,gyroscope_y,gyroscope_x,gyroscopeuncalibrated_time,gyroscopeuncalibrated_seconds_elapsed,gyroscopeuncalibrated_z,gyroscopeuncalibrated_y,gyroscopeuncalibrated_x,location_time,location_seconds_elapsed,location_bearingAccuracy,location_speedAccuracy,location_verticalAccuracy,location_horizontalAccuracy,location_speed,location_bearing,location_altitude,location_longitude,location_latitude,magnetometer_time,magnetometer_seconds_elapsed,magnetometer_z,magnetometer_y,magnetometer_x,magnetometeruncalibrated_time,magnetometeruncalibrated_seconds_elapsed,magnetometeruncalibrated_z,magnetometeruncalibrated_y,magnetometeruncalibrated_x,orientation_time,orientation_seconds_elapsed,orientation_qz,orientation_qy,orientation_qx,orientation_qw,orientation_roll,orientation_pitch,orientation_yaw
0.0,1.688702371979421e+18,59.99442097981771,-0.5951392650604248,6.475226879119873,-5.987779935201009,1.688702371979421e+18,59.99442097981771,-4.444867451985677,-2.453839655208867,-4.612165609995524,1.688702371979421e+18,59.99442097981771,-3.8555742104848223,-8.911561965942383,1.3129268487294514,1.6887023719880686e+18,60.00306868489583,-0.4272493372360865,-2.6865853468577066,3.8028906981150303,1.6887023719923937e+18,60.00739339192708,-0.4713843489686648,-2.892599662144979,3.762624502182007,,,,,,,,,,,,1.688702371989117e+18,60.004116992187505,17.084880065917964,45.28883895874024,-13.53711986541748,1.688702371989117e+18,60.004116992187505,-237.45591735839844,140.75383911132812,-146.74891967773436,1.688702371979421e+18,59.99442097981771,-0.4395674765110015,0.6149804592132568,-0.5649930238723755,0.329122503598531,-2.910585323969523,1.151785135269165,-1.6373048226038616
0.05,1.6887023720313188e+18,60.04631892903646,10.38105591138204,-9.949912389119469,-4.719167153040568,1.6887023720313188e+18,60.04631892903646,7.99521803855896,-19.44347858428955,-3.974877198537191,1.6887023720313188e+18,60.04631892903646,-2.39168381690979,-9.476062138875326,0.6816025276978811,1.688702372039969e+18,60.05496923828125,2.780862162510554,1.396641751130422,2.1052452425161996,1.6887023720356495e+18,60.05064953613281,2.003561645746231,-1.2883147597312927,2.766990542411804,,,,,,,,,,,,1.6887023720391188e+18,60.054118945312496,10.489559841156003,47.526319122314455,-11.126399803161622,1.6887023720391188e+18,60.054118945312496,-244.05123596191407,142.99131469726564,-144.33819580078125,1.6887023720313188e+18,60.04631892903646,-0.4468446870644887,0.5530971089998881,-0.5600641369819641,0.4242222209771473,-0.9372148513793944,1.3244684934616089,-1.664960225423177
0.1,1.6887023720832266e+18,60.0982265625,5.96039350827535,-27.570363362630207,2.8119810024897256,1.6887023720832266e+18,60.0982265625,3.5475587844848633,-37.08217112223307,2.503889560699463,1.6887023720832266e+18,60.0982265625,-2.418680508931478,-9.494302749633787,-0.3707789331674576,1.688702372091876e+18,60.106876139322914,4.640081405639648,19.433303833007812,-1.6564120451609294,1.6887023720789e+18,60.09389982096354,5.245245377222697,17.241264661153156,-0.9502517879009248,,,,,,,,,,,,1.6887023720891154e+18,60.104115625,6.485519886016846,49.31727905273438,-3.3354799509048463,1.6887023720891154e+18,60.104115625,-248.0552734375,144.78227844238282,-136.54727783203126,1.6887023720832266e+18,60.0982265625,-0.5157919625441233,0.7054516474405924,-0.3473856101433435,0.3070924629767735,2.8700093428293862,1.294885555903117,-0.7115993400414785
0.15,1.6887023721351352e+18,60.15013517252604,0.4374918937683105,-3.1763976414998374,-0.7989277491966883,1.6887023721351352e+18,60.15013517252604,-3.2358937660853067,-12.281561215718588,-0.7864410032828649,1.6887023721351352e+18,60.15013517252604,-3.679231643676758,-9.087659200032553,-0.0502006883422533,1.6887023721351214e+18,60.15012158203125,1.173395752906799,1.4648549556732178,-2.495155364274978,1.688702372130803e+18,60.14580289713542,1.620218262076378,5.070487181345622,-2.4637213746706643,,,,,,,,,,,,1.688702372139116e+18,60.15411601562501,11.27035961151123,48.95859832763672,-0.7344399809837341,1.688702372139116e+18,60.15411601562501,-243.2704315185547,144.42359313964843,-133.94623413085938,1.6887023721351352e+18,60.15013517252604,-0.5356734792391459,0.8290681640307108,-0.1267445534467696,0.0950805669029553,3.090007464090983,1.1500574350357056,-0.2706716706355412
0.2,1.6887023721870356e+18,60.20203580729167,2.3801962534586587,5.365426858266194,3.619565963745117,1.6887023721870356e+18,60.20203580729167,-1.056431194146474,-3.7784663836161294,2.6791637738545737,1.6887023721870356e+18,60.20203580729167,-3.4424734910329184,-9.126388549804688,-1.0030895868937175,1.6887023721783852e+18,60.19338517252604,-0.9904161791006724,-7.866570154825847,0.6810638507207235,1.688702372182707e+18,60.19770686848958,-1.155757049719493,-7.899709224700928,0.7628179788589478,,,,,,,,,,,,1.6887023721891144e+18,60.204114404296874,12.173159790039062,48.78291931152344,2.3253199577331545,1.6887023721891144e+18,60.204114404296874,-242.36763916015624,144.24791564941407,-130.8864776611328,1.6887023721870356e+18,60.20203580729167,-0.5112403432528178,0.7995819250742594,-0.2177656988302866,0.2206157545248667,2.8085248470306396,1.16005543867747,-0.3121712903181712
0.25,1.688702372238937e+18,60.253937011718754,2.162148356437683,10.487608273824057,3.075266440709432,1.688702372238937e+18,60.253937011718754,-0.5032903552055359,1.0843474864959717,2.155933141708374,1.688702372238937e+18,60.253937011718754,-2.6712847550710044,-9.385756174723308,-0.9820206761360168,1.6887023722302804e+18,60.24528068033854,-2.362572272618612,-6.4593400955200195,0.767348567644755,1.6887023722346107e+18,60.249610595703125,-2.4115941524505615,-6.3504532178243,0.719395637512207,,,,,,,,,,,,1.6887023722391148e+18,60.25411484375,8.513159942626952,49.614958953857425,0.6295199885964393,1.6887023722391148e+18,60.25411484375,-246.02763977050785,145.0799591064453,-132.5822784423828,1.688702372238937e+18,60.253937011718754,-0.494851807753245,0.7234735687573751,-0.3454164365927378,0.3320920765399933,2.695699453353882,1.245092511177063,-0.5689657131830851
0.3,1.6887023722908416e+18,60.305841634114586,0.2013250986735026,11.788612683614096,2.201032519340515,1.6887023722908416e+18,60.305841634114586,-2.1706889470418296,2.2652053833007812,1.8175482352574663,1.6887023722908416e+18,60.305841634114586,-2.3778600692749023,-9.505902926127115,-0.4461716612180074,1.6887023722821926e+18,60.297192708333334,-2.62493888537089,-6.346126238505046,0.1007927656173706,1.6887023722865172e+18,60.30151717122396,-2.617964744567871,-6.385985215504964,0.0525853137175241,,,,,,,,,,,,1.688702372289116e+18,60.304116064453126,8.940159797668457,49.673519897460935,-3.235439920425415,1.688702372289116e+18,60.304116064453126,-245.6006378173828,145.13851623535157,-136.44723815917968,1.6887023722908416e+18,60.305841634114586,-0.4587058126926422,0.6348345677057902,-0.4668996532758077,0.4075850943724314,2.7953062057495117,1.306113600730896,-1.0027443766593933
0.35,1.6887023723340923e+18,60.34909240722656,4.531452894210815,8.91501235961914,0.3073741346597671,1.6887023723340923e+18,60.34909240722656,2.139781653881073,-0.6146563142538071,0.3020938485860824,1.6887023723340923e+18,60.34909240722656,-2.3975170850753784,-9.512164115905762,-0.0679676849395036,1.6887023723340956e+18,60.34909554036458,-1.6362025539080305,-4.348393440246582,-0.3036509354909261,1.6887023723384246e+18,60.35342464192709,-1.4530956745147705,-3.900781830151876,-0.28557950258255,1.6887023723211205e+18,60.33612060546875,0.0,0.0,1.1743751764297483,7.427000045776367,3.046816825866699,12.121301651000977,43.39123351761076,-122.7523963,49.187887,1.6887023723391194e+18,60.354119335937504,11.094679832458496,48.946398162841795,-6.231759834289551,1.6887023723391194e+18,60.354119335937504,-243.44611511230468,144.4113983154297,-139.4435546875,1.6887023723340923e+18,60.34909240722656,-0.4155690521001816,0.5593597888946533,-0.5525447428226471,0.4569331109523773,2.9257887601852417,1.3258156180381775,-1.3898069262504578
0.4,1.688702372377353e+18,60.39235286458333,2.656785249710083,7.511158943176269,0.7657650262117386,1.688702372377353e+18,60.39235286458333,0.2344966232776641,-2.010968009630839,0.7844470393223067,1.688702372377353e+18,60.39235286458333,-2.4281346797943115,-9.50462245941162,-0.0440053989489873,1.6887023723860027e+18,60.401002522786456,0.4545855522155761,0.985376556714376,-0.2263255765040714,1.6887023723903283e+18,60.405328125,0.578591192762057,1.4093170464038849,-0.2680680329600969,,,,,,,,,,,,1.6887023723891185e+18,60.40411850585938,11.746160125732422,48.52671890258789,-6.363519859313965,1.6887023723891185e+18,60.40411850585938,-242.7946319580078,143.99171752929686,-139.5753143310547,1.688702372377353e+18,60.39235286458333,-0.4021328588326772,0.5418696204821268,-0.5702410737673441,0.4684589107831319,2.9381120999654136,1.3256854613622029,-1.4627654949824016
0.45,1.6887023724292503e+18,60.44425024414062,-4.5969557762146,-4.442105611165363,5.52701203028361,1.6887023724292503e+18,60.44425024414062,-7.370292504628499,-13.864612579345703,5.503093163172404,1.6887023724292503e+18,60.44425024414062,-2.7791825930277505,-9.40500259399414,-0.0866065844893455,1.6887023724379036e+18,60.45290364583334,2.0097976128260293,5.186449686686198,-1.5931365688641863,1.688702372442234e+18,60.45723372395833,2.2204442818959556,5.304041067759196,-1.694438378016154,,,,,,,,,,,,1.6887023724391188e+18,60.454118798828134,12.702639770507812,48.448638916015625,-5.746199989318848,1.6887023724391188e+18,60.454118798828134,-241.8381561279297,143.91363830566405,-138.95799560546874,1.6887023724292503e+18,60.44425024414062,-0.4245647589365641,0.5992527802785238,-0.5294176538785299,0.4226220349470774,2.943589766820272,1.2800989151000977,-1.300012747446696
0.5,1.6887023724811584e+18,60.49615844726563,-11.116975466410318,-29.31766192118327,4.376391530036926,1.6887023724811584e+18,60.49615844726563,-14.79123338063558,-38.41457430521647,4.014159361521403,1.6887023724811584e+18,60.49615844726563,-3.680103858311971,-9.079407691955566,-0.4249198536078135,1.6887023724898076e+18,60.50480745442709,1.4428127606709795,4.403778553009033,-1.9493728081385295,1.6887023724854886e+18,60.50048864746094,2.120236873626709,4.696026563644409,-1.5764141082763672,,,,,,,,,,,,1.6887023724891156e+18,60.50411577148437,15.237799644470217,47.56291885375977,-3.171999931335449,1.6887023724891156e+18,60.50411577148437,-239.30299682617184,143.02791748046874,-136.38379516601563,1.6887023724811584e+18,60.49615844726563,-0.4358123044172923,0.7014191548029581,-0.4467214743296305,0.3421296974023183,2.912025292714437,1.1640141010284424,-0.9831353823343912
0.55,1.6887023725330624e+18,60.54806225585938,0.192869504292806,-3.2573486963907876,-2.667079130808512,1.6887023725330624e+18,60.54806225585938,-4.702893575032552,-11.74237855275472,-2.130609154701233,1.6887023725330624e+18,60.54806225585938,-4.901609102884929,-8.467525164286295,0.4737826026976108,1.6887023725417167e+18,60.55671687825521,-2.439897616704305,-0.1244128346443176,-3.951585451761882,1.688702372528738e+18,60.54373795572917,-1.9938132762908936,1.726101577281952,-3.012074708938598,,,,,,,,,,,,1.6887023725391132e+18,60.55411333007813,21.015719985961915,44.67639923095703,-7.229719829559326,1.6887023725391132e+18,60.55411333007813,-233.52507629394532,140.1414001464844,-140.44151916503907,1.6887023725330624e+18,60.54806225585938,-0.4249020616213481,0.7499950925509135,-0.4415987730026245,0.2473954806725183,-1.043832540512085,1.0274445215861003,-1.0640831589698792
0.6,1.6887023725849705e+18,60.59997054036458,49.52890300750733,-9.004413922627768,1.7332080205281577,1.6887023725849705e+18,60.59997054036458,42.14219252268473,-15.191233317057293,0.8289137085278829,1.6887023725849705e+18,60.59997054036458,-7.392557303110759,-6.169315338134766,-0.9669817090034484,1.6887023725849646e+18,60.59996484375,-2.3344979286193848,-14.060667037963867,-9.588217496871948,1.6887023725806456e+18,60.59564575195312,-2.5054128964742026,-11.24725087483724,-8.212319930394491,,,,,,,,,,,,1.688702372589118e+18,60.604118115234385,38.63007850646973,32.83019943237305,-2.205760002136231,1.688702372589118e+18,60.604118115234385,-215.91071472167968,128.29519958496093,-135.4175582885742,1.6887023725849705e+18,60.59997054036458,-0.216103084385395,0.739814817905426,-0.5710272987683614,0.2597952087720234,0.8715705076853434,0.6774129668871561,-1.2603259483973186
0.65,1.6887023726368748e+18,60.6518749186198,4.859218756357829,-1.836008866628011,-1.6177648305892944,1.6887023726368748e+18,60.6518749186198,-2.36849562327067,-8.39262596766154,-1.8600207765897112,1.6887023726368748e+18,60.6518749186198,-7.233560403188069,-6.539112408955892,-0.3049433330694834,1.68870237262822e+18,60.643220052083336,-2.160884896914164,5.404324849446614,3.5435275634129844,1.688702372632545e+18,60.647544921875,-1.967596968015035,6.107176144917806,3.995211362838745,,,,,,,,,,,,1.6887023726391173e+18,60.65411733398438,40.22827987670898,32.722839736938475,-3.115880024433136,1.6887023726391173e+18,60.65411733398438,-214.31251525878903,128.18783721923828,-136.32767639160156,1.6887023726368748e+18,60.6518749186198,-0.2421245773633321,0.7013633251190186,-0.6128202676773071,0.2660618623097737,0.9484047094980876,0.7301884690920512,-1.402309775352478
0.7,1.68870237268878e+18,60.70377986653646,-1.6415634155273438,6.304629643758138,-2.8402371406555176,1.68870237268878e+18,60.70377986653646,-7.173482894897461,-1.762513240178426,-2.1156540314356485,1.68870237268878e+18,60.70377986653646,-5.5377655029296875,-8.049638430277506,0.6618956426779429,1.6887023726801285e+18,60.69512833658854,0.3500257811198632,0.7769696513811747,4.411719799041748,1.688702372684455e+18,60.699454589843754,0.4079561779896418,0.2334523598353068,4.365039507548015,,,,,,,,,,,,1.688702372689116e+18,60.704116064453125,29.089679718017575,40.45276031494141,-9.369599533081054,1.688702372689116e+18,60.704116064453125,-225.45111694335935,135.91776123046876,-142.5813995361328,1.68870237268878e+18,60.70377986653646,-0.3608595232168833,0.6734664638837179,-0.5747274955113729,0.2915172179539998,-3.103899081548055,0.964709480603536,-1.4319500128428142
0.75,1.6887023727406838e+18,60.755683756510415,-1.0948379039764409,2.0219063758850098,-4.644006570180257,1.6887023727406838e+18,60.755683756510415,-4.77148758371671,-7.060621420542399,-4.776073932647705,1.6887023727406838e+18,60.755683756510415,-3.682495673497518,-9.065023104349772,-0.1947547843058904,1.6887023727320312e+18,60.74703125,-0.4577925950288772,-5.400099595387776,4.368653774261475,1.6887023727363625e+18,60.7513623046875,-0.5097670505444208,-5.784435749053955,4.382856369018555,,,,,,,,,,,,1.6887023727391124e+18,60.75411254882813,19.922599411010744,45.65483856201172,-6.561159896850586,1.6887023727391124e+18,60.75411254882813,-234.61819763183593,141.11983642578124,-139.77295837402343,1.6887023727406838e+18,60.755683756510415,-0.3707036077976227,0.5896520614624023,-0.5795199473698934,0.4192520479361216,2.9604338804880777,1.183963656425476,-1.4282689094543457
0.8,1.6887023727925842e+18,60.80758430989584,20.98390007019043,-28.216580073038735,-0.2168385982513427,1.6887023727925842e+18,60.80758430989584,18.758533636728924,-37.72065544128418,-1.2584252655506134,1.6887023727925842e+18,60.80758430989584,-2.231213649113973,-9.486570040384928,-1.1042741338411968,1.688702372783928e+18,60.79892789713542,2.694221168756485,4.7372092405955,2.4740551710128784,1.688702372788261e+18,60.80326106770833,3.060740331808726,7.26776933670044,2.1715241074562073,,,,,,,,,,,,1.6887023727891172e+18,60.80411713867189,11.550959396362304,48.59259872436523,-1.8665999114513396,1.6887023727891172e+18,60.80411713867189,-242.98983154296872,144.0575958251953,-135.07839965820312,1.6887023727925842e+18,60.80758430989584,-0.3932829399903615,0.5809532801310221,-0.5159893830617269,0.4804899791876475,2.540254831314087,1.2976049582163494,-0.9915635188420614
0.85,1.688702372835837e+18,60.8508369140625,-2.7586194276809692,-18.104467391967773,5.163655400276184,1.688702372835837e+18,60.8508369140625,-5.528616696596146,-27.49622344970703,4.458725929260254,1.688702372835837e+18,60.8508369140625,-2.7758432626724243,-9.37425136566162,-0.7676169574260712,1.688702372835842e+18,60.85084187825521,3.6376006603240967,18.41468556722005,-0.6806566094358762,1.6887023728401682e+18,60.855168212890625,3.450981378555298,16.7820463180542,-1.0078767736752827,1.6887023728220027e+18,60.83700268554688,0.0,0.0,1.1743751764297483,7.446000099182129,3.075429201126098,10.050750732421877,43.39123351761076,-122.7523965,49.1878974,1.6887023728391127e+18,60.85411274414063,8.993839740753174,49.06839904785157,1.3712799549102783,1.6887023728391127e+18,60.85411274414063,-245.5469512939453,144.53339538574218,-131.84052124023438,1.688702372835837e+18,60.8508369140625,-0.5288049280643463,0.7641675770282745,-0.2577973529696464,0.2504787743091583,2.798548102378845,1.2362040281295776,-0.4057698547840118
0.9,1.6887023728790958e+18,60.89409594726563,-2.71248467763265,0.8182724316914877,-1.15636412302653,1.6887023728790958e+18,60.89409594726563,-6.414758523305257,-8.218149344126383,-2.0925233364105225,1.6887023728790958e+18,60.89409594726563,-3.708119789759318,-9.018917083740234,-0.9988465706507365,1.6887023728877425e+18,60.90274226888021,0.4874704778194427,-5.2528302470843,-0.8477791671951612,1.6887023728920686e+18,60.90706844075521,0.2421062489350637,-6.180225372314453,-0.5758932232856752,,,,,,,,,,,,1.6887023728891195e+18,60.9041197265625,13.112559509277345,48.21439819335937,4.816559934616089,1.6887023728891195e+18,60.9041197265625,-241.4282348632813,143.6793975830078,-128.3952377319336,1.6887023728790958e+18,60.89409594726563,-0.5129105051358541,0.8229141434033712,-0.1635883351167042,0.1773313730955123,2.8490628401438394,1.1277494430541992,-0.2073474178711573
0.95,1.6887023729309972e+18,60.94599723307291,2.0703454415003457,7.194148063659668,4.426499366760254,1.6887023729309972e+18,60.94599723307291,-1.0225329001744587,-1.9150557396933436,2.516451835632324,1.6887023729309972e+18,60.94599723307291,-3.098724365234375,-9.091699282328287,-1.9727349281311035,1.6887023729396518e+18,60.95465161132813,-1.731497486432393,-7.049945036570231,0.4873686532179515,1.6887023729353224e+18,60.95032238769531,-1.660942554473877,-7.252039432525635,0.5214498341083527,,,,,,,,,,,,1.688702372939118e+18,60.954117968750005,10.601799774169924,48.66823883056641,6.900319766998291,1.688702372939118e+18,60.954117968750005,-243.93899536132812,144.13323669433595,-126.3114776611328,1.6887023729309972e+18,60.94599723307291,-0.4786090850830078,0.7716718713442484,-0.2671398073434829,0.3183616002400716,2.530215263366699,1.1468385060628254,-0.2643194893995921
1.0,1.688702372982901e+18,60.99790112304688,0.7492039998372396,11.099214235941568,3.908432086308798,1.688702372982901e+18,60.99790112304688,-1.574676752090454,1.7118651866912842,2.252443710962931,1.688702372982901e+18,60.99790112304688,-2.329726775487264,-9.369844436645508,-1.71867569287618,1.6887023729915564e+18,61.00655631510417,-2.591697613398234,-5.470756371815999,0.3933972219626109,1.6887023729785802e+18,60.99358024088542,-2.4715099334716797,-5.707466761271159,0.3194825202226638,,,,,,,,,,,,1.6887023729891246e+18,61.00412456054688,7.971479797363282,49.54907913208008,4.323679971694946,1.6887023729891246e+18,61.00412456054688,-246.5693145751953,145.0140808105469,-128.88811950683595,1.688702372982901e+18,60.99790112304688,-0.4561430215835571,0.6904387672742208,-0.381465345621109,0.4098605712254842,2.42012882232666,1.2351613442103069,-0.4865422050158183
1.05,1.688702373034804e+18,61.0498037109375,0.1139278014500935,11.602426528930664,3.0209710597991943,1.688702373034804e+18,61.0498037109375,-1.4422738552093506,1.953141450881958,2.149153470993042,1.688702373034804e+18,61.0498037109375,-1.5620476802190144,-9.631780624389648,-0.9345049460728964,1.6887023730348114e+18,61.049811401367194,-2.371226072311402,-4.5030694007873535,1.6794975996017456,1.6887023730304837e+18,61.04548356119792,-2.4246768156687417,-4.571664571762085,1.4998778104782104,,,,,,,,,,,,1.6887023730391117e+18,61.05411181640625,5.255759906768799,50.01511840820312,-0.6148799866437912,1.6887023730391117e+18,61.05411181640625,-249.2850341796875,145.48011474609376,-133.82667846679686,1.688702373034804e+18,61.0498037109375,-0.4458234409491221,0.5968109965324402,-0.4708017706871032,0.4712382952372233,2.404682238896688,1.356799046198527,-0.732466439406077
1.1,1.688702373086715e+18,61.10171484375,0.510413388411204,9.436452865600586,1.2779793341954548,1.688702373086715e+18,61.10171484375,0.1483550171057383,-0.3780659635861714,1.252044439315796,1.688702373086715e+18,61.10171484375,-0.3679043973485629,-9.797014554341636,-0.0886222732563813,1.688702373078063e+18,61.09306315104167,-1.6456709305445354,-2.640668710072835,2.279749115308126,1.6887023730823803e+18,61.097380696614586,-1.518051008383433,-2.515084981918335,2.197384079297384,,,,,,,,,,,,1.6887023730891162e+18,61.10411611328125,-0.2000800132751464,50.127359008789064,-5.001999855041504,1.6887023730891162e+18,61.10411611328125,-254.7408721923828,145.59235534667968,-138.21379699707032,1.688702373086715e+18,61.10171484375,-0.4631727337837219,0.5073386232058207,-0.5065685907999674,0.5204960703849792,1.8920752604802449,1.5023274024327595,-0.3778699313600858
1.15,1.6887023731386186e+18,61.153618652343745,0.0902039657036463,5.204516569773356,2.2706611156463623,1.6887023731386186e+18,61.153618652343745,-0.0147557308276494,-4.618745883305867,2.37846569220225,1.6887023731386186e+18,61.153618652343745,-0.110805735612909,-9.805757840474447,0.0451171721021334,1.6887023731299674e+18,61.14496720377604,0.3455970187981923,0.4545346299807231,-0.3478877469897269,1.688702373134294e+18,61.14929386393229,0.4971424738566081,0.8912523984909058,-0.7687739034493765,,,,,,,,,,,,1.6887023731391173e+18,61.1541173828125,-2.1325599193572997,49.86139907836914,-5.848679924011231,1.6887023731391173e+18,61.1541173828125,-256.67336120605466,145.32639770507814,-139.06047668457032,1.6887023731386186e+18,61.153618652343745,-0.4681747853755951,0.4931941926479339,-0.5071744918823242,0.5290859341621399,1.4816629886627195,1.5180191198984785,0.0141958494981129
1.2,1.6887023731905231e+18,61.20552327473958,-9.643351236979166,-27.63674831390381,12.122060775756836,1.6887023731905231e+18,61.20552327473958,-12.497114658355711,-36.95555114746094,11.876176834106444,1.6887023731905231e+18,61.20552327473958,-2.8596095641454062,-9.301298141479492,-0.3085720340410868,1.688702373181871e+18,61.196871175130205,2.1368065675099692,6.318739096323649,-7.221190929412842,1.6887023731861985e+18,61.20119807942708,2.230472683906555,6.73224401473999,-7.526878039042155,,,,,,,,,,,,1.6887023731891192e+18,61.20411928710937,8.757159662246703,48.87807922363281,-3.411119985580444,1.6887023731891192e+18,61.20411928710937,-245.78363647460935,144.34307861328125,-136.62291870117187,1.6887023731905231e+18,61.20552327473958,-0.433653970559438,0.6386532783508301,-0.4857106109460194,0.4014730950196584,2.81102991104126,1.2547375361124675,-1.0507267316182454
1.25,1.6887023732424246e+18,61.2574248046875,-8.170058727264404,-13.15383211771647,-0.8544646898905436,1.6887023732424246e+18,61.2574248046875,-13.256835301717125,-21.53540325164795,-0.322831670443217,1.6887023732424246e+18,61.2574248046875,-5.09262228012085,-8.364066441853842,0.4689456013341744,1.6887023732337702e+18,61.24877026367187,0.1865684272100528,4.9127819538116455,-2.7603473464647927,1.688702373238103e+18,61.25310294596354,-0.1685478885968526,4.356436451276143,-2.148514896631241,,,,,,,,,,,,1.6887023732391188e+18,61.25411879882813,21.994159698486328,44.85695953369141,-4.984919881820678,1.6887023732391188e+18,61.25411879882813,-232.5466339111328,140.32196044921875,-138.19671630859375,1.6887023732424246e+18,61.2574248046875,-0.4149996240933736,0.7580178578694662,-0.4401686787605285,0.2425154447555541,1.0420440832773843,1.0027656356493633,-1.048911730448405
1.3,1.6887023732856817e+18,61.300681640625,8.46439528465271,2.4814414978027344,-4.499081373214722,1.6887023732856817e+18,61.300681640625,2.8139593601226807,-5.447260618209839,-3.3113673329353333,1.6887023732856817e+18,61.300681640625,-5.6562819480896,-7.911197423934936,1.1250266432762146,1.6887023732856773e+18,61.30067749023437,-2.9020680586496987,-4.442161063353221,-5.368894551259776,1.6887023732900073e+18,61.30500732421876,-3.0434323946634927,-6.448598941167195,-6.286465077971418,,,,,,,,,,,,1.688702373289114e+18,61.3041138671875,25.80299987792969,41.69471893310547,-9.34763984680176,1.688702373289114e+18,61.3041138671875,-228.7377960205078,137.159716796875,-142.55943908691407,1.6887023732856817e+18,61.300681640625,-0.3994680941104889,0.755772590637207,-0.4743057191371918,0.2064952999353408,-3.0302850008010864,0.9292058050632476,-1.1769274473190308
1.35,1.6887023733289318e+18,61.343931884765624,47.392093658447266,-8.373817920684814,-3.0486106872558594,1.6887023733289318e+18,61.343931884765624,39.74837430318197,-14.508281707763674,-3.332005421320597,1.6887023733289318e+18,61.343931884765624,-7.649566968282064,-6.116959412892659,-0.3460822155078252,1.6887023733375823e+18,61.352582031249995,-2.511266986529032,-0.9977465073267624,0.048360268274943,1.6887023733419057e+18,61.35690576171876,-2.3461297353108725,0.7175629933675131,1.0313441753387451,1.6887023733556805e+18,61.37068017578125,0.0,0.0,1.1338802576065063,7.507999897003174,2.9953713417053223,4.772594928741455,43.45506024711269,-122.7523995,49.1879172,1.6887023733391122e+18,61.35411220703124,40.840718841552736,31.785879135131836,-3.696599912643433,1.6887023733391122e+18,61.35411220703124,-213.7000732421875,127.2508758544922,-136.90839538574218,1.6887023733289318e+18,61.343931884765624,-0.2235123217105864,0.7252628207206726,-0.6019220352172852,0.2458668003479639,3.0300139586130777,0.670032799243927,-1.3471024831136067
1.4,1.6887023733808415e+18,61.3958418782552,-2.5334181785583496,1.2647366523742676,-4.343496719996135,1.6887023733808415e+18,61.3958418782552,-9.175278345743816,-5.859823385874431,-3.156930764516195,1.6887023733808415e+18,61.3958418782552,-6.647706190745036,-7.1070553461710615,1.1238786180814109,1.6887023733894902e+18,61.404489990234374,-0.5656612167755762,0.9007717172304788,3.581350247065226,1.6887023733851597e+18,61.40015979003906,-0.6075818538665771,1.2267701104283333,3.5885279178619385,,,,,,,,,,,,1.688702373389117e+18,61.4041166015625,34.08435974121094,36.37307891845703,-11.009279823303222,1.688702373389117e+18,61.4041166015625,-220.45643615722656,131.83807678222655,-144.22107849121093,1.6887023733808415e+18,61.3958418782552,-0.3217706481615702,0.6917303204536438,-0.6020754973093668,0.2340053270260492,-3.0468746026357016,0.8143471280733744,-1.4742987950642903
1.45,1.6887023734327442e+18,61.44774430338541,0.7804530461629232,6.389427502950032,-5.069649855295817,1.6887023734327442e+18,61.44774430338541,-4.574079831441243,-1.778664807478587,-4.077170292536418,1.6887023734327442e+18,61.44774430338541,-5.360378901163737,-8.150587876637777,0.9297920862833658,1.6887023734413947e+18,61.45639469401042,-0.7952956557273865,-3.031469742457072,3.430262883504232,1.688702373428419e+18,61.44341927083334,-0.4682282010714213,-2.3609941800435386,3.4528140226999917,,,,,,,,,,,,1.6887023734391188e+18,61.45411875,26.649679946899415,41.79231948852539,-10.343159866333009,1.6887023734391188e+18,61.45411875,-227.8911163330078,137.25731811523437,-143.55495910644532,1.6887023734327442e+18,61.44774430338541,-0.3642464180787404,0.6416969299316406,-0.6011072794596354,0.3052279651165008,-3.0572436650594077,0.988839546839396,-1.5507344404856365
1.5,1.6887023734846492e+18,61.49964892578125,5.523135979970296,-7.234180450439453,-7.473810036977132,1.6887023734846492e+18,61.49964892578125,1.5371891483664513,-16.19023672739665,-6.995018323262532,1.6887023734846492e+18,61.49964892578125,-3.991792758305868,-8.938551902770996,0.4161042471726735,1.6887023734846484e+18,61.49964831542969,-0.5493969023227693,-3.5140023231506348,3.253544569015503,1.6887023734803238e+18,61.49532389322917,-0.6020585894584657,-3.3673946062723794,3.314096689224243,,,,,,,,,,,,1.6887023734891174e+18,61.50411748046874,20.308119583129884,45.26443939208984,-8.237439727783203,1.6887023734891174e+18,61.50411748046874,-234.23267822265623,140.72944030761718,-141.4492401123047,1.6887023734846492e+18,61.49964892578125,-0.3689935406049092,0.5640931129455566,-0.6169723073641459,0.4048945407072703,-1.0535017649332683,1.1601101954778037,-1.6550418933232625
1.55,1.688702373536547e+18,61.55154728190104,13.520720799763998,-29.09291648864746,2.847694714864095,1.688702373536547e+18,61.55154728190104,10.77488056818644,-38.5146738688151,2.4813570976257324,1.688702373536547e+18,61.55154728190104,-2.7516866525014243,-9.404252052307127,-0.4290250937143962,1.6887023735279022e+18,61.54290193684896,5.206149975458781,11.926838556925455,2.4896831115086875,1.6887023735322276e+18,61.54722770182292,5.469941854476929,14.027705987294516,2.2906428575515747,,,,,,,,,,,,1.6887023735391142e+18,61.55411420898438,11.28987979888916,48.6267593383789,-2.6376399278640745,1.6887023735391142e+18,61.55411420898438,-243.25091552734375,144.09175720214844,-135.8494384765625,1.688702373536547e+18,61.55154728190104,-0.4519287943840027,0.6486786802609762,-0.4560462733109792,0.3818983634312947,2.853575070699056,1.2676138877868652,-1.013084848721822
1.6,1.6887023735884575e+18,61.60345792643229,-0.5290160179138189,-7.998519579569499,1.9350070953369147,1.6887023735884575e+18,61.60345792643229,-3.9932220776875815,-17.175082524617512,2.058824578921,1.6887023735884575e+18,61.60345792643229,-3.4700520038604736,-9.159058888753256,0.0611298183600107,1.688702373579806e+18,61.59480615234375,2.887661814689636,14.02276841799418,-2.3971880078315735,1.688702373584134e+18,61.5991337890625,2.5480206410090127,11.598905563354492,-2.5623252342144647,,,,,,,,,,,,1.6887023735891164e+18,61.60411650390624,11.477759838104248,48.74631881713867,-0.3098800063133239,1.6887023735891164e+18,61.60411650390624,-243.0630340576172,144.21131591796876,-133.5216796875,1.6887023735884575e+18,61.60345792643229,-0.5406394600868225,0.8194098472595215,-0.1463129073381423,0.1069467812776565,1.0064939657847087,1.169621189435323,-0.3270280261834462
1.65,1.688702373640359e+18,61.655358805338544,2.089634815851847,4.193264007568359,4.054311354955037,1.688702373640359e+18,61.655358805338544,-1.5804593364397683,-4.832105835278829,2.945963462193807,1.688702373640359e+18,61.655358805338544,-3.675940195719401,-9.007865269978842,-1.1710351904233296,1.6887023736317112e+18,61.646711181640626,-0.0041233425339063,-8.342077732086182,0.278910885254542,1.6887023736360366e+18,61.651036539713544,-0.1817833185195922,-8.61284351348877,0.4639521439870199,,,,,,,,,,,,1.68870237363911e+18,61.654110009765624,13.964119911193848,48.282718658447266,4.360279846191406,1.68870237363911e+18,61.654110009765624,-240.57667541503903,143.74772033691406,-128.8515197753906,1.688702373640359e+18,61.655358805338544,-0.5009991327921549,0.8141242861747742,-0.1941706339518229,0.21087313691775,2.788065036137899,1.1229909261067708,-0.2438070774078369
1.7,1.68870237369226e+18,61.70725992838542,1.387487530708313,10.632209142049152,4.500566482543945,1.68870237369226e+18,61.70725992838542,-1.352941811084747,1.3629118626316388,2.8167510827382407,1.68870237369226e+18,61.70725992838542,-2.7462753454844155,-9.251792907714844,-1.7465027570724487,1.688702373683617e+18,61.6986171875,-1.8056158622105916,-7.588219006856282,0.5437718828519186,1.688702373687942e+18,61.70294222005208,-1.9006563027699788,-7.440287748972575,0.4897612233956654,,,,,,,,,,,,1.6887023736891205e+18,61.70412026367187,10.41635971069336,48.92687911987305,6.082919788360596,1.6887023736891205e+18,61.70412026367187,-244.1244354248047,144.39187622070312,-127.12887725830078,1.68870237369226e+18,61.70725992838542,-0.4733372131983439,0.7368416984875997,-0.3218713998794555,0.3559317787488301,2.503141244252523,1.1927553017934165,-0.3824415504932403
1.75,1.6887023737355218e+18,61.75052197265624,-0.9911665320396424,11.777972221374512,4.365135192871094,1.6887023737355218e+18,61.75052197265624,-3.067598581314087,2.284846544265747,2.99013090133667,1.6887023737355218e+18,61.75052197265624,-2.082278072834015,-9.475621223449709,-1.4376917481422424,1.6887023737355205e+18,61.750520182291666,-2.45562736193339,-5.857739607493083,1.184213141600291,1.6887023737398464e+18,61.75484627278646,-2.45145312945048,-5.664706230163574,1.3675745725631714,,,,,,,,,,,,1.688702373739113e+18,61.754112890625,7.481039905548096,49.99803924560547,3.1427198886871337,1.688702373739113e+18,61.754112890625,-247.05975341796875,145.463037109375,-130.06907653808594,1.6887023737355218e+18,61.75052197265624,-0.4507339149713516,0.6579729616641998,-0.418327659368515,0.4337667822837829,2.412548303604126,1.275809109210968,-0.5814023315906525
1.8,1.688702373778771e+18,61.79377083333333,1.2333394885063171,11.520394643147789,2.1488751967748008,1.688702373778771e+18,61.79377083333333,0.2747757832209269,1.780858278274536,1.4669996897379558,1.688702373778771e+18,61.79377083333333,-0.9644097685813904,-9.722032229105633,-0.7445629139741262,1.6887023737874248e+18,61.8024248046875,-2.09862752755483,-3.416263898213705,2.5137104988098145,1.6887023737917524e+18,61.806752441406246,-2.05321987469991,-3.227811972300211,2.4817418257395425,,,,,,,,,,,,1.6887023737891108e+18,61.80411069335937,1.3883599579334258,50.34695892333984,-1.6274799942970275,1.6887023737891108e+18,61.80411069335937,-253.15243225097657,145.81195373535155,-134.8392791748047,1.688702373778771e+18,61.79377083333333,-0.4586468935012817,0.5686704317728678,-0.4720846613248189,0.4921260674794515,2.1737374862035117,1.4114929835001628,-0.5394952595233917
1.85,1.6887023738306793e+18,61.845679036458336,1.6954238812128704,8.545991579691568,1.217535376548767,1.6887023738306793e+18,61.845679036458336,1.8338991800944011,-1.2783654530843098,1.362313687801361,1.6887023738306793e+18,61.845679036458336,0.1326292864978313,-9.806852658589682,0.0820909241835276,1.688702373839326e+18,61.85432568359374,-0.674395223458608,-0.5671883920828501,0.5545129378636678,1.6887023738349996e+18,61.84999963378907,-0.8867472559213638,-0.8659778237342834,0.8020660877227782,,,,,,,,,,,,1.6887023738391158e+18,61.854116015625,-3.1109999656677245,50.04439849853516,-5.692519855499268,1.6887023738391158e+18,61.854116015625,-257.65178833007815,145.50939331054687,-138.90431518554686,1.6887023738306793e+18,61.845679036458336,-0.4808502991994222,0.4917992452780406,-0.4965445796648661,0.5293692549069723,1.0383042494455974,1.5184998114903767,0.4792042368402083
1.9,1.6887023738825833e+18,61.89758325195313,-0.5987236797809601,-0.4823613166809082,5.377072890599568,1.6887023738825833e+18,61.89758325195313,-0.9968100488185884,-10.286943833033243,5.471986691157023,1.6887023738825833e+18,61.89758325195313,-0.4039323975642522,-9.787078221638998,0.0322262706855933,1.6887023738912315e+18,61.90623193359375,1.1790717244148254,4.204585433006287,-4.448015292485555,1.688702373878257e+18,61.89325724283854,0.8691594401995341,2.6323201656341553,-2.600249767303467,1.6887023738782587e+18,61.8932587890625,0.0,0.0,1.1338802576065063,7.547999858856201,2.9180970191955566,2.2299787998199463,43.45506024711269,-122.7524015,49.1879283,1.688702373889115e+18,61.90411494140625,-0.2854799747467041,50.07123947143555,-4.962959861755371,1.688702373889115e+18,61.90411494140625,-254.82627868652344,145.53623657226564,-138.1747589111328,1.6887023738825833e+18,61.89758325195313,-0.4817293584346771,0.5253645777702332,-0.4906243185202281,0.4997235139211018,1.8333576718966167,1.495675007502238,-0.2457474072774251
1.95,1.6887023739344883e+18,61.949488037109376,-12.984389146169027,-33.6548277537028,13.828115145365397,1.6887023739344883e+18,61.949488037109376,-16.65903075536092,-42.70031992594401,14.237693309783936,1.6887023739344883e+18,61.949488037109376,-3.6804877122243247,-9.027987162272137,0.3468908816576004,1.6887023739344873e+18,61.94948718261718,1.2287554740905762,10.19053030014038,-7.866264343261719,1.6887023739301632e+18,61.9451630859375,1.228959043820699,9.260666052500406,-7.513387997945149,,,,,,,,,,,,1.6887023739391173e+18,61.95411728515624,14.788839530944824,47.30427856445313,-5.087399911880493,1.6887023739391173e+18,61.95411728515624,-239.75195922851563,142.76927795410157,-138.2991943359375,1.6887023739344883e+18,61.949488037109376,-0.4531448980172475,0.7002628246943156,-0.4485802948474884,0.3083445529143015,0.9683097203572592,1.1650529305140178,-1.0811384518941245
2.0,1.68870237398639e+18,62.001390218098955,-3.3987185955047607,-4.845297654469808,-2.981501777966818,1.68870237398639e+18,62.001390218098955,-7.934799114863078,-13.40399408340454,-1.3102697531382244,1.68870237398639e+18,62.001390218098955,-4.541926383972168,-8.541192054748535,1.6085446675618489,1.6887023739777413e+18,61.99274137369792,-0.5046765158573788,3.74221142133077,-0.294691542784373,1.688702373982067e+18,61.99706689453125,-0.6721553802490234,3.1011592547098794,0.0626646081606547,,,,,,,,,,,,1.688702373989117e+18,62.00411694335937,19.06615982055664,44.90575942993164,-10.40659999847412,1.688702373989117e+18,62.00411694335937,-235.47463684082032,140.37075805664062,-143.61839599609374,1.68870237398639e+18,62.001390218098955,-0.475216249624888,0.7679954171180725,-0.3947790066401164,0.1680507163206735,-2.9072787761688232,1.0404822031656902,-1.084565043449402
2.05,1.688702374038297e+18,62.05329720052083,43.13466215133667,-3.250532468159994,-10.668752829233805,1.688702374038297e+18,62.05329720052083,36.47957711915175,-10.23948613802592,-9.188438733418783,1.688702374038297e+18,62.05329720052083,-6.660932699839274,-6.971449057261149,1.4176265001296997,1.6887023740296458e+18,62.04464567057291,-4.354094664255778,-7.635917504628499,-6.150954961776733,1.688702374033974e+18,62.04897379557292,-4.574515342712402,-7.620492855707805,-6.48219633102417,,,,,,,,,,,,1.688702374039118e+18,62.054118115234374,31.0807186126709,37.77607879638672,-11.980399894714356,1.688702374039118e+18,62.054118115234374,-223.46007385253907,133.24107971191407,-145.19219665527345,1.688702374038297e+18,62.05329720052083,-0.3454257150491078,0.7520950436592102,-0.5271859367688497,0.1763919641574224,-3.00163467725118,0.790553092956543,-1.2825560172398884
2.1,1.688702374090201e+18,62.10520125325521,0.3539306322733555,-1.635639190673828,-7.758336226145427,1.688702374090201e+18,62.10520125325521,-5.826523145039876,-8.801400025685629,-5.1585268179575605,1.688702374090201e+18,62.10520125325521,-6.186299800872803,-7.148256142934163,2.5371221701304116,1.6887023740815503e+18,62.096550455729165,-1.4267775913079583,3.3943744897842407,3.707035621007284,1.688702374085873e+18,62.100872965494794,-1.1485284964243572,3.383480747540792,3.9330050150553384,,,,,,,,,,,,1.6887023740891156e+18,62.10411577148437,31.144159698486327,36.21691970825195,-16.90431938171387,1.6887023740891156e+18,62.10411577148437,-223.3966339111328,131.68191833496093,-150.11611328125,1.688702374090201e+18,62.10520125325521,-0.3877818882465362,0.7098828554153442,-0.5644067128499349,0.1611826370159784,-2.825660308202108,0.8224038680394491,-1.4843036731084187
2.15,1.6887023741421064e+18,62.15710636393229,1.6168725490570068,7.264935493469238,-5.449718952178955,1.6887023741421064e+18,62.15710636393229,-3.204188903172811,-0.969890815516313,-3.0997023582458496,1.6887023741421064e+18,62.15710636393229,-4.826907475789388,-8.217321713765463,2.287329117457072,1.6887023741334446e+18,62.14844458007813,-0.021685716540863,-2.340479294459025,3.689320723215739,1.6887023741377833e+18,62.152783284505205,-0.032630386762321,-2.548478881518046,3.598250786463419,,,,,,,,,,,,1.688702374139119e+18,62.15411923828125,23.089719772338867,41.47755889892578,-17.148319435119628,1.688702374139119e+18,62.15411923828125,-231.45107727050785,136.94255981445312,-150.36011657714843,1.6887023741421064e+18,62.15710636393229,-0.4396034975846608,0.6584601600964864,-0.563014288743337,0.2349252998828887,-2.786770979563395,1.0053972800572712,-1.6113349199295044
2.2,1.6887023741853548e+18,62.20035473632812,4.790650844573975,6.0824737548828125,-6.897730588912964,1.6887023741853548e+18,62.20035473632812,0.7474579215049744,-2.694617450237274,-5.079962491989136,1.6887023741853548e+18,62.20035473632812,-4.049038887023926,-8.759586811065674,1.7550805807113647,1.6887023741853555e+18,62.20035555013021,-0.5243259867032369,-2.756274859110514,2.514423131942749,1.688702374189686e+18,62.20468587239583,-0.508698026339213,-2.575407862663269,2.4287492434183755,,,,,,,,,,,,1.688702374189115e+18,62.204114892578126,19.251599502563476,44.11275863647461,-14.598519706726076,1.688702374189115e+18,62.204114892578126,-235.28919677734376,139.5777587890625,-147.81032104492186,1.6887023741853548e+18,62.20035473632812,-0.4428284168243408,0.6088391244411469,-0.5799963474273682,0.3107201308012008,-2.8253942728042603,1.1195469498634338,-1.721588373184204
2.25,1.6887023742286103e+18,62.243610351562495,8.255016326904297,-10.05418872833252,-6.910470644632976,1.6887023742286103e+18,62.243610351562495,4.919842720031738,-19.195423126220703,-5.558527151743571,1.6887023742286103e+18,62.243610351562495,-3.341019550959269,-9.123730341593424,1.28925621509552,1.68870237423726e+18,62.25226025390625,3.3964107235272727,2.169029712677002,1.2898419896761577,1.6887023742415885e+18,62.25658837890625,4.047796845436096,3.113020141919454,1.1693997184435527,,,,,,,,,,,,1.6887023742391145e+18,62.25411450195312,15.406159591674804,46.167240142822266,-11.575359725952149,1.6887023742391145e+18,62.25411450195312,-239.13463439941407,141.63223571777343,-144.7871551513672,1.6887023742286103e+18,62.243610351562495,-0.4515574971834818,0.5913328131039938,-0.5654440124829611,0.3550815482934316,-2.8876299063364663,1.2102594375610352,-1.7003313700358074
2.3,1.6887023742805148e+18,62.29551505533855,7.513617038726807,-31.854830423990887,-1.556183497111003,1.6887023742805148e+18,62.29551505533855,4.652843644221623,-41.250267028808594,-1.661815325419108,1.6887023742805148e+18,62.29551505533855,-2.866619427998861,-9.377931912740072,-0.1683192749818166,1.688702374289163e+18,62.304162841796874,5.883599440256755,17.061465899149578,0.3750712722539902,1.6887023742848369e+18,62.2998369140625,6.338261604309082,16.684791564941406,0.8107708990573883,,,,,,,,,,,,1.6887023742891105e+18,62.30411069335937,10.767720031738282,48.80487899780273,-2.2277199268341064,1.6887023742891105e+18,62.30411069335937,-243.77307739257813,144.2698760986328,-135.43951721191405,1.6887023742805148e+18,62.29551505533855,-0.5081794063250223,0.7188653747240702,-0.3552254438400268,0.2875815828641255,2.9732166131337485,1.2522926330566406,-0.7965469062328339
2.35,1.688702374332418e+18,62.347418212890624,-1.1402820746103923,-3.825757821400961,4.4837296803792315,1.688702374332418e+18,62.347418212890624,-4.874977429707845,-12.898709774017336,4.447459697723389,1.688702374332418e+18,62.347418212890624,-3.740541378657023,-9.055447578430176,-0.0989573088785012,1.6887023743410683e+18,62.356068522135416,1.1746938899159431,-0.7040731906890869,-2.490802968541781,1.6887023743280968e+18,62.343096679687505,2.1825196941693625,6.443864822387695,-2.6512569189071655,,,,,,,,,,,,1.6887023743391135e+18,62.35411381835937,14.266679763793944,48.17047805786133,0.7539599940180779,1.6887023743391135e+18,62.35411381835937,-240.2741149902344,143.63547973632814,-132.4578369140625,1.688702374332418e+18,62.347418212890624,-0.5329908132553101,0.8339479366938273,-0.1091817567745844,0.0867838338017463,3.077174743016561,1.1402273575464883,-0.2202847252289454
2.4,1.6887023743843284e+18,62.39932828776042,3.293685515721639,6.788003762563069,3.984963575998942,1.6887023743843284e+18,62.39932828776042,-0.3429712504148483,-2.25423834224542,2.855435053507487,1.6887023743843284e+18,62.39932828776042,-3.642502864201864,-9.024737358093262,-1.1922158400217693,1.6887023743843236e+18,62.39932373046875,-1.1862239837646484,-7.818540573120117,0.7863362729549408,1.68870237438e+18,62.394999755859374,-0.9498954365650812,-7.811642964680989,0.6634505689144135,1.6887023743973043e+18,62.41230419921875,0.0,0.0,1.1132410764694214,7.614999771118164,2.8490517139434814,359.95867919921875,43.6269830287232,-122.7524062,49.1879456,1.6887023743891156e+18,62.40411577148437,14.16663990020752,47.94599838256836,4.670159864425659,1.6887023743891156e+18,62.40411577148437,-240.37415466308593,143.41099548339844,-128.54163970947266,1.6887023743843284e+18,62.39932828776042,-0.5043068329493204,0.8136367201805115,-0.1904158741235732,0.2107576131820678,2.779828945795695,1.128698428471883,-0.2289697527885436
2.45,1.6887023744362332e+18,62.451233072916665,2.4992542266845703,10.486181577046713,3.5684457619984946,1.6887023744362332e+18,62.451233072916665,-0.4233302026987076,1.2045868237813313,2.283351023991903,1.6887023744362332e+18,62.451233072916665,-2.9284304777781167,-9.264090538024902,-1.3477821350097656,1.6887023744275763e+18,62.44257625325522,-2.130494316418966,-6.503933270772298,0.3762420934314529,1.6887023744319048e+18,62.446904703776035,-2.170098781585694,-6.438621520996094,0.2872593800226847,,,,,,,,,,,,1.688702374439114e+18,62.4541138671875,11.23131980895996,48.77071990966797,3.999159908294678,1.688702374439114e+18,62.4541138671875,-243.30947570800785,144.2357177734375,-129.21263732910157,1.6887023744362332e+18,62.451233072916665,-0.4854379892349243,0.7463029225667318,-0.3158100247383117,0.3246937692165375,2.6295525232950845,1.199310580889384,-0.4468518892923991
2.5,1.6887023744881364e+18,62.50313623046875,2.0702600876490274,11.40833059946696,3.054682652155558,1.6887023744881364e+18,62.50313623046875,-0.5902295708656311,2.019143501917521,1.9806589682896931,1.6887023744881364e+18,62.50313623046875,-2.666335662206014,-9.3716828028361,-1.1367110013961792,1.6887023744794857e+18,62.49448559570313,-2.1257601579030356,-6.3448028564453125,-0.2916372418403625,1.6887023744838085e+18,62.49880867513021,-2.098271210988363,-6.319146474202474,-0.2920444955428441,,,,,,,,,,,,1.688702374489119e+18,62.504118994140626,11.275239944458008,49.42707901000976,1.803159976005554,1.688702374489119e+18,62.504118994140626,-243.26555480957032,144.89207763671874,-131.40863647460938,1.6887023744881364e+18,62.50313623046875,-0.4408387343088786,0.668782373269399,-0.434905747572581,0.4087282915910085,2.6072779496510825,1.2446042299270632,-0.765707790851593
2.55,1.688702374540036e+18,62.555036132812496,7.102868934472402,8.715778986612955,0.9218215545018514,1.688702374540036e+18,62.555036132812496,5.257629583279292,-0.8809575289487839,0.0293120741844177,1.688702374540036e+18,62.555036132812496,-1.851085186004639,-9.579232215881348,-0.9551968971888224,1.6887023745313815e+18,62.546381510416666,-0.6340781152248383,-0.9053022265434264,1.9660697778066,1.6887023745357115e+18,62.55071158854167,-0.4129958152770996,-0.2584977547327677,2.213877439498902,,,,,,,,,,,,1.6887023745391145e+18,62.55411455078125,8.847439670562744,49.571038818359376,0.5636399894952774,1.6887023745391145e+18,62.55411455078125,-245.693359375,145.03603515625,-132.64815979003907,1.688702374540036e+18,62.555036132812496,-0.441862255334854,0.6103545228640238,-0.4695793489615122,0.4595985412597656,2.46555225054423,1.3303978840510051,-0.7707617878913879
2.6,1.6887023745919365e+18,62.60693611653645,-0.0744147300720214,4.8235189119974775,4.056495110193889,1.6887023745919365e+18,62.60693611653645,-1.3593226472536724,-4.852046171824138,3.000001311302185,1.6887023745919365e+18,62.60693611653645,-1.290753960609436,-9.658060391743978,-1.1191811958948772,1.6887023745832837e+18,62.598283854166674,1.0619892279307048,3.362253228823344,0.6515386700630188,1.6887023745876124e+18,62.60261246744792,1.0624474088350933,3.723681767781576,0.2572251856327057,,,,,,,,,,,,1.6887023745891098e+18,62.604109814453125,3.252519941329956,50.33963928222656,1.1687599778175355,1.6887023745891098e+18,62.604109814453125,-251.28827209472655,145.80463562011718,-132.04303894042968,1.6887023745919365e+18,62.60693611653645,-0.4853702187538147,0.633860727151235,-0.4074309865633647,0.4421023825804392,2.260573148727417,1.3545353809992473,-0.4174266258875529
2.65,1.6887023746351852e+18,62.65018505859375,-11.003309726715088,-17.974399089813232,12.127838134765623,1.6887023746351852e+18,62.65018505859375,-13.73480224609375,-27.359534740448,11.325827598571776,1.6887023746351852e+18,62.65018505859375,-2.7373387813568115,-9.367630958557127,-0.8646982908248901,1.6887023746351882e+18,62.65018839518229,0.5001968244711558,5.700899759928386,-4.288019339243571,1.6887023746395164e+18,62.654516194661454,0.5283984541893005,5.451106866200765,-4.440633932749431,,,,,,,,,,,,1.6887023746391089e+18,62.654108886718745,8.435079860687257,49.26359939575195,1.3810400128364564,1.6887023746391089e+18,62.654108886718745,-246.1057159423828,144.72859802246094,-131.83075866699218,1.6887023746351852e+18,62.65018505859375,-0.4850102514028549,0.7184545993804932,-0.362299308180809,0.3407455682754516,2.695835590362549,1.2367015480995178,-0.6114822328090668
2.7,1.6887023746784458e+18,62.69344571940104,-11.815990606943766,-23.39012908935547,4.1826817989349365,1.6887023746784458e+18,62.69344571940104,-16.11067549387614,-32.19423166910807,3.5659040212631226,1.6887023746784458e+18,62.69344571940104,-4.300530592600505,-8.786598841349283,-0.6794653336207072,1.6887023746870966e+18,62.70209635416666,-0.1468621815244356,-0.2749911546707153,-1.970447659492493,1.6887023746914202e+18,62.70642024739583,-0.3958406746387481,-0.7603745261828104,-1.734704573949178,,,,,,,,,,,,1.6887023746891085e+18,62.70410864257813,18.343919372558595,46.501519775390626,0.8759599566459656,1.6887023746891085e+18,62.70410864257813,-236.196875,141.96651916503907,-132.3358367919922,1.6887023746784458e+18,62.69344571940104,-0.4451103508472442,0.7827164729436239,-0.3419794241587321,0.2684587637583414,2.894265333811442,1.0770958264668782,-0.675422469774882
2.75,1.6887023747303503e+18,62.74535026041667,14.232155799865724,-0.1452875137329103,-3.790435155232747,1.6887023747303503e+18,62.74535026041667,9.242676933606466,-8.578468640645346,-4.328416665395101,1.6887023747303503e+18,62.74535026041667,-4.9953257242838545,-8.415676434834799,-0.6006689071655273,1.688702374739e+18,62.75400016276041,-3.0815096696217856,-2.4220297783613205,-4.850422779719035,1.6887023747346757e+18,62.749675415039064,-2.636952638626098,-3.8154642581939697,-2.1485657691955566,,,,,,,,,,,,1.6887023747391094e+18,62.754109570312494,24.319479370117183,43.77115936279297,-0.7710400015115739,1.6887023747391094e+18,62.754109570312494,-230.2213134765625,139.2361572265625,-133.9828369140625,1.6887023747303503e+18,62.74535026041667,-0.4003502627213796,0.774084230264028,-0.4020344018936157,0.2784656087557474,2.933317502339681,1.0058575073877971,-0.8422826727231344
2.8,1.6887023747822528e+18,62.79725268554687,35.79202016194662,-6.633003234863281,-7.719163258870442,1.6887023747822528e+18,62.79725268554687,28.537001927693684,-13.231112480163574,-7.3732835451761884,1.6887023747822528e+18,62.79725268554687,-7.26086441675822,-6.580604712168376,0.2831920683383941,1.6887023747909092e+18,62.80590934244791,-2.8775316874186196,-0.1811723709106445,-1.1387548049290974,1.6887023747779297e+18,62.79292976888021,-3.618358453114827,-1.066672470420599,-4.84971006711324,,,,,,,,,,,,1.68870237478911e+18,62.80411000976562,38.117679595947266,34.49672012329101,-6.304959869384765,1.68870237478911e+18,62.80411000976562,-216.42311401367184,129.96171875,-139.51675720214843,1.6887023747822528e+18,62.79725268554687,-0.2864619791507721,0.7721683184305826,-0.5260291596253713,0.20979006588459,3.1107495625813804,0.7256826758384705,-1.1842290957768755
2.85,1.6887023748341583e+18,62.8491582845052,-2.373783270517985,1.5054213205973308,-5.76829465230306,1.6887023748341583e+18,62.8491582845052,-8.666005929311117,-5.9393846193949384,-4.6313081582387285,1.6887023748341583e+18,62.8491582845052,-6.298068682352702,-7.427301247914632,1.0742992957433064,1.6887023748341555e+18,62.84915563964844,-0.7039458155632019,0.2531272470951079,3.740785956382751,1.6887023748298414e+18,62.84484130859375,-0.8847364783287048,1.0417288541793823,3.6759324868520102,,,,,,,,,,,,1.688702374839113e+18,62.85411274414063,31.463799285888673,38.72523880004883,-9.625799751281738,1.688702374839113e+18,62.85411274414063,-223.07699584960935,134.190234375,-142.83759460449218,1.6887023748341583e+18,62.8491582845052,-0.3536432385444641,0.7310126026471456,-0.5394646922747294,0.2208571632703145,-3.0505522092183432,0.8569400310516357,-1.31367293993632
2.9,1.688702374886064e+18,62.90106396484375,1.3352007071177163,5.869285424550374,-6.241624196370442,1.688702374886064e+18,62.90106396484375,-3.644867022832235,-2.558725039164225,-5.500899791717529,1.688702374886064e+18,62.90106396484375,-4.9859137535095215,-8.410505930582682,0.6780366996924082,1.688702374877411e+18,62.89241097005208,-0.88835076491038,-3.242879947026571,3.4051664670308432,1.688702374881738e+18,62.89673803710937,-0.9778425296147664,-3.4680346647898355,3.3348661263783774,,,,,,,,,,,,1.6887023748891105e+18,62.90411059570313,25.192999267578124,43.21483917236328,-8.208159923553467,1.6887023748891105e+18,62.90411059570313,-229.34779663085936,138.67983703613282,-141.41995544433593,1.688702374886064e+18,62.90106396484375,-0.3867725034554799,0.6671951413154602,-0.5563250780105591,0.3071525692939758,-3.100956122080485,1.0337156454722087,-1.41301163037618
2.95,1.6887023749379738e+18,62.9529736328125,8.3135134379069,-7.765971501668294,-6.1910630861918134,1.6887023749379738e+18,62.9529736328125,4.501298149426778,-16.808581988016766,-6.083352883656819,1.6887023749379738e+18,62.9529736328125,-3.818061192830404,-9.025106430053713,0.0450227657953898,1.6887023749293207e+18,62.944320556640626,0.0439822475115458,-2.872288386027018,2.5122342109680176,1.6887023749336443e+18,62.94864461263021,0.4954117188851039,-2.443715423345566,2.464841286341349,1.6887023749163392e+18,62.93133911132813,0.0,0.0,1.1132410764694214,7.63700008392334,2.8707008361816406,1.406549334526062,43.6269830287232,-122.752406,49.1879539,1.6887023749391155e+18,62.95411547851563,19.92991981506348,45.96471939086914,-5.707159948348999,1.6887023749391155e+18,62.95411547851563,-234.61087341308593,141.42972106933593,-138.91895751953126,1.6887023749379738e+18,62.9529736328125,-0.3841509222984314,0.6004421909650167,-0.5751198927561442,0.4006656606992085,3.0334692001342773,1.1739006837209065,-1.453630526860555
3.0,1.68870237498988e+18,63.00487996419272,13.940039157867432,-23.664093653361004,0.3184225559234619,1.68870237498988e+18,63.00487996419272,10.95135090748469,-32.93660545349121,-0.8727821111679077,1.68870237498988e+18,63.00487996419272,-2.9945340156555176,-9.255006154378256,-1.2538921236991882,1.688702374981222e+18,62.996222086588546,5.739333470662435,9.823425849278768,2.482403596242269,1.6887023749855567e+18,63.00055655924479,5.884261131286621,11.57279102007548,2.553264061609904,,,,,,,,,,,,1.6887023749891128e+18,63.004113085937504,14.308159637451173,48.03383865356445,1.671399986743927,1.6887023749891128e+18,63.004113085937504,-240.23263854980468,143.49883728027345,-131.54039611816407,1.68870237498988e+18,63.00487996419272,-0.4392297963301341,0.6900152762730917,-0.4114690522352854,0.3828008969624837,2.646686553955078,1.2078135410944622,-0.730672150850296
3.05,1.6887023750417797e+18,63.056779378255214,-0.6245956420898438,-12.454651514689129,4.2983775933583575,1.6887023750417797e+18,63.056779378255214,-4.175276120503743,-21.55075740814209,3.3888350327809653,1.6887023750417797e+18,63.056779378255214,-3.55652650197347,-9.078600883483888,-0.972230056921641,1.6887023750331328e+18,63.0481328125,3.5527414083480835,13.414905985196432,-0.5409720738728842,1.6887023750374597e+18,63.052459716796875,3.140101949373881,11.198839743932089,-0.9323840538660684,,,,,,,,,,,,1.6887023750391163e+18,63.05411655273438,13.297999572753906,48.375439453125,4.635999965667724,1.6887023750391163e+18,63.05411655273438,-241.2427947998047,143.84043884277344,-128.57579803466797,1.6887023750417797e+18,63.056779378255214,-0.5282831986745199,0.8274999260902405,-0.1098931531111399,0.1440970972180366,2.8434531688690186,1.1414341926574707,-0.0718117238332827
3.1,1.6887023750850363e+18,63.100036499023446,3.188872814178467,3.5898470878601074,4.598513603210449,1.6887023750850363e+18,63.100036499023446,-0.5075774937868118,-5.330909609794617,2.873779892921448,1.6887023750850363e+18,63.100036499023446,-3.702296257019043,-8.903252124786377,-1.7874210476875303,1.688702375085042e+18,63.1000419921875,-0.4281147321065267,-7.453319708506267,0.0510072608788808,1.688702375089364e+18,63.10436401367187,-0.6175847699244817,-7.669718742370605,0.2097812990347544,,,,,,,,,,,,1.6887023750891118e+18,63.10411186523438,14.818119430541993,47.30671920776367,8.142280006408692,1.6887023750891118e+18,63.10411186523438,-239.7226745605469,142.77171630859374,-125.06951751708984,1.6887023750850363e+18,63.100036499023446,-0.5016792118549347,0.8283126652240753,-0.1344112157821655,0.2071084231138228,2.6709614992141724,1.0928602814674375,-0.032024810090661
3.15,1.688702375128292e+18,63.14329174804687,2.177695910135905,9.688883781433104,4.562864780426025,1.688702375128292e+18,63.14329174804687,-0.6151548425356547,0.5256233811378479,2.4666013717651367,1.688702375128292e+18,63.14329174804687,-2.798696835835775,-9.145756085713703,-2.1589506467183432,1.6887023751369393e+18,63.15193953450521,-2.1911736726760864,-6.693759600321452,0.6848308444023132,1.6887023751412652e+18,63.15626521809895,-2.271298805872599,-6.5895562171936035,0.6561201711495718,,,,,,,,,,,,1.6887023751391186e+18,63.154118701171875,10.65059986114502,48.54623947143555,8.691279888153076,1.6887023751391186e+18,63.154118701171875,-243.89019775390625,144.01123962402343,-124.52051849365236,1.688702375128292e+18,63.14329174804687,-0.49268572529157,0.7720407247543335,-0.2381802449623743,0.3193255166212717,2.4436725775400796,1.1563951969146729,-0.1321631794174511
3.2,1.6887023751801915e+18,63.19519148763021,-0.3875315984090169,12.07679017384847,3.8408396244049072,1.6887023751801915e+18,63.19519148763021,-2.3066810766855874,2.590031067530314,2.238685051600138,1.6887023751801915e+18,63.19519148763021,-1.9249955018361409,-9.469254811604818,-1.6648419698079426,1.6887023751888466e+18,63.20384684244792,-2.812118132909139,-6.181039969126384,0.670577347278595,1.6887023751845222e+18,63.19952233886718,-2.766990423202514,-6.341697692871094,0.5493969321250916,,,,,,,,,,,,1.68870237518912e+18,63.20411997070313,6.73439998626709,49.95167922973633,5.377759838104248,1.68870237518912e+18,63.20411997070313,-247.8063934326172,145.41668090820312,-127.8340347290039,1.6887023751801915e+18,63.19519148763021,-0.4775920808315276,0.6859469811121622,-0.3619885345300038,0.4099735418955485,2.3329195976257324,1.2670750617980957,-0.3626601795355479
3.25,1.6887023752321004e+18,63.24710034179687,2.3411949475606284,10.827556292215982,1.8877428372701008,1.6887023752321004e+18,63.24710034179687,1.325823148091634,1.081555813550949,1.3607184688250225,1.6887023752321004e+18,63.24710034179687,-1.0212178230285645,-9.728495915730797,-0.5897118051846822,1.6887023752407455e+18,63.25574544270833,-2.640108664830526,-2.815070708592733,1.4927510420481365,1.688702375227776e+18,63.24277596028646,-2.8655688762664795,-3.8344010512034097,1.4943291346232097,,,,,,,,,,,,1.68870237523912e+18,63.254120166015625,2.659599947929382,50.173719024658205,-0.8686399698257447,1.68870237523912e+18,63.254120166015625,-251.88119506835935,145.6387176513672,-134.08043823242187,1.6887023752321004e+18,63.24710034179687,-0.4778238435586293,0.5844064553578695,-0.4571496744950612,0.469232718149821,2.3229021231333413,1.418822169303894,-0.6156152089436849
