seconds_elapsed_rounded,accelerometer_time,accelerometer_seconds_elapsed,accelerometer_z,accelerometer_y,accelerometer_x,accelerometeruncalibrated_time,accelerometeruncalibrated_seconds_elapsed,accelerometeruncalibrated_z,accelerometeruncalibrated_y,accelerometeruncalibrated_x,gravity_time,gravity_seconds_elapsed,gravity_z,gravity_y,gravity_x,gyroscope_time,gyroscope_seconds_elapsed,gyroscope_z,gyroscope_y,gyroscope_x,gyroscopeuncalibrated_time,gyroscopeuncalibrated_seconds_elapsed,gyroscopeuncalibrated_z,gyroscopeuncalibrated_y,gyroscopeuncalibrated_x,location_time,location_seconds_elapsed,location_bearingAccuracy,location_speedAccuracy,location_verticalAccuracy,location_horizontalAccuracy,location_speed,location_bearing,location_altitude,location_longitude,location_latitude,magnetometer_time,magnetometer_seconds_elapsed,magnetometer_z,magnetometer_y,magnetometer_x,magnetometeruncalibrated_time,magnetometeruncalibrated_seconds_elapsed,magnetometeruncalibrated_z,magnetometeruncalibrated_y,magnetometeruncalibrated_x,orientation_time,orientation_seconds_elapsed,orientation_qz,orientation_qy,orientation_qx,orientation_qw,orientation_roll,orientation_pitch,orientation_yaw
0.0,1.6887028512467003e+18,30.001700358072913,9.044137954711914,-28.59957758585612,9.21250867843628,1.6887028512467003e+18,30.001700358072913,8.082157562176388,-37.504503885904946,13.29213007291158,1.6887028512467003e+18,30.001700358072913,-0.9678263068199158,-8.887420972188314,4.016934315363566,1.6887028512467003e+18,30.001700358072913,0.7617489888022343,7.931474129358928,-0.4890995422999064,1.6887028512467003e+18,30.001700358072913,0.7607817227641741,7.935902992884318,-0.4867579340934753,,,,,,,,,,,,1.6887028512467796e+18,30.00177954101563,4.49935998916626,48.524279022216795,-16.396799850463868,1.6887028512467796e+18,30.00177954101563,-252.92063598632816,143.14747619628906,-149.27919311523436,1.6887028512467003e+18,30.001700358072913,0.2689024011294047,-0.5533025562763214,-0.4767590463161468,0.6237910588582357,-1.7351908683776855,1.1131858825683594,0.4517456293106079
0.05,1.6887028512986043e+18,30.053604329427085,6.292963822682698,-8.911651929219564,4.816289107004802,1.6887028512986043e+18,30.053604329427085,3.63709032535553,-17.640287081400555,8.440282980600992,1.6887028512986043e+18,30.053604329427085,-2.661719560623169,-8.71113141377767,3.561306158701578,1.6887028512986043e+18,30.053604329427085,3.2212959925333657,7.959675788879395,-9.422290960947672,1.6887028512986043e+18,30.053604329427085,3.220277945200602,7.964104652404785,-9.419999917348228,,,,,,,,,,,,1.688702851296779e+18,30.051778955078124,14.876679420471191,47.467759704589845,-13.459039878845214,1.688702851296779e+18,30.051778955078124,-242.5433135986328,142.09095764160156,-146.34143676757813,1.6887028512986043e+18,30.053604329427085,0.0887461254994074,-0.398090402285258,-0.6752665042877197,0.6083751122156779,-2.130900343259176,1.1068068742752075,1.4063669840494792
0.1,1.6887028513505068e+18,30.105506917317708,-1.3224201202392578,5.440967718760173,0.5257859230041504,1.6887028513505068e+18,30.105506917317708,-5.11465851465861,-3.1515468756357827,3.4468611081441245,1.6887028513505068e+18,30.105506917317708,-3.7980844179789224,-8.575009981791178,2.8583877881368003,1.6887028513505068e+18,30.105506917317708,1.155044313520193,-2.662048896153768,0.5995642741521198,1.6887028513505068e+18,30.105506917317708,1.154128052915136,-2.657620072364807,0.6018549998601278,,,,,,,,,,,,1.688702851346779e+18,30.101778857421873,25.25887985229492,45.242479705810545,-10.57007999420166,1.688702851346779e+18,30.101778857421873,-232.1611145019531,139.8656768798828,-143.45247802734374,1.6887028513505068e+18,30.105506917317708,0.0512833309670288,-0.3290439446767171,-0.7542092601458231,0.5650056799252828,-2.4501150449117026,1.0907829999923706,1.8889079093933103
0.15,1.6887028514024092e+18,30.157409342447917,2.64009157816569,10.2431001663208,0.4012963771820068,1.6887028514024092e+18,30.157409342447917,-0.5734798113505045,1.228913853565852,2.6701906522115073,1.6887028514024092e+18,30.157409342447917,-3.219417413075765,-8.996681849161783,2.206206878026326,1.6887028514024092e+18,30.157409342447917,-1.438485860824585,-5.378006776173909,3.1828624407450357,1.6887028514024092e+18,30.157409342447917,-1.4394530653953552,-5.373577912648519,3.1851532459259033,,,,,,,,,,,,1.688702851396778e+18,30.15177797851562,21.501279830932617,47.32867813110352,-5.853559875488282,1.688702851396778e+18,30.15177797851562,-235.9187164306641,141.95187683105468,-138.73595581054687,1.6887028514024092e+18,30.157409342447917,0.1672590573628743,-0.410749355951945,-0.691861887772878,0.5680448412895203,-2.4674417972564697,1.180684487024943,1.6073462963104248
0.2,1.688702851445656e+18,30.200656127929687,1.6438453793525696,11.758016586303713,-0.7408335208892822,1.688702851445656e+18,30.200656127929687,-0.8673982024192809,2.5800609588623047,1.7632111310958862,1.688702851445656e+18,30.200656127929687,-2.517089605331421,-9.160451412200928,2.441357254981994,1.688702851445656e+18,30.200656127929687,-2.2248475551605225,-4.736267328262329,3.050431966781616,1.688702851445656e+18,30.200656127929687,-2.2257639169692993,-4.7318384647369385,3.052722692489624,,,,,,,,,,,,1.688702851446778e+18,30.201777929687506,15.352479934692385,49.041558837890626,-5.902359867095948,1.688702851446778e+18,30.201777929687506,-242.06751403808593,143.66476135253907,-138.78475646972657,1.688702851445656e+18,30.200656127929687,0.2391913607716559,-0.4878263473510742,-0.6130911409854889,0.572921872138977,-2.2807406187057495,1.2118114233016968,1.1809069514274595
0.25,1.68870285148891e+18,30.24391015625,2.1205372412999473,10.650838534037272,-1.109576940536499,1.68870285148891e+18,30.24391015625,0.377268373966217,1.418744444847107,1.8115661144256592,1.68870285148891e+18,30.24391015625,-1.7491148312886555,-9.214589754740397,2.8584556579589844,1.68870285148891e+18,30.24391015625,-1.5723162492116292,-3.920125961303711,3.2774957021077475,1.68870285148891e+18,30.24391015625,-1.5732834339141846,-3.91569709777832,3.2797864278157554,,,,,,,,,,,,1.6887028514967782e+18,30.251777978515623,8.901119899749755,49.90531921386719,-7.94219970703125,1.6887028514967782e+18,30.251777978515623,-248.5188781738281,144.52851257324218,-140.82460021972656,1.68870285148891e+18,30.24391015625,0.3033489187558492,-0.547447919845581,-0.5262457032998403,0.5744429032007853,-2.0334632794062295,1.214582363764445,0.7173929214477539
0.3,1.688702851540816e+18,30.295816243489583,1.2655973235766094,8.128864606221518,-1.399806539217631,1.688702851540816e+18,30.295816243489583,0.4899304509162903,-1.1224332253138225,1.8751753568649292,1.688702851540816e+18,30.295816243489583,-0.7815128763516744,-9.233793258666992,3.2122944990793862,1.688702851540816e+18,30.295816243489583,-0.5602652343610922,-2.569197416305542,2.5694519678751626,1.688702851540816e+18,30.295816243489583,-0.5612324376900991,-2.564768632253011,2.5717426935831704,1.688702851540816e+18,30.295816162109375,0.0,0.0,3.3230812549591064,7.488999843597412,2.5320041179656982,341.4236755371094,43.400001525878906,-122.7525649,49.1886939,1.6887028515467812e+18,30.301781103515623,2.3423999071121218,50.27131958007813,-10.118679618835449,1.6887028515467812e+18,30.301781103515623,-255.07759704589844,144.89451599121094,-143.0010772705078,1.688702851540816e+18,30.295816243489583,0.370572825272878,-0.5818714698155721,-0.43782639503479,0.575991670290629,-1.746327519416809,1.2107179164886477,0.2379302034775415
0.35,1.6887028515927183e+18,30.347718180338543,1.6938525438308716,-3.832939624786377,10.054598490397137,1.6887028515927183e+18,30.347718180338543,1.350549002488454,-13.22433296839396,12.97847032546997,1.6887028515927183e+18,30.347718180338543,-0.3491495450337727,-9.373888969421388,2.8611846764882407,1.6887028515927183e+18,30.347718180338543,1.6065247058868408,4.112242976824443,-1.416545609633128,1.6887028515927183e+18,30.347718180338543,1.6055575211842854,4.116671800613403,-1.414254864056905,,,,,,,,,,,,1.68870285159678e+18,30.3517798828125,-0.6880799889564514,50.37867889404297,-8.87427978515625,1.68870285159678e+18,30.3517798828125,-258.1080810546875,145.0018798828125,-141.75667724609374,1.6887028515927183e+18,30.347718180338543,0.3843970795472462,-0.5550831357638041,-0.4465225239594777,0.585847278436025,-1.6289366881052654,1.257235089937846,0.1521597728133201
0.4,1.6887028516446216e+18,30.399621337890625,-3.1956743001937866,-17.420720736185707,16.71986961364746,1.6887028516446216e+18,30.399621337890625,-5.041677236557007,-26.366512298583984,20.272591590881348,1.6887028516446216e+18,30.399621337890625,-1.8518489599227903,-8.928288459777832,3.4900341828664145,1.6887028516446216e+18,30.399621337890625,-2.8477010329564414,6.364910284678142,-6.802442709604899,1.6887028516446216e+18,30.399621337890625,-2.8487191796302795,6.369339148203532,-6.800151824951172,,,,,,,,,,,,1.688702851646778e+18,30.40177802734375,9.945439624786378,48.98543930053711,-10.926319885253909,1.688702851646778e+18,30.40177802734375,-247.4745574951172,143.60863647460937,-143.80872192382813,1.6887028516446216e+18,30.399621337890625,0.2194062471389769,-0.505986233552297,-0.571695605913798,0.6034559806187948,-1.9852195978164673,1.1563851435979209,0.8800430695215861
0.45,1.6887028516965202e+18,30.45152026367187,-3.7312525113423662,-4.753012975056966,-0.6318934758504232,1.6887028516965202e+18,30.45152026367187,-7.367301464080811,-12.249258041381836,4.598805745442708,1.6887028516965202e+18,30.45152026367187,-3.641894976298014,-7.478740374247233,5.168011824289958,1.6887028516965202e+18,30.45152026367187,-3.0662380854288735,-0.4219043056170145,-3.2411492665608725,1.6887028516965202e+18,30.45152026367187,-3.067205270131429,-0.4174755016962688,-3.238807439804077,,,,,,,,,,,,1.6887028516967803e+18,30.451780224609376,22.07223968505859,42.46575927734375,-20.051919174194335,1.6887028516967803e+18,30.451780224609376,-235.34775390625,137.08895568847657,-152.93431701660157,1.6887028516965202e+18,30.45152026367187,0.0693231870730717,-0.5463970104853312,-0.6130783557891846,0.5655665596326193,-2.149876117706299,0.8786176840464274,1.1869130929311116
0.5,1.68870285174843e+18,30.50343017578125,26.789230346679688,-11.797027905782064,-4.280656019846599,1.68870285174843e+18,30.50343017578125,20.87598164876302,-17.59382692972819,0.8933204213778178,1.68870285174843e+18,30.50343017578125,-5.919093767801921,-5.779294967651367,5.111289024353027,1.68870285174843e+18,30.50343017578125,-5.618942101796468,-8.620785236358643,-1.138347327709198,1.68870285174843e+18,30.50343017578125,-5.619858423868815,-8.616356372833252,-1.1360566020011902,,,,,,,,,,,,1.68870285174678e+18,30.50177998046875,32.927799224853516,34.97495956420899,-21.371960067749026,1.68870285174678e+18,30.50177998046875,-224.49219665527343,129.59815521240233,-154.25435791015624,1.68870285174843e+18,30.50343017578125,0.0681734221676985,-0.692874809106191,-0.5543575485547384,0.445870707432429,-2.391751766204834,0.6393827795982361,1.0871858994166057
0.55,1.688702851800329e+18,30.55532893880208,7.70797872543335,-7.694434960683187,-6.350779215494792,1.688702851800329e+18,30.55532893880208,2.0199411710103337,-13.48754374186198,-0.8167501265803973,1.688702851800329e+18,30.55532893880208,-5.6938832600911455,-5.775604406992595,5.471341768900554,1.688702851800329e+18,30.55532893880208,-0.0426587760448456,4.095444202423096,3.181691567103068,1.688702851800329e+18,30.55532893880208,-0.0435750583807627,4.099872986475627,3.1839823722839355,,,,,,,,,,,,1.6887028517967798e+18,30.551779882812497,33.30843887329102,34.108760070800784,-22.721279525756835,1.6887028517967798e+18,30.551779882812497,-224.11155395507816,128.7319564819336,-155.60367736816406,1.688702851800329e+18,30.55532893880208,0.099247671663761,-0.737189531326294,-0.4869585732618968,0.4562451541423797,-2.342543045679728,0.6317762533823649,0.891187846660614
0.6,1.6887028518522278e+18,30.60722802734375,-0.439876635869344,3.7984805901845298,-7.258927504221599,1.6887028518522278e+18,30.60722802734375,-4.389234224955241,-3.1876386404037476,-1.558525125185649,1.6887028518522278e+18,30.60722802734375,-3.9552036126454673,-6.96861473719279,5.637715021769206,1.6887028518522278e+18,30.60722802734375,1.6753997405370076,1.213331123193105,3.119587024052938,1.6887028518522278e+18,30.60722802734375,1.6744325558344524,1.2177598377068837,3.121877749760946,,,,,,,,,,,,1.6887028518467802e+18,30.601780078125,23.3629997253418,39.74027938842774,-25.070999145507812,1.6887028518467802e+18,30.601780078125,-234.05699157714844,134.3634796142578,-157.9533935546875,1.6887028518522278e+18,30.60722802734375,0.1448648422956466,-0.6808649102846781,-0.4762983918190002,0.5365976095199585,-2.1410395304361978,0.7875500520070394,0.7730916142463684
0.65,1.6887028518954836e+18,30.650483642578124,-1.999467730522156,4.981334209442139,-8.389135360717773,1.6887028518954836e+18,30.650483642578124,-4.96839714050293,-2.8564319610595703,-3.2120652198791504,1.6887028518954836e+18,30.650483642578124,-2.974775433540344,-7.820261478424072,5.11438250541687,1.6887028518954836e+18,30.650483642578124,1.081155151128769,-0.8933903872966765,3.7010034322738647,1.6887028518954836e+18,30.650483642578124,1.0801624655723572,-0.8889616429805756,3.703294277191162,,,,,,,,,,,,1.6887028518967757e+18,30.651775634765624,16.579799461364747,44.259159088134766,-22.206439208984374,1.6887028518967757e+18,30.651775634765624,-240.84019470214844,138.88235778808593,-155.08883666992188,1.6887028518954836e+18,30.650483642578124,0.2095270454883575,-0.6543321013450623,-0.4605496078729629,0.5617155730724335,-2.0476505756378174,0.9135281145572662,0.6445029079914093
0.7,1.6887028519387323e+18,30.693732259114583,4.268748124440511,-8.680887222290039,-5.2383913199106855,1.6887028519387323e+18,30.693732259114583,2.4975085655848184,-17.136996905008953,-0.5260221560796102,1.6887028519387323e+18,30.693732259114583,-1.7770856221516926,-8.438605626424154,4.649681727091472,1.6887028519387323e+18,30.693732259114583,1.0614292820294695,0.3745113611221313,3.444821834564209,1.6887028519387323e+18,30.693732259114583,1.0604111353556316,0.3789400657018025,3.447112560272217,,,,,,,,,,,,1.6887028519467825e+18,30.701782421875,7.568879890441894,46.92851943969727,-19.742039489746094,1.6887028519467825e+18,30.701782421875,-249.85111389160156,141.55171813964844,-152.6244354248047,1.6887028519387323e+18,30.693732259114583,0.284148871898651,-0.6341093977292379,-0.4215173423290252,0.5820324023564657,-1.8775362173716228,1.0176878968874614,0.3954616189002991
0.75,1.6887028519906386e+18,30.745638590494792,0.6153605779012045,-26.591524124145508,12.932444254557293,1.6887028519906386e+18,30.745638590494792,-0.5216355323791498,-35.423147201538086,17.1074857711792,1.6887028519906386e+18,30.745638590494792,-1.142842451731364,-8.814117749532064,4.112354119618733,1.6887028519906386e+18,30.745638590494792,2.379218260447184,11.127216021219889,-7.939415454864502,1.6887028519906386e+18,30.745638590494792,2.378200133641561,11.13164488474528,-7.937124729156494,,,,,,,,,,,,1.688702851996778e+18,30.75177807617188,6.575799894332886,48.224159240722656,-16.172319412231445,1.688702851996778e+18,30.75177807617188,-250.8441955566406,142.84735717773438,-149.05471801757812,1.6887028519906386e+18,30.745638590494792,0.1814261302351951,-0.4826929271221161,-0.5507805248101553,0.6479330062866211,-1.7693761984507244,1.108872373898824,0.7571676174799601
0.8,1.6887028520425372e+18,30.797537434895833,14.63005304336548,-2.6577316919962564,2.7213266690572104,1.6887028520425372e+18,30.797537434895833,10.708479404449465,-10.712068557739258,6.785247325897217,1.6887028520425372e+18,30.797537434895833,-3.927419980367025,-8.036832491556803,4.001232941945394,1.6887028520425372e+18,30.797537434895833,1.3258829911549883,3.810475707054138,-6.763907114664714,1.6887028520425372e+18,30.797537434895833,1.3249667088190715,3.8149043023586273,-6.761616388956706,1.6887028520598395e+18,30.814839599609375,0.0,0.0,3.3245913982391357,7.559999942779541,2.5222153663635254,340.0252990722656,43.400001525878906,-122.7525775,49.1887015,1.68870285204678e+18,30.801779931640624,25.661479568481447,43.77847900390625,-15.445199584960935,1.68870285204678e+18,30.801779931640624,-231.75851440429688,138.40167846679688,-148.32759704589844,1.6887028520425372e+18,30.797537434895833,0.0119617419938246,-0.380711813767751,-0.7345169385274252,0.5593364834785461,-2.303175687789917,0.9830314715703328,1.714350978533427
0.85,1.6887028520944402e+18,30.84943994140625,3.5238134066263833,6.985822359720866,-0.5903496344884236,1.6887028520944402e+18,30.84943994140625,-0.8644071718056997,-1.0953145629415908,2.910071094830831,1.6887028520944402e+18,30.84943994140625,-4.394066492716472,-8.063632488250732,3.4377333323160806,1.6887028520944402e+18,30.84943994140625,-0.5376632114251454,-4.959614912668864,2.6822075049082437,1.6887028520944402e+18,30.84943994140625,-0.5386304358641306,-4.955186049143474,2.6844982306162515,,,,,,,,,,,,1.6887028520967757e+18,30.85177583007812,28.587039184570312,43.05379943847656,-12.592839813232422,1.6887028520967757e+18,30.85177583007812,-228.8329559326172,137.67699584960937,-145.4752410888672,1.6887028520944402e+18,30.84943994140625,0.0511790088688333,-0.4013703564802806,-0.7405129075050354,0.5348267555236816,-2.4413506984710693,0.9878951907157898,1.7597148021062214
0.9,1.688702852146341e+18,30.901341064453124,4.024250189463298,10.904041608174644,-2.3017517725626626,1.688702852146341e+18,30.901341064453124,0.4951148827870686,2.3349961042404175,1.0047861138979597,1.688702852146341e+18,30.901341064453124,-3.5349813302357993,-8.551541328430176,3.2438504695892334,1.688702852146341e+18,30.901341064453124,-1.9922860463460288,-4.209930578867595,3.873598257700602,1.688702852146341e+18,30.901341064453124,-1.9932024478912351,-4.205501715342204,3.87588898340861,,,,,,,,,,,,1.6887028521467802e+18,30.901780126953128,22.53583984375,46.54299774169922,-10.23091983795166,1.6887028521467802e+18,30.901780126953128,-234.8841583251953,141.16619873046875,-143.11331481933593,1.688702852146341e+18,30.901341064453124,0.1528841157754261,-0.4854957362016042,-0.6559138695398966,0.5557795365651449,-2.345227320988973,1.072478413581848,1.3755884567896526
0.95,1.6887028521982456e+18,30.953245849609377,2.186405618985494,10.680549621582031,-2.5919171969095864,1.6887028521982456e+18,30.953245849609377,-0.5100700110197067,1.941376805305481,1.0506485104560852,1.6887028521982456e+18,30.953245849609377,-2.702321688334147,-8.721668243408203,3.579878330230713,1.6887028521982456e+18,30.953245849609377,-1.9546669721603391,-3.932546774546305,3.257235288619995,1.6887028521982456e+18,30.953245849609377,-1.955583333969116,-3.9281179904937744,3.259526093800863,,,,,,,,,,,,1.68870285219678e+18,30.951780078125,15.637959671020509,48.56087951660156,-11.241079711914065,1.68870285219678e+18,30.951780078125,-241.78203430175785,143.1840789794922,-144.12347717285155,1.6887028521982456e+18,30.953245849609377,0.2326708634694417,-0.5629309415817261,-0.5551164944966634,0.5651217500368754,-2.157854636510214,1.0975277821222942,0.9227776130040488
1.0,1.6887028522501486e+18,31.00514851888021,1.7297792037328084,7.678171952565511,-3.082361618677775,1.6887028522501486e+18,31.00514851888021,-0.3670988778273265,-1.1481560866038003,0.7487540692090988,1.6887028522501486e+18,31.00514851888021,-2.1027241547902427,-8.808823585510254,3.768428325653076,1.6887028522501486e+18,31.00514851888021,-0.5782857537269592,-2.526385943094889,2.203950881958008,1.6887028522501486e+18,31.00514851888021,-0.5792529756824175,-2.521957198778788,2.2062416076660156,,,,,,,,,,,,1.688702852246778e+18,31.00177807617188,10.384639930725095,48.978118133544925,-12.958839797973631,1.688702852246778e+18,31.00177807617188,-247.0353546142578,143.6013214111328,-145.84123840332032,1.6887028522501486e+18,31.00514851888021,0.2956685721874237,-0.6076786716779073,-0.4769766728083293,0.5614802440007528,-2.02151350180308,1.10911758740743,0.5896896123886108
1.05,1.6887028523020513e+18,31.05705118815104,1.2829347054163616,-1.8663311004638672,4.417072216669719,1.6887028523020513e+18,31.05705118815104,-0.1868395625303188,-10.94078254699707,7.938189188639323,1.6887028523020513e+18,31.05705118815104,-1.4756203095118203,-9.056947072347006,3.4584295749664307,1.6887028523020513e+18,31.05705118815104,1.1736757556597393,1.5422311226526897,0.9589566364884377,1.6887028523020513e+18,31.05705118815104,1.1726576487223308,1.5466598272323608,0.961247369647026,,,,,,,,,,,,1.6887028522967818e+18,31.051781884765624,6.065839862823486,50.0053596496582,-11.775439834594726,1.6887028522967818e+18,31.051781884765624,-251.3541534423828,144.62855834960936,-144.6578369140625,1.6887028523020513e+18,31.05705118815104,0.3352818091710408,-0.5960251490275065,-0.4584749341011047,0.5672516822814941,-1.911285400390625,1.1683621009190877,0.4368445972601573
1.1,1.6887028523453046e+18,31.1003046875,-4.876373291015625,-28.846364974975582,20.31796646118164,1.6887028523453046e+18,31.1003046875,-6.267101526260376,-37.834712982177734,24.079572677612305,1.6887028523453046e+18,31.1003046875,-1.396574318408966,-8.970842361450195,3.6989184617996216,1.6887028523453046e+18,31.1003046875,-1.9135353565216064,4.117842674255371,-3.391676425933838,1.6887028523453046e+18,31.1003046875,-1.914604425430298,4.122271299362183,-3.38938570022583,,,,,,,,,,,,1.688702852346774e+18,31.101773779296877,5.924319839477539,49.70523834228515,-12.629439544677734,1.688702852346774e+18,31.101773779296877,-251.49567260742188,144.32843933105468,-145.51183471679687,1.6887028523453046e+18,31.1003046875,0.2827605009078979,-0.5593268871307373,-0.4978159815073013,0.5989251434803009,-1.8714198470115664,1.1507749557495115,0.5619420856237411
1.15,1.6887028523885484e+18,31.143548177083332,-1.204938809076945,-8.040452162424723,3.5317042668660483,1.6887028523885484e+18,31.143548177083332,-4.191427707672119,-16.160127639770508,8.192625840504965,1.6887028523885484e+18,31.143548177083332,-2.9923349221547446,-8.102171421051025,4.5982340176900225,1.6887028523885484e+18,31.143548177083332,-2.1349231004714966,-0.653422216574351,-4.643797715504964,1.6887028523885484e+18,31.143548177083332,-2.13594126701355,-0.6489934126536051,-4.641506989796956,,,,,,,,,,,,1.6887028523967718e+18,31.1517716796875,16.99703941345215,45.54015960693359,-18.075519180297853,1.6887028523967718e+18,31.1517716796875,-240.42295532226564,140.16335754394532,-150.95791625976562,1.6887028523885484e+18,31.143548177083332,0.1884814798831939,-0.5995692610740662,-0.5310807029406229,0.5671409964561462,-2.0987545251846313,0.9766082763671876,0.8538549542427063
1.2,1.68870285244045e+18,31.195450113932292,0.5867075125376382,-1.2510921160380046,-2.4325497150421143,1.68870285244045e+18,31.195450113932292,-4.8337011734644575,-7.822336355845134,2.361915349960327,1.68870285244045e+18,31.195450113932292,-5.426254749298096,-6.553739547729492,4.731777667999268,1.68870285244045e+18,31.195450113932292,-3.277597427368164,-7.205053647359212,-4.970865090688069,1.68870285244045e+18,31.195450113932292,-3.278615633646647,-7.200624783833821,-4.9685743649800616,,,,,,,,,,,,1.6887028524467727e+18,31.201772705078128,30.37067985534668,38.583718872070314,-19.263799095153807,1.6887028524467727e+18,31.201772705078128,-227.0493133544922,133.20691528320313,-152.1461975097656,1.68870285244045e+18,31.195450113932292,0.1330625812212625,-0.6979889671007792,-0.5275832215944926,0.4602741698424021,-2.3834689458211265,0.7399139404296875,0.9826182723045348
1.25,1.6887028524923538e+18,31.24735384114583,42.73012129465739,-7.568954149881999,0.7101254463195801,1.6887028524923538e+18,31.24735384114583,35.75315809249878,-13.807185173034668,3.6632120013237,1.6887028524923538e+18,31.24735384114583,-6.982808272043864,-6.2207268079121905,2.890398899714152,1.6887028524923538e+18,31.24735384114583,-1.923869212468465,-2.2277746299902605,4.0009128252665205,1.6887028524923538e+18,31.24735384114583,-1.9248363574345904,-2.2233457962671914,4.003203550974528,,,,,,,,,,,,1.6887028524967726e+18,31.25177255859375,36.63903961181641,37.39787902832031,-11.072719764709472,1.6887028524967726e+18,31.25177255859375,-220.78095397949215,132.02107849121094,-143.95511779785156,1.6887028524923538e+18,31.24735384114583,0.2188588678836822,-0.806650976339976,-0.4465907414754231,0.3172294596831004,-2.715127468109131,0.6898192365964254,0.854010800520579
1.3,1.6887028525442573e+18,31.299257242838543,0.6525773207346598,1.193973700205485,-4.1490176518758135,1.6887028525442573e+18,31.299257242838543,-4.608576377232869,-6.103691736857097,-0.1848455493648846,1.6887028525442573e+18,31.299257242838543,-5.2669997215271,-7.280160744984944,3.901484648386637,1.6887028525442573e+18,31.299257242838543,0.1613193452358245,2.56619401772817,3.134095033009847,1.6887028525442573e+18,31.299257242838543,0.1603521406650543,2.570622682571411,3.136385758717855,,,,,,,,,,,,1.688702852546773e+18,31.30177294921875,27.593959426879884,42.12903900146485,-15.594039726257323,1.688702852546773e+18,31.30177294921875,-229.82603454589844,136.75223693847656,-148.4764404296875,1.6887028525442573e+18,31.299257242838543,0.2560731470584869,-0.7650589148203532,-0.4195850888888041,0.4151127537091573,-2.463063398996989,0.8335357308387756,0.6918398340543112
1.35,1.6887028525961572e+18,31.35115730794271,-1.7571509679158528,-0.8644221623738607,-5.269794623057048,1.6887028525961572e+18,31.35115730794271,-5.344768047332764,-9.12482976913452,-1.3316058317820232,1.6887028525961572e+18,31.35115730794271,-3.593463102976481,-8.242902914683023,3.8755014737447104,1.6887028525961572e+18,31.35115730794271,0.7585419217745463,0.3573561732967695,4.2663337389628095,1.6887028525961572e+18,31.35115730794271,0.7576256195704142,0.3617849349975586,4.268624464670817,1.6887028525788554e+18,31.33385546875,0.0,0.0,3.3245913982391357,7.546000003814697,2.518648147583008,337.7557067871094,43.400001525878906,-122.7525951,49.1887097,1.6887028525967726e+18,31.35177265625,18.051119804382324,46.24531860351563,-15.716039848327636,1.6887028525967726e+18,31.35177265625,-239.36887817382816,140.86851806640624,-148.5984375,1.6887028525961572e+18,31.35115730794271,0.3187057574590047,-0.7166081865628561,-0.4026693304379781,0.4709013998508453,-2.26514466603597,0.9901946385701498,0.525357594092687
1.4,1.6887028526480622e+18,31.403062174479164,12.442600846290588,-21.54829756418864,7.597602367401123,1.6887028526480622e+18,31.403062174479164,11.0666051308314,-30.502506256103516,11.42413294315338,1.6887028526480622e+18,31.403062174479164,-1.3818418383598328,-8.93670399983724,3.763843297958374,1.6887028526480622e+18,31.403062174479164,0.7968228061993917,6.9215612808863325,1.3125966787338257,1.6887028526480622e+18,31.403062174479164,0.7958046793937683,6.925990124543508,1.3148874044418335,,,,,,,,,,,,1.6887028526467727e+18,31.40177275390625,5.621759963035584,48.94151840209961,-14.57655963897705,1.6887028526467727e+18,31.40177275390625,-251.79823608398436,143.5647186279297,-147.45895690917968,1.6887028526480622e+18,31.403062174479164,0.3682109912236531,-0.6367605328559875,-0.3932430148124695,0.5478906035423279,-1.8638906081517537,1.127648909886678,0.2273253500461578
1.45,1.6887028526999644e+18,31.454964518229165,5.7447859446207685,-12.177307764689129,8.821793715159098,1.6887028526999644e+18,31.454964518229165,3.469792207082113,-21.076380729675293,12.262418270111084,1.6887028526999644e+18,31.454964518229165,-2.280839721361796,-8.881568590799967,3.3779372374216714,1.6887028526999644e+18,31.454964518229165,2.9743028481801352,7.970976829528809,-8.7581787109375,1.6887028526999644e+18,31.454964518229165,2.973386526107788,7.975405693054199,-8.755887985229492,,,,,,,,,,,,1.688702852696772e+18,31.451772216796872,9.698999691009522,49.192839813232425,-11.624159812927246,1.688702852696772e+18,31.451772216796872,-247.72099914550785,143.8160369873047,-144.50655822753907,1.6887028526999644e+18,31.454964518229165,0.2101038396358489,-0.5046020646890005,-0.5874320069948832,0.5911222497622172,-2.087137301762899,1.136501391728719,0.9972348809242249
1.5,1.6887028527518733e+18,31.50687345377604,-1.3950865268707275,3.492652257283529,1.05881134668986,1.6887028527518733e+18,31.50687345377604,-5.042076190312703,-5.178467035293579,3.941377639770508,1.6887028527518733e+18,31.50687345377604,-3.6528356870015464,-8.65361467997233,2.819878896077474,1.6887028527518733e+18,31.50687345377604,1.5421293278535206,-0.1491020520528157,-0.5129232145845889,1.6887028527518733e+18,31.50687345377604,1.5411111811796825,-0.1446733077367148,-0.5106324826677641,,,,,,,,,,,,1.688702852746776e+18,31.501776269531252,23.314199447631836,46.2331184387207,-8.561959838867187,1.688702852746776e+18,31.501776269531252,-234.10579528808591,140.85631713867187,-141.4443572998047,1.6887028527518733e+18,31.50687345377604,0.1336975296338398,-0.4318930804729461,-0.6978977918624878,0.5552065372467041,-2.4418660004933677,1.098671038945516,1.5939544439315796
1.55,1.6887028527951283e+18,31.550128173828124,2.3028393983840942,8.470981359481812,0.5955027341842651,1.6887028527951283e+18,31.550128173828124,-0.987338438630104,-0.4842474609613418,2.996711254119873,1.6887028527951283e+18,31.550128173828124,-3.2960238456726074,-8.937724113464355,2.338521122932434,1.6887028527951283e+18,31.550128173828124,-0.9705121517181396,-4.426864147186279,2.805322289466858,1.6887028527951283e+18,31.550128173828124,-0.9715047776699066,-4.422435283660889,2.8076130151748657,,,,,,,,,,,,1.6887028527967772e+18,31.5517771484375,21.30363998413086,47.68247909545899,-5.267959880828857,1.6887028527967772e+18,31.5517771484375,-236.1163543701172,142.30567626953126,-138.15035705566407,1.6887028527951283e+18,31.550128173828124,0.2033921480178833,-0.4685514867305755,-0.660419225692749,0.5499197244644165,-2.471294641494751,1.161375343799591,1.4577396512031553
1.6,1.6887028528383767e+18,31.593376790364584,0.5335731506347656,11.749327341715494,-1.1391137838363647,1.6887028528383767e+18,31.593376790364584,-2.1068803469340005,2.6199413935343423,1.404586911201477,1.6887028528383767e+18,31.593376790364584,-2.6462995211283364,-9.111881891886394,2.481013298034668,1.6887028528383767e+18,31.593376790364584,-1.8017470439275105,-4.375118573506673,2.95159904162089,1.6887028528383767e+18,31.593376790364584,-1.802765130996704,-4.370689868927002,2.953889767328898,,,,,,,,,,,,1.688702852846778e+18,31.6017779296875,15.579399871826173,49.37827758789062,-5.065439891815186,1.688702852846778e+18,31.6017779296875,-241.8405975341797,144.00148010253906,-137.94783935546874,1.6887028528383767e+18,31.593376790364584,0.2688567092021305,-0.5264201561609904,-0.587964395682017,0.5507646401723226,-2.3221584955851235,1.1989198525746665,1.1029120484987895
1.65,1.6887028528902822e+18,31.645282389322915,1.7302604913711548,11.230958302815756,-1.426747441291809,1.6887028528902822e+18,31.645282389322915,-0.0652044042944907,2.0217357873916626,1.5361921389897664,1.6887028528902822e+18,31.645282389322915,-1.801310896873474,-9.191718101501465,2.900252183278402,1.6887028528902822e+18,31.645282389322915,-1.8677714268366497,-4.881882190704346,3.524132490158081,1.6887028528902822e+18,31.645282389322915,-1.868687669436137,-4.877453486124675,3.526423215866089,,,,,,,,,,,,1.6887028528967772e+18,31.651777148437496,6.932039737701416,50.40795974731445,-8.405799865722656,1.6887028528967772e+18,31.651777148437496,-250.48795471191409,145.03115844726562,-141.28819580078124,1.6887028528902822e+18,31.645282389322915,0.3547267913818359,-0.5979241132736206,-0.4731870194276174,0.539245625336965,-2.0605818033218384,1.2097026507059734,0.5506112376848856
1.7,1.6887028529421804e+18,31.69718025716146,2.3264869848887124,8.982816696166992,-2.598583777745565,1.6887028529421804e+18,31.69718025716146,1.4362918039162953,-0.1894317915042241,0.8675975799560547,1.6887028529421804e+18,31.69718025716146,-0.8960411349932352,-9.154744148254396,3.403493960698446,1.6887028529421804e+18,31.69718025716146,-1.1259264548619587,-3.0855312744776406,2.519208312034607,1.6887028529421804e+18,31.69718025716146,-1.1269445617993672,-3.08110245068868,2.5214990377426147,,,,,,,,,,,,1.6887028529467802e+18,31.701780224609376,0.0805199742317199,50.0712387084961,-11.694919776916503,1.6887028529467802e+18,31.701780224609376,-257.3394714355469,144.6944366455078,-144.5773193359375,1.6887028529421804e+18,31.69718025716146,0.4278437693913777,-0.6373434662818909,-0.3630691468715668,0.5273814002672831,-1.7817401885986328,1.190945307413737,0.0326816582431395
1.75,1.6887028529940892e+18,31.74908935546875,1.7666442394256592,2.3815999031066895,3.5909250577290854,1.6887028529940892e+18,31.74908935546875,1.376870036125183,-6.858029206593831,6.967500766118367,1.6887028529940892e+18,31.74908935546875,-0.3956202963987986,-9.222124417622885,3.313888152440389,1.6887028529940892e+18,31.74908935546875,1.3236940403779347,2.7681358456611633,-0.3299181399246056,1.6887028529940892e+18,31.74908935546875,1.3227777779102323,2.7725646694501243,-0.3275764857729276,,,,,,,,,,,,1.6887028529967844e+18,31.751784326171872,-1.622599983215332,50.09807968139648,-11.102000045776368,1.6887028529967844e+18,31.751784326171872,-259.0425964355469,144.72127685546874,-143.9843963623047,1.6887028529940892e+18,31.74908935546875,0.4476852715015411,-0.6233209371566772,-0.3522378802299499,0.5350415309270223,-1.6445873578389485,1.2102813720703125,-0.113399510582288
1.8,1.6887028530459914e+18,31.80099153645833,-1.383913477261861,-18.95405673980713,20.46972719828288,1.6887028530459914e+18,31.80099153645833,-2.8959136803944907,-28.085755666097004,23.6959228515625,1.6887028530459914e+18,31.80099153645833,-1.5178463459014893,-9.114195505777994,3.1635093688964844,1.6887028530459914e+18,31.80099153645833,-1.1486303011576335,7.113780339558919,-7.278205076853435,1.6887028530459914e+18,31.80099153645833,-1.1496484676996863,7.11820920308431,-7.275914351145427,,,,,,,,,,,,1.68870285304678e+18,31.801779931640624,5.960919898748398,50.671479034423825,-8.725439929962159,1.68870285304678e+18,31.801779931640624,-251.45907287597657,145.2946746826172,-141.6078369140625,1.6887028530459914e+18,31.80099153645833,0.3279829223950704,-0.5714598894119263,-0.4904694159825642,0.5650280912717184,-1.939717133839925,1.2001169919967654,0.5289906114339828
1.85,1.688702853097893e+18,31.852893229166668,-4.1499020258585615,-8.713567415873209,3.538111845652262,1.688702853097893e+18,31.852893229166668,-8.05324379603068,-16.23071543375651,8.521639029184977,1.688702853097893e+18,31.852893229166668,-3.9091877142588296,-7.499643643697103,4.9208394686381025,1.688702853097893e+18,31.852893229166668,-2.987945477167765,0.8538878162701925,-5.109022299448649,1.688702853097893e+18,31.852893229166668,-2.98891274134318,0.8583165208498637,-5.106731573740642,1.6887028530994432e+18,31.854443115234375,0.0,0.0,3.3245913982391357,7.53000020980835,2.5282797813415527,336.716796875,43.400001525878906,-122.7526074,49.1887172,1.6887028530967762e+18,31.8517759765625,21.230439376831058,44.120079803466794,-17.899839401245117,1.6887028530967762e+18,31.8517759765625,-236.18955078125,138.74328002929687,-150.78223571777343,1.688702853097893e+18,31.852893229166668,0.1333517134189605,-0.6090778907140096,-0.5653849641482035,0.5387183427810669,-2.2150787512461343,0.8825924396514893,1.0312155882517495
1.9,1.6887028531497943e+18,31.90479451497396,26.57190752029419,-6.651717185974121,-8.576803207397461,1.6887028531497943e+18,31.90479451497396,20.534406661987305,-12.61077324549357,-3.775674680868784,1.6887028531497943e+18,31.90479451497396,-6.043346563975017,-5.941551844278972,4.738441149393718,1.6887028531497943e+18,31.90479451497396,-4.922861099243164,-10.389748811721802,-0.8108726739883423,1.6887028531497943e+18,31.90479451497396,-4.923828363418579,-10.385320027669271,-0.8085819482803345,,,,,,,,,,,,1.6887028531467802e+18,31.901780126953128,31.69804000854492,37.09531860351562,-20.530159759521485,1.6887028531467802e+18,31.901780126953128,-225.72195434570312,131.71851501464843,-153.41255798339844,1.6887028531497943e+18,31.90479451497396,0.1115710685650507,-0.725080132484436,-0.5195272366205851,0.4246875445048014,-2.448026816050211,0.6601772904396057,0.9944779475529988
1.95,1.6887028532016996e+18,31.956699462890622,24.70546547571818,-8.629420121510824,-3.380725940068563,1.6887028532016996e+18,31.956699462890622,17.98864237467448,-14.536996205647789,0.6691927462816238,1.6887028532016996e+18,31.956699462890622,-6.722670396169026,-5.890071709950765,3.9872312545776367,1.6887028532016996e+18,31.956699462890622,-1.9403116305669148,2.406605323155721,2.332487106323242,1.6887028532016996e+18,31.956699462890622,-1.9413806398709617,2.4110341469446817,2.33477783203125,,,,,,,,,,,,1.6887028531967767e+18,31.95177651367187,37.846839141845706,35.60935974121094,-14.532639694213866,1.6887028531967767e+18,31.95177651367187,-219.57315673828128,130.23255615234376,-147.4150360107422,1.6887028532016996e+18,31.956699462890622,0.1891140788793563,-0.8155200084050497,-0.4141335586706797,0.3555465241273244,-2.580557425816854,0.6468717058499655,0.7463319897651672
2.0,1.6887028532449505e+18,31.99995056152344,-0.2845246791839599,0.946525812149048,-5.621537685394287,1.6887028532449505e+18,31.99995056152344,-5.824728727340698,-5.456532955169678,-0.5955137535929681,1.6887028532449505e+18,31.99995056152344,-5.546050071716309,-6.385554075241089,4.96333646774292,1.6887028532449505e+18,31.99995056152344,0.5096143186092377,2.167884349822998,2.36206316947937,1.6887028532449505e+18,31.99995056152344,0.5086216628551483,2.172313153743744,2.364353895187378,,,,,,,,,,,,1.6887028532467768e+18,32.0017767578125,30.34871940612793,38.34459915161133,-20.59847946166992,1.6887028532467768e+18,32.0017767578125,-227.0712768554687,132.9677978515625,-153.4808776855469,1.6887028532449505e+18,31.99995056152344,0.1909366250038146,-0.7811791002750397,-0.4064293354749679,0.4335174858570099,-2.3828060626983643,0.7085643410682678,0.6663340032100677
2.05,1.6887028532882e+18,32.043199788411464,-0.733426014582316,2.350508133570353,-6.841722806294759,1.6887028532882e+18,32.043199788411464,-5.237091223398845,-4.939782937367757,-2.011765638987223,1.6887028532882e+18,32.043199788411464,-4.509511232376099,-7.272786458333333,4.767269770304362,1.6887028532882e+18,32.043199788411464,0.8696175614992777,-0.121205856402715,3.923943837483724,1.6887028532882e+18,32.043199788411464,0.868548572063446,-0.1167770624160766,3.926234563191732,,,,,,,,,,,,1.6887028532967798e+18,32.05177954101563,22.60415916442871,43.07331848144531,-19.99579963684082,1.6887028532967798e+18,32.05177954101563,-234.81583557128903,137.69651489257814,-152.8781982421875,1.6887028532882e+18,32.043199788411464,0.2464938312768936,-0.7518784801165262,-0.3962084551652272,0.4648085534572601,-2.292245705922445,0.8319438099861145,0.5741458336512247
2.1,1.6887028533401065e+18,32.09510652669271,10.397138675053917,-9.192217508951822,-0.1602757771809896,1.6887028533401065e+18,32.09510652669271,7.878368854522705,-17.640885988871258,4.181058764457703,1.6887028533401065e+18,32.09510652669271,-2.524615526199341,-8.431164423624674,4.278646945953369,1.6887028533401065e+18,32.09510652669271,1.6830864946047466,2.676353226105372,3.772500058015188,1.6887028533401065e+18,32.09510652669271,1.6821192502975464,2.6807820200920105,3.774790788690249,,,,,,,,,,,,1.6887028533467796e+18,32.10177958984375,11.021479988098145,47.42627868652344,-17.402080154418947,1.6887028533467796e+18,32.10177958984375,-246.3985137939453,142.04947814941406,-150.28447875976562,1.6887028533401065e+18,32.09510652669271,0.3483134905497233,-0.7006193200747172,-0.360679825146993,0.5059670805931091,-2.053213040033976,1.0232757131258647,0.2924267450968424
2.15,1.68870285339201e+18,32.147009765625,0.7237488428751634,-26.188366572062176,12.249741713205973,1.68870285339201e+18,32.147009765625,-0.997607866923015,-34.97189966837565,16.313666343688965,1.68870285339201e+18,32.147009765625,-1.727202574412028,-8.766027768452963,4.001237551371257,1.68870285339201e+18,32.147009765625,2.0544416507085166,10.479087670644123,-7.5996728738149,1.68870285339201e+18,32.147009765625,2.053423523902893,10.483516534169516,-7.597331285476685,,,,,,,,,,,,1.6887028533967803e+18,32.151780224609375,8.532679748535156,48.80731887817383,-14.154439735412598,1.6887028533967803e+18,32.151780224609375,-248.88731384277344,143.430517578125,-147.03683776855468,1.68870285339201e+18,32.147009765625,0.232312853137652,-0.5436633229255676,-0.5258542696634928,0.6044973333676656,-1.9178775151570635,1.102820912996928,0.7148673236370087
2.2,1.6887028534439066e+18,32.19890657552083,6.632900317509969,-2.610715230305989,0.7791120211283366,1.6887028534439066e+18,32.19890657552083,2.887339452902476,-10.901101430257162,4.536193450291951,1.6887028534439066e+18,32.19890657552083,-3.751406669616699,-8.272881825764975,3.694394032160441,1.6887028534439066e+18,32.19890657552083,2.148616671562195,1.9479983647664387,-3.3914220531781516,1.6887028534439066e+18,32.19890657552083,2.1476494868596396,1.9524271488189695,-3.389131327470144,,,,,,,,,,,,1.688702853446776e+18,32.201775927734374,24.434159088134766,44.95699844360352,-12.300039863586424,1.688702853446776e+18,32.201775927734374,-232.98583374023437,139.5801971435547,-145.18244018554688,1.6887028534439066e+18,32.19890657552083,0.0989178592960039,-0.4627428551514943,-0.6822376251220703,0.5567817886670431,-2.328685760498047,1.0184206167856853,1.4774976174036665
2.25,1.6887028534958129e+18,32.25081266276042,1.677025556564331,7.8223616282145185,1.795600652694702,1.6887028534958129e+18,32.25081266276042,-1.820140431324641,-0.951944629351298,4.530809720357259,1.6887028534958129e+18,32.25081266276042,-3.50301202138265,-8.75680160522461,2.6725216706593833,1.6887028534958129e+18,32.25081266276042,-0.4983642299969991,-6.089766661326091,3.846974770228068,1.6887028534958129e+18,32.25081266276042,-0.4993823170661926,-6.0853377978007,3.849265495936076,,,,,,,,,,,,1.6887028534967777e+18,32.251777734375004,21.72575988769531,46.96999816894531,-6.6319197654724125,1.6887028534967777e+18,32.251777734375004,-235.69423828125,141.59320068359375,-139.51431579589843,1.6887028534958129e+18,32.25081266276042,0.2002886881430943,-0.4980364541212718,-0.6471392313639323,0.5387734174728394,-2.4472551345825195,1.1179701487223308,1.383301297823588
2.3,1.6887028535477169e+18,32.30271695963541,1.5590728123982749,11.56156571706136,-0.306114912033081,1.6887028535477169e+18,32.30271695963541,-0.7062814931074778,2.3848465283711753,2.409771760304769,1.6887028535477169e+18,32.30271695963541,-2.2712003787358603,-9.159214655558268,2.6531992753346763,1.6887028535477169e+18,32.30271695963541,-1.822261889775594,-4.651993274688721,4.213442961374919,1.6887028535477169e+18,32.30271695963541,-1.8232800563176472,-4.64756457010905,4.215784549713135,,,,,,,,,,,,1.688702853546775e+18,32.301775,12.236599922180176,50.01755905151367,-5.602239894866943,1.688702853546775e+18,32.301775,-245.1833953857422,144.64075622558593,-138.48463745117186,1.6887028535477169e+18,32.30271695963541,0.316859354575475,-0.5685232679049174,-0.5312588512897491,0.5404377778371176,-2.2198681036631265,1.209152380625407,0.8389900724093119
2.35,1.688702853599614e+18,32.35461401367187,-0.1968509753545125,10.988966623942057,-1.2372057437896729,1.688702853599614e+18,32.35461401367187,-0.6155536323785782,1.7106688022613523,1.9639091690381367,1.688702853599614e+18,32.35461401367187,-0.4245486756165822,-9.260793050130207,3.138427495956421,1.688702853599614e+18,32.35461401367187,-0.8639161686102549,-1.5736906975507736,5.273701508839925,1.688702853599614e+18,32.35461401367187,-0.8649851977825165,-1.5692619035641353,5.276043097178142,1.6887028536169165e+18,32.37191650390625,0.0,0.0,3.6424827575683594,7.572000026702881,2.524827003479004,334.4487609863281,43.400001525878906,-122.7526284,49.1887281,1.688702853596779e+18,32.35177880859375,0.6392799854278565,50.769080352783206,-7.929999923706054,1.688702853596779e+18,32.35177880859375,-256.7807098388672,145.39227905273438,-140.81239624023436,1.688702853599614e+18,32.35461401367187,0.4068139096101125,-0.5854383508364359,-0.4125614662965138,0.5656628012657166,-1.6574660936991374,1.2284491856892903,0.0724224671721458
2.4,1.688702853651514e+18,32.40651399739583,-2.325484275817871,7.551650206247966,-3.3565024534861245,1.688702853651514e+18,32.40651399739583,-1.0438688894112904,-1.736192226409912,-0.3639084468595683,1.688702853651514e+18,32.40651399739583,1.275769313176473,-9.27033805847168,2.929906686147054,1.688702853651514e+18,32.40651399739583,1.1778500080108645,1.5875878930091858,1.2879585027694702,1.688702853651514e+18,32.40651399739583,1.1769337058067322,1.592016617457072,1.290249228477478,,,,,,,,,,,,1.6887028536467763e+18,32.401776269531254,-9.742919826507569,49.6466796875,-7.302919864654541,1.6887028536467763e+18,32.401776269531254,-267.1629150390625,144.26987915039064,-140.18531799316406,1.688702853651514e+18,32.40651399739583,0.459344337383906,-0.5379586815834045,-0.3711180786291758,0.601328452428182,-1.1245588858922322,1.2242979208628335,-0.4715007841587066
2.45,1.688702853694776e+18,32.449776123046874,-5.2184600830078125,8.924031734466553,-0.9664487838745116,1.688702853694776e+18,32.449776123046874,-4.538287162780762,-0.6478567570447922,1.175175040960312,1.688702853694776e+18,32.449776123046874,0.674326941370964,-9.554383754730225,2.0789363980293274,1.688702853694776e+18,32.449776123046874,1.9457585215568545,1.7295886278152466,-4.084855914115906,1.688702853694776e+18,32.449776123046874,1.944765865802765,1.7340173125267029,-4.082565188407898,,,,,,,,,,,,1.6887028536967782e+18,32.451778173828124,-5.8681998491287235,50.79347915649414,-2.1227999567985534,1.6887028536967782e+18,32.451778173828124,-263.28819580078124,145.41667785644532,-135.0052001953125,1.688702853694776e+18,32.449776123046874,0.4450640380382537,-0.5168960094451904,-0.4358504712581634,0.5867297649383545,-1.2161431312561035,1.3317822813987732,-0.2936040610074996
2.5,1.6887028537380273e+18,32.49302726236979,-2.3045195738474527,-8.597639401753744,13.25975783665975,1.6887028537380273e+18,32.49302726236979,-4.092723687489827,-17.876977880795796,15.742778778076172,1.6887028537380273e+18,32.49302726236979,-1.794050216674805,-9.261833190917969,2.4203335444132485,1.6887028537380273e+18,32.49302726236979,-3.1238120992978415,2.606460213661194,-7.235953489939372,1.6887028537380273e+18,32.49302726236979,-3.1247793436050415,2.610888957977295,-7.233662764231364,,,,,,,,,,,,1.688702853746777e+18,32.50177729492187,10.13331971168518,50.32011947631836,-4.743359875679016,1.688702853746777e+18,32.50177729492187,-247.2866729736328,144.94331970214844,-137.62575988769532,1.6887028537380273e+18,32.49302726236979,0.347783346970876,-0.5619924664497375,-0.5163019696871439,0.5407867232958475,-2.10702133178711,1.2591507037480671,0.6861405968666077
2.55,1.6887028537899274e+18,32.544927327473964,-8.025095780690512,-27.251546541849773,17.753235975901287,1.6887028537899274e+18,32.544927327473964,-12.077174027760824,-34.8718007405599,22.47558371225993,1.6887028537899274e+18,32.544927327473964,-4.057924191157023,-7.602749506632487,4.6596604983011884,1.6887028537899274e+18,32.544927327473964,-3.3544646898905435,-0.0853174825509389,-3.392185648282369,1.6887028537899274e+18,32.544927327473964,-3.355482816696167,-0.0808887283007303,-3.3898949225743613,,,,,,,,,,,,1.6887028537967826e+18,32.551782421875,22.911599349975585,44.69835891723633,-16.762799644470213,1.6887028537967826e+18,32.551782421875,-234.5083984375,139.3215576171875,-149.64519958496095,1.6887028537899274e+18,32.544927327473964,0.1748636215925216,-0.640677809715271,-0.5373031298319498,0.5191589991251627,-2.2661732037862143,0.8986727992693583,0.9512353539466858
2.6,1.6887028538418276e+18,32.596827473958335,39.13800152142843,-8.13498306274414,-3.0909875233968105,1.6887028538418276e+18,32.596827473958335,32.997222344080605,-14.078171789646149,1.508076508839925,1.6887028538418276e+18,32.596827473958335,-6.146622657775879,-5.9256846110026045,4.53637679417928,1.6887028538418276e+18,32.596827473958335,-6.156401793162028,-11.161678393681845,-1.6257159610589345,1.6887028538418276e+18,32.596827473958335,-6.157368977864583,-11.157250563303627,-1.623425225416819,,,,,,,,,,,,1.6887028538467835e+18,32.60178359375,32.84239883422852,37.85415878295898,-18.4171199798584,1.6887028538467835e+18,32.60178359375,-224.5775939941406,132.47735900878905,-151.2995178222656,1.6887028538418276e+18,32.596827473958335,0.1568891803423563,-0.7753424644470215,-0.4467673500378926,0.4005450805028279,-2.476045529047648,0.6599306265513102,0.8041631976763407
2.65,1.6887028538937324e+18,32.64873250325521,26.89963738123576,-8.592265923817953,-1.4906073411305745,1.6887028538937324e+18,32.64873250325521,19.7264297803243,-14.24128246307373,2.1314067294200263,1.6887028538937324e+18,32.64873250325521,-7.1790547370910645,-5.63151216506958,3.559326648712158,1.6887028538937324e+18,32.64873250325521,-0.9899580081303916,2.472731510798136,1.9005544185638428,1.6887028538937324e+18,32.64873250325521,-0.9909761746724448,2.477160374323527,1.902896225452423,,,,,,,,,,,,1.6887028538967846e+18,32.651784716796875,37.64431915283203,35.67279891967773,-13.607879638671877,1.6887028538967846e+18,32.651784716796875,-219.7756774902344,130.2959991455078,-146.4902770996094,1.6887028538937324e+18,32.64873250325521,0.2126235564549764,-0.8606101075808207,-0.3469069004058838,0.3046333193778991,-2.6607887744903564,0.6157541275024414,0.6102857987085978
2.7,1.6887028539456356e+18,32.70063566080729,0.7306666374206543,0.998730977376302,-4.959619681040446,1.6887028539456356e+18,32.70063566080729,-5.019743124643962,-5.210570732752482,0.0494516628483931,1.6887028539456356e+18,32.70063566080729,-5.7562557856241865,-6.191797097524007,4.946383794148763,1.6887028539456356e+18,32.70063566080729,0.7500407298405966,3.8394408226013184,2.044718702634176,1.6887028539456356e+18,32.70063566080729,0.7491244077682495,3.843869606653849,2.047009507815043,,,,,,,,,,,,1.6887028539467791e+18,32.7017791015625,30.873319625854492,38.24943923950195,-20.164159774780273,1.6887028539467791e+18,32.7017791015625,-226.5466796875,132.8726379394531,-153.0465576171875,1.6887028539456356e+18,32.70063566080729,0.2058323671420415,-0.8093976974487305,-0.3628590106964111,0.4122087756792704,-2.4069267908732095,0.6850318113962809,0.5690861543019613
2.75,1.6887028539975375e+18,32.75253751627604,0.1631840864817301,5.742772579193115,-6.885763804117839,1.6887028539975375e+18,32.75253751627604,-3.973880211512248,-1.4791632095972698,-1.6368900537490845,1.6887028539975375e+18,32.75253751627604,-4.142910321553548,-7.204431215922038,5.186186154683431,1.6887028539975375e+18,32.75253751627604,1.1197159886360168,1.699783404668172,3.329113801320394,1.6887028539975375e+18,32.75253751627604,1.1187488238016765,1.704212248325348,3.3314046065012612,,,,,,,,,,,,1.6887028539967762e+18,32.751776123046874,21.474439239501955,42.52187881469727,-21.61595954895019,1.6887028539967762e+18,32.751776123046874,-235.945556640625,137.14508056640625,-154.49835510253905,1.6887028539975375e+18,32.75253751627604,0.2497278799613316,-0.7529348731040955,-0.3698755403359731,0.4829181532065074,-2.213521957397461,0.8232465783754984,0.4814511140187581
2.8,1.6887028540494418e+18,32.804441894531244,-0.7600452899932861,-5.942001660664876,-6.591725985209147,1.6887028540494418e+18,32.804441894531244,-3.0715867082277932,-14.084153970082602,-1.5808582063764334,1.6887028540494418e+18,32.804441894531244,-2.3173874616622925,-8.124647935231527,4.948180357615153,1.6887028540494418e+18,32.804441894531244,0.6556111176808676,0.8670723338921865,4.392172018686931,1.6887028540494418e+18,32.804441894531244,0.6545930107434591,0.8715010583400726,4.3944627443949384,,,,,,,,,,,,1.6887028540467835e+18,32.80178369140625,11.094679975509644,46.242879486083986,-20.21051940917969,1.6887028540467835e+18,32.80178369140625,-246.3253173828125,140.86607666015624,-153.0929168701172,1.6887028540494418e+18,32.804441894531244,0.3304954767227172,-0.7042127847671509,-0.3386371334393819,0.5283196171124777,-1.9694184859593709,0.966299017270406,0.2226812243461608
2.85,1.68870285410134e+18,32.85633984375,4.164531071980795,-28.918047587076824,12.910537083943684,1.68870285410134e+18,32.85633984375,2.99222485224406,-37.49234135945638,17.59542242685954,1.68870285410134e+18,32.85633984375,-1.1781524817148843,-8.556787172953287,4.62219778696696,1.68870285410134e+18,32.85633984375,2.4673356215159097,10.535898526509603,-7.541589577992757,1.68870285410134e+18,32.85633984375,2.4664193391799927,10.540326913197836,-7.539298852284749,,,,,,,,,,,,1.68870285409678e+18,32.851780029296876,3.4696799993515013,48.01187896728515,-17.74367961883545,1.68870285409678e+18,32.851780029296876,-253.9503143310547,142.63507690429688,-150.6260772705078,1.68870285410134e+18,32.85633984375,0.2632918854554494,-0.5810147325197855,-0.4531580209732055,0.6135477821032206,-1.777990182240804,1.0528008540471394,0.4384392698605855
2.9,1.688702854144587e+18,32.899587036132814,21.32712173461914,-8.251327991485596,5.718867063522339,1.688702854144587e+18,32.899587036132814,17.446069717407227,-16.17727565765381,10.05912733078003,1.688702854144587e+18,32.899587036132814,-3.886898279190063,-7.908443450927734,4.277572393417358,1.688702854144587e+18,32.899587036132814,1.8918496966362,5.327508449554443,-10.819110870361328,1.688702854144587e+18,32.899587036132814,1.8907806277275083,5.331937313079834,-10.816819667816162,1.6887028541359452e+18,32.8909453125,0.0,0.0,3.720484495162964,7.622000217437744,2.5160183906555176,333.0456237792969,43.400001525878906,-122.7526411,49.1887325,1.6887028541467766e+18,32.9017763671875,24.151119422912597,43.96391983032227,-14.19835968017578,1.6887028541467766e+18,32.9017763671875,-233.2688720703125,138.58711853027344,-147.08075866699218,1.688702854144587e+18,32.899587036132814,0.0968527980148791,-0.5136101841926575,-0.6504242420196533,0.548685759305954,-2.274422764778137,0.9517561793327332,1.333223044872284
2.95,1.688702854187848e+18,32.942847900390625,3.277186473210653,4.575087070465088,-0.4177516301472981,1.688702854187848e+18,32.942847900390625,-1.3892329533894856,-2.894717196623484,3.978865305582682,1.688702854187848e+18,32.942847900390625,-4.672265370686849,-7.45229975382487,4.333929538726807,1.688702854187848e+18,32.942847900390625,0.4497495094935099,-1.750536282857259,0.1756236950556435,1.688702854187848e+18,32.942847900390625,0.4487823247909546,-1.7461074193318684,0.1779144406318664,,,,,,,,,,,,1.6887028541967795e+18,32.95177963867187,31.45891914367676,41.58735885620117,-13.629839897155762,1.6887028541967795e+18,32.95177963867187,-225.96107482910156,136.21055908203124,-146.51223754882812,1.688702854187848e+18,32.942847900390625,0.0381894428282975,-0.4784655372301737,-0.7072721918423971,0.5181428591410319,-2.375480572382609,0.8793511986732483,1.5776782433191936
3.0,1.6887028542397494e+18,32.994749674479166,4.683903058369954,9.609458605448404,-1.9985301494598389,1.6887028542397494e+18,32.994749674479166,0.5551348278919855,1.5204393689831095,1.7908283472061155,1.6887028542397494e+18,32.994749674479166,-4.13461438814799,-8.071514765421549,3.726671059926351,1.6887028542397494e+18,32.994749674479166,-2.065030018488566,-5.157331625620524,4.7089565594991045,1.6887028542397494e+18,32.994749674479166,-2.0660480658213296,-5.152902762095134,4.711247285207112,,,,,,,,,,,,1.6887028542467812e+18,33.001781103515626,24.29995994567871,45.56211853027344,-9.772199821472167,1.6887028542467812e+18,33.001781103515626,-233.12003479003903,140.18532104492186,-142.65459899902345,1.6887028542397494e+18,32.994749674479166,0.159152882794539,-0.5565183560053507,-0.625322421391805,0.5208844542503357,-2.3824257850646973,0.979270895322164,1.2664758761723836
3.05,1.6887028542916493e+18,33.04664933268229,3.7102588415145874,10.982539812723797,-3.4189449151357016,1.6887028542916493e+18,33.04664933268229,0.4895317157109578,2.619542638460795,0.6616154710451762,1.6887028542916493e+18,33.04664933268229,-3.2265732288360596,-8.345492680867514,4.017872889836629,1.6887028542916493e+18,33.04664933268229,-2.5957190990448,-4.379750887552897,3.648952643076578,1.6887028542916493e+18,33.04664933268229,-2.5966355005900064,-4.375322500864665,3.651294231414795,,,,,,,,,,,,1.688702854296778e+18,33.051777978515624,16.655439186096192,47.77519989013672,-11.897439765930176,1.688702854296778e+18,33.051777978515624,-240.76455078125,142.39839782714844,-144.77983703613282,1.6887028542916493e+18,33.04664933268229,0.2538515031337738,-0.6337518493334452,-0.5033978621164957,0.5278114875157675,-2.217568874359131,1.024052341779073,0.7961551745732626
3.1,1.6887028543435558e+18,33.09855582682292,3.2022178173065186,7.852873007456462,-4.37927261988322,1.6887028543435558e+18,33.09855582682292,0.3188436130682627,-0.5820540959636371,-0.190628208220005,1.6887028543435558e+18,33.09855582682292,-2.8892203172047934,-8.417422612508139,4.125957171122233,1.6887028543435558e+18,33.09855582682292,-1.1187487840652466,-3.79983647664388,2.4214189052581787,1.6887028543435558e+18,33.09855582682292,-1.119766891002655,-3.7954076131184897,2.4237096309661865,,,,,,,,,,,,1.688702854346777e+18,33.10177690429688,12.648959732055664,48.45839920043945,-13.663999938964844,1.688702854346777e+18,33.10177690429688,-244.77103576660156,143.081591796875,-146.54639892578126,1.6887028543435558e+18,33.09855582682292,0.3286217947800954,-0.6909841696421305,-0.4024180670579274,0.50162273645401,-2.1483349005381265,1.0325591166814168,0.4576000074545542
3.15,1.6887028543954586e+18,33.15045841471354,3.014045556386312,3.5507119496663413,-1.2873584429423015,1.6887028543954586e+18,33.15045841471354,0.4235295901695887,-5.113461971282959,2.610968381166458,1.6887028543954586e+18,33.15045841471354,-2.596362034479777,-8.646669387817383,3.835639397303263,1.6887028543954586e+18,33.15045841471354,0.214719135314226,-0.9280569950739542,1.1277081469694774,1.6887028543954586e+18,33.15045841471354,0.2137519319852193,-0.9236282507578532,1.1299988826115923,,,,,,,,,,,,1.68870285439678e+18,33.151779931640625,9.684359741210937,49.07572021484375,-13.178439712524414,1.68870285439678e+18,33.151779931640625,-247.73563537597656,143.69891662597655,-146.06083984375,1.6887028543954586e+18,33.15045841471354,0.3832091788450877,-0.7075707912445068,-0.3537346720695495,0.4767269094785054,-2.1280160744984946,1.0750590960184734,0.287885586420695
3.2,1.68870285444736e+18,33.20235986328125,-2.357481320699056,-24.580748558044434,19.31768004099528,1.68870285444736e+18,33.20235986328125,-4.24785844484965,-33.313475926717125,23.453649520874023,1.68870285444736e+18,33.20235986328125,-1.896223068237305,-8.715222358703613,4.07328216234843,1.68870285444736e+18,33.20235986328125,-0.1035925547281901,5.6105427742004395,-0.9384926036000252,1.68870285444736e+18,33.20235986328125,-0.1045088768005371,5.61497147878011,-0.9362018729249636,,,,,,,,,,,,1.6887028544467743e+18,33.20177431640625,7.0296399116516115,49.370957946777345,-13.59567985534668,1.6887028544467743e+18,33.20177431640625,-250.3903564453125,143.99415588378906,-146.478076171875,1.68870285444736e+18,33.20235986328125,0.3558313449223836,-0.6605794628461202,-0.3900406956672668,0.5317594210306803,-1.969830870628357,1.0908311208089192,0.3015902539094289
3.25,1.6887028544992635e+18,33.254263671875,-0.8777202765146891,-6.530806223551433,3.982054074605306,1.6887028544992635e+18,33.254263671875,-3.264208952585856,-14.60598882039388,9.068199475606283,1.6887028544992635e+18,33.254263671875,-2.3923346996307373,-8.05767822265625,5.023458003997803,1.6887028544992635e+18,33.254263671875,-2.2120958169301352,0.4283692588408787,-3.662900686264038,1.6887028544992635e+18,33.254263671875,-2.2130629618962607,0.4327980528275172,-3.660559097925822,,,,,,,,,,,,1.688702854496781e+18,33.25178115234375,9.930799674987792,47.95331954956055,-17.367920112609863,1.688702854496781e+18,33.25178115234375,-247.48919372558595,142.576513671875,-150.2503173828125,1.6887028544992635e+18,33.254263671875,0.25474380950133,-0.6529876391092936,-0.4327924648920695,0.5660730997721354,-1.980644901593526,0.9665051897366842,0.5053992966810862
