seconds_elapsed_rounded,accelerometer_time,accelerometer_seconds_elapsed,accelerometer_z,accelerometer_y,accelerometer_x,accelerometeruncalibrated_time,accelerometeruncalibrated_seconds_elapsed,accelerometeruncalibrated_z,accelerometeruncalibrated_y,accelerometeruncalibrated_x,gravity_time,gravity_seconds_elapsed,gravity_z,gravity_y,gravity_x,gyroscope_time,gyroscope_seconds_elapsed,gyroscope_z,gyroscope_y,gyroscope_x,gyroscopeuncalibrated_time,gyroscopeuncalibrated_seconds_elapsed,gyroscopeuncalibrated_z,gyroscopeuncalibrated_y,gyroscopeuncalibrated_x,location_time,location_seconds_elapsed,location_bearingAccuracy,location_speedAccuracy,location_verticalAccuracy,location_horizontalAccuracy,location_speed,location_bearing,location_altitude,location_longitude,location_latitude,magnetometer_time,magnetometer_seconds_elapsed,magnetometer_z,magnetometer_y,magnetometer_x,magnetometeruncalibrated_time,magnetometeruncalibrated_seconds_elapsed,magnetometeruncalibrated_z,magnetometeruncalibrated_y,magnetometeruncalibrated_x,orientation_time,orientation_seconds_elapsed,orientation_qz,orientation_qy,orientation_qx,orientation_qw,orientation_roll,orientation_pitch,orientation_yaw
0.0,1.688702610712236e+18,90.00723608398437,16.751224835713703,-29.704456965128585,-0.6743767261505127,1.688702610712236e+18,90.00723608398437,14.611970901489258,-39.20420519510905,-1.8121643861134848,1.688702610712236e+18,90.00723608398437,-2.1451000372568765,-9.482243537902832,-1.200475037097931,1.6887026107035886e+18,89.99858886718751,5.155549923578898,7.3982910712560015,1.9080884878834088,1.6887026107035886e+18,89.99858886718751,5.154582818349202,7.402719259262085,1.9104301631450653,,,,,,,,,,,,1.6887026107036636e+18,89.99866357421874,-9.345199680328369,46.042799377441405,16.555400085449218,1.6887026107036636e+18,89.99866357421874,-263.8859924316406,141.50779724121094,-116.6563995361328,1.688702610712236e+18,90.00723608398437,0.6105721791585287,-0.6857571999231974,-0.3306259810924529,0.1871460378170013,2.4796082973480225,1.3348559141159058,1.4228676160176594
0.05,1.6887026107554852e+18,90.05048522949218,-1.659005641937256,-15.268216133117676,7.831171989440918,1.6887026107554852e+18,90.05048522949218,-5.345266819000244,-24.343680381774902,7.4428746700286865,1.6887026107554852e+18,90.05048522949218,-3.6921072006225586,-9.057960510253906,-0.4509849958121776,1.688702610755489e+18,90.0504891764323,2.6105326414108276,18.13877805074056,-2.092468023300171,1.688702610755489e+18,90.0504891764323,2.6095654567082724,18.143206755320232,-2.0901772181193032,,,,,,,,,,,,1.6887026107536632e+18,90.04866323242189,11.568039655685425,39.51823959350586,26.683839797973633,1.6887026107536632e+18,90.04866323242189,-242.9727569580078,134.98323669433594,-106.52795715332032,1.6887026107554852e+18,90.05048522949218,0.4031664878129958,-0.5357914566993713,-0.6280859410762787,0.3845800757408141,2.8888533115386963,1.1752629280090332,1.8994913697242737
0.1,1.6887026107987415e+18,90.09374153645832,1.5698316891988118,3.4473114013671875,0.1598220268885296,1.6887026107987415e+18,90.09374153645832,-2.6063820918401084,-5.4261241753896075,-0.1898306012153625,1.6887026107987415e+18,90.09374153645832,-4.1820597648620605,-8.855930964152018,-0.4123400884370009,1.6887026108073912e+18,90.10239111328126,-0.4957171579202016,-7.09815247853597,0.103236233194669,1.6887026108073912e+18,90.10239111328126,-0.4966843326886495,-7.093723615010579,0.1055269638697306,1.6887026108246956e+18,90.11969555664062,0.0,0.0,3.825390577316284,7.439000129699707,2.655557870864868,261.5528259277344,43.400001525878906,-122.7531538,49.1887974,1.6887026108036603e+18,90.09866015625,23.750959396362305,37.117279815673825,24.936799621582033,1.6887026108036603e+18,90.09866015625,-230.7898376464844,132.5822784423828,-108.2749969482422,1.6887026107987415e+18,90.09374153645832,0.3685409923394521,-0.517620841662089,-0.6655778884887695,0.3880948026974996,2.9351789156595864,1.121176838874817,1.949506878852844
0.15,1.6887026108506478e+18,90.14564762369793,3.2131553490956626,9.044973691304524,3.3240859508514404,1.6887026108506478e+18,90.14564762369793,-0.2915255650877952,-0.0303090959787368,2.0492531458536782,1.6887026108506478e+18,90.14564762369793,-3.510526974995931,-9.057778358459473,-1.3375202020009358,1.6887026108592986e+18,90.15429842122394,-2.090075413386027,-7.472307364145915,0.8512407143910726,1.6887026108592986e+18,90.15429842122394,-2.091042637825012,-7.467878500620524,0.8535314400990804,,,,,,,,,,,,1.6887026108536604e+18,90.14866044921877,11.148360061645509,39.45479888916016,29.394679260253906,1.6887026108536604e+18,90.14866044921877,-243.39243774414064,134.9197967529297,-103.81711883544922,1.6887026108506478e+18,90.14564762369793,0.4908445179462433,-0.6008803248405457,-0.5523268580436707,0.2998765508333842,2.644717295964559,1.1787968079249065,1.822760025660197
0.2,1.6887026109025457e+18,90.19754589843753,1.8783552646636963,11.035716692606607,3.1739654541015625,1.6887026109025457e+18,90.19754589843753,-0.8360921417673429,1.6789638598759968,1.982652982076009,1.6887026109025457e+18,90.19754589843753,-2.7202934424082437,-9.339248339335125,-1.2539998690287273,1.6887026109111954e+18,90.20619547526042,-2.4785348574320474,-6.163630485534668,0.4284710536400477,1.6887026109111954e+18,90.20619547526042,-2.479552904764811,-6.159201622009277,0.4307618141174316,,,,,,,,,,,,1.6887026109036575e+18,90.19865766601562,-0.8247199952602386,43.5076400756836,26.20315933227539,1.6887026109036575e+18,90.19865766601562,-255.36551818847656,138.97263793945314,-107.00863647460938,1.6887026109025457e+18,90.19754589843753,0.5716943542162577,-0.6680086255073547,-0.4140419562657674,0.2308446317911147,2.538468360900879,1.276718258857727,1.5626438061396282
0.25,1.688702610954446e+18,90.2494462890625,3.0964159965515137,10.070971488952637,1.2064073483149211,1.688702610954446e+18,90.2494462890625,0.7447660267353058,0.5595216949780782,0.548155794541041,1.688702610954446e+18,90.2494462890625,-2.3574959437052407,-9.493945439656576,-0.7209389209747314,1.688702610954445e+18,90.24944506835938,-2.198427677154541,-4.07080602645874,0.0082466809544711,1.688702610954445e+18,90.24944506835938,-2.1994203329086304,-4.06637716293335,0.0105374255217611,,,,,,,,,,,,1.6887026109536566e+18,90.24865654296876,-7.864119911193848,46.52103958129883,19.92503967285156,1.6887026109536566e+18,90.24865654296876,-262.40491943359376,141.9860382080078,-113.28675689697266,1.688702610954446e+18,90.2494462890625,0.6112335522969564,-0.7167023619016012,-0.2855667769908905,0.1748971293369929,2.6707538763682046,1.353454828262329,1.1384270985921223
0.3,1.688702611006351e+18,90.30135091145831,2.872273206710815,7.662791570027669,0.5112227698167165,1.688702611006351e+18,90.30135091145831,0.5110670377810796,-1.866800506909688,0.1890329817930857,1.688702611006351e+18,90.30135091145831,-2.3670522371927896,-9.51208750406901,-0.3848772048950195,1.6887026109976998e+18,90.29269970703126,-0.5935573925574621,-0.4379394650459289,-0.3511457095543543,1.6887026109976998e+18,90.29269970703126,-0.5946264341473579,-0.433510700861613,-0.3488040616114934,,,,,,,,,,,,1.6887026110036577e+18,90.29865771484376,-8.952359771728515,48.02895889282227,15.962479782104491,1.6887026110036577e+18,90.29865771484376,-263.49315185546874,143.49395751953125,-117.24931640625,1.688702611006351e+18,90.30135091145831,0.6128954490025839,-0.7318700949350992,-0.2470488101243972,0.1663146466016769,2.8429969946543374,1.3670374949773152,0.8950384457906088
0.35,1.6887026110582518e+18,90.35325187174476,-3.204531113306681,-1.146473407745361,3.461782375971476,1.6887026110582518e+18,90.35325187174476,-6.283951124797265,-10.466605186462402,3.3702906370162964,1.6887026110582518e+18,90.35325187174476,-3.0852659543355307,-9.302627563476562,-0.1541790900131066,1.688702611049599e+18,90.34459912109374,0.5482515692710876,3.4496578375498452,-1.9579248825709024,1.688702611049599e+18,90.34459912109374,0.547182540098826,3.454086701075236,-1.9556341568628948,,,,,,,,,,,,1.6887026110536553e+18,90.34865517578126,-4.648199987411499,48.27539978027344,16.65543975830078,1.6887026110536553e+18,90.34865517578126,-259.1889953613281,143.7403991699219,-116.55635986328124,1.6887026110582518e+18,90.35325187174476,0.5690903266270956,-0.7391795714696249,-0.2975252270698547,0.1999226212501525,2.9825522104899087,1.2924933036168416,0.8859084049860636
0.4,1.688702611110157e+18,90.40515714518229,-15.533674240112305,-32.87200482686361,0.8835966984430949,1.688702611110157e+18,90.40515714518229,-20.063817660013836,-41.56233215332031,0.4412764608860016,1.688702611110157e+18,90.40515714518229,-4.535989443461101,-8.672822634379068,-0.5050076047579447,1.6887026111015022e+18,90.39650227864584,2.671619097391764,2.8702521324157715,-3.0419561862945557,1.6887026111015022e+18,90.39650227864584,2.670651912689209,2.874680995941162,-3.03961451848348,,,,,,,,,,,,1.6887026111036544e+18,90.39865439453123,4.958079838752747,46.36731948852539,20.781479263305663,1.6887026111036544e+18,90.39865439453123,-249.58271484375,141.8323181152344,-112.4303192138672,1.688702611110157e+18,90.40515714518229,0.4933814207712809,-0.7424197991689047,-0.4015039602915446,0.2079039265712101,2.943462371826172,1.12029763062795,1.1145952145258586
0.45,1.6887026111620554e+18,90.45705517578124,4.535018603006999,-3.6584370930989585,-3.987656037012736,1.6887026111620554e+18,90.45705517578124,-1.1206386884053547,-11.668001492818195,-4.3367916742960615,1.6887026111620554e+18,90.45705517578124,-5.661503156026204,-7.99206002553304,-0.4118229746818542,1.6887026111534072e+18,90.44840714518229,-1.1099930356722325,-0.2561052242914836,-2.5474098523457847,1.6887026111534072e+18,90.44840714518229,-1.110960238846019,-0.2516764700412749,-2.545119126637777,,,,,,,,,,,,1.6887026111536556e+18,90.44865556640625,12.368359565734863,43.878519439697264,22.950639724731445,1.6887026111536556e+18,90.44865556640625,-242.1724365234375,139.34351806640626,-110.2611572265625,1.6887026111620554e+18,90.45705517578124,0.4369615813096364,-0.7703103621800741,-0.4228990177313487,0.1902248958746591,2.9996121724446616,0.9870426058769226,1.081652283668518
0.5,1.6887026112053094e+18,90.5003095703125,47.291396141052246,-7.703879594802856,5.157431900501251,1.6887026112053094e+18,90.5003095703125,39.6445837020874,-13.469198226928713,3.4202409684658046,1.6887026112053094e+18,90.5003095703125,-7.652660369873047,-5.747813940048218,-1.799878090620041,1.6887026112053115e+18,90.5003115234375,-1.471879820028941,-9.099194089571634,-7.370852788289387,1.6887026112053115e+18,90.5003115234375,-1.472796122233073,-9.094765226046244,-7.36856206258138,,,,,,,,,,,,1.6887026112036562e+18,90.49865600585936,22.05759963989258,40.31367874145508,23.50452003479004,1.6887026112036562e+18,90.49865600585936,-232.48319396972656,135.77867736816407,-109.70727844238282,1.6887026112053094e+18,90.5003095703125,-0.001712366938591,0.0131239593029022,-0.0265706032514572,0.0725671425461768,2.877159833908081,0.6649210155010223,0.9008774161338806
0.55,1.6887026112485676e+18,90.54356762695312,16.802610397338867,-0.6336213747660319,-0.1560134887695312,1.6887026112485676e+18,90.54356762695312,9.55793031056722,-6.733203490575154,-2.5003002484639487,1.6887026112485676e+18,90.54356762695312,-7.250527381896973,-6.082077503204346,-2.4069742361704507,1.688702611257219e+18,90.55221899414062,-2.2219205300013223,4.254371007283528,4.14461890856425,1.688702611257219e+18,90.55221899414062,-2.222938617070516,4.258799870808919,4.146909634272258,,,,,,,,,,,,1.6887026112536602e+18,90.5486599609375,20.45207977294922,40.31124038696289,25.788359451293942,1.6887026112536602e+18,90.5486599609375,-234.0887176513672,135.77623901367187,-107.4234375,1.6887026112485676e+18,90.54356762695312,-0.1127714415391285,0.2956356008847554,0.1039019227027893,0.0439331994081536,2.791735331217448,0.7092448472976685,0.8135066628456116
0.6,1.6887026113004677e+18,90.5954677734375,-0.6602867444356283,5.1098103523254395,0.5897171497344971,1.6887026113004677e+18,90.5954677734375,-6.5571316083272295,-2.6438695987065635,-0.4588237305482228,1.6887026113004677e+18,90.5954677734375,-5.902690887451172,-7.736175378163655,-1.111228307088216,1.6887026113091246e+18,90.60412467447918,0.064089943965276,-0.70733110109965,4.079307158788045,1.6887026113091246e+18,90.60412467447918,0.063173641761144,-0.7029022971789042,4.081597884496053,,,,,,,,,,,,1.688702611303664e+18,90.59866420898436,12.595279884338378,45.31079864501953,20.903479385375977,1.688702611303664e+18,90.59866420898436,-241.9455139160156,140.77579650878906,-112.30831756591796,1.6887026113004677e+18,90.5954677734375,0.4564929902553558,-0.8291324377059937,-0.3086183369159698,0.0898245871067047,2.90911602973938,0.949305514494578,0.8335185249646505
0.65,1.6887026113523766e+18,90.64737687174478,-1.938019037246704,2.0524864196777344,-4.124447147051494,1.6887026113523766e+18,90.64737687174478,-5.936792294184367,-6.703492800394694,-5.874180157979329,1.6887026113523766e+18,90.64737687174478,-4.004619280497233,-8.738474527994791,-1.8124205271402996,1.688702611361021e+18,90.65602091471357,-0.6714427170033258,-4.666195869445801,4.390848398208618,1.688702611361021e+18,90.65602091471357,-0.6724608056247234,-4.661818186442058,4.393139123916626,1.6887026113437128e+18,90.63871264648438,0.0,0.0,3.7943203449249263,7.436999797821045,2.649190664291382,260.3943176269531,43.400001525878906,-122.7531649,49.1887954,1.6887026113536586e+18,90.64865854492189,-0.2074000105261802,45.996439361572264,21.396359634399413,1.6887026113536586e+18,90.64865854492189,-254.7481964111328,141.46143798828126,-111.81543731689452,1.6887026113523766e+18,90.64737687174478,0.5594658652941386,-0.7832385500272115,-0.2605479260285695,0.0579176048437753,2.6272894541422525,1.1386624177296956,0.9804847637812298
0.7,1.6887026114042767e+18,90.69927677408856,17.741427421569824,-34.682125091552734,-2.4843918482462564,1.6887026114042767e+18,90.69927677408856,15.774084568023682,-44.0745964050293,-4.514059861501058,1.6887026114042767e+18,90.69927677408856,-1.973189155260722,-9.374965031941732,-2.092355489730835,1.6887026114042798e+18,90.69927966308596,1.9527834802865984,8.688489198684692,3.983375906944275,1.6887026114042798e+18,90.69927966308596,1.9517908543348312,8.692918062210083,3.9857430458068848,,,,,,,,,,,,1.6887026114036598e+18,90.69865971679688,-12.234159660339357,43.43199920654297,22.967719650268556,1.6887026114036598e+18,90.69865971679688,-266.774951171875,138.8969970703125,-110.24407806396484,1.6887026114042767e+18,90.69927677408856,0.6409401098887125,-0.7060193220774332,-0.2729590187470118,0.0878512859344482,2.1708759466807046,1.2893985112508135,1.4944479862848918
0.75,1.6887026114561823e+18,90.75118253580727,-2.706127166748047,-5.345409393310547,-0.1406317551930745,1.6887026114561823e+18,90.75118253580727,-6.234100619951884,-14.421741167704264,-1.1934203902880351,1.6887026114561823e+18,90.75118253580727,-3.5338194370269775,-9.05882740020752,-1.1154762109120686,1.6887026114475328e+18,90.74253287760416,2.7187066078186035,18.940029780069988,-1.1157453656196594,1.6887026114475328e+18,90.74253287760416,2.7176886002222695,18.94445864359538,-1.1134546399116516,,,,,,,,,,,,1.6887026114536596e+18,90.74865981445312,13.078400015830994,37.00747985839844,30.348719787597656,1.6887026114536596e+18,90.74865981445312,-241.4623992919922,132.47247924804688,-102.86307830810549,1.6887026114561823e+18,90.75118253580727,0.4583429396152496,-0.5676834185918173,-0.5879493157068888,0.3331444958845774,2.7031819025675454,1.1751517057418823,1.9019137223561604
0.8,1.688702611508087e+18,90.80308707682292,0.3127575318018595,2.6920886039733887,2.1175938049952188,1.688702611508087e+18,90.80308707682292,-3.656631827354431,-6.132006804148356,0.5567301114400228,1.688702611508087e+18,90.80308707682292,-3.975235382715861,-8.806590716044107,-1.6235510110855105,1.688702611499431e+18,90.7944305826823,0.5451972310741743,-5.673156301180522,-0.7306966682275137,1.688702611499431e+18,90.7944305826823,0.5441791266202927,-5.6687785387039185,-0.7284058729807535,,,,,,,,,,,,1.6887026115036603e+18,90.79866069335937,19.23939971923828,34.44547958374024,31.537000274658205,1.6887026115036603e+18,90.79866069335937,-235.3013946533203,129.9104797363281,-101.67479705810548,1.688702611508087e+18,90.80308707682292,0.4543220698833465,-0.5628525614738464,-0.6144682963689169,0.3098733723163604,2.651348352432251,1.1086694796880086,1.9654075702031453
0.85,1.688702611559984e+18,90.85498396809896,3.2134071985880532,8.797018686930338,5.238056182861328,1.688702611559984e+18,90.85498396809896,0.0650049994389215,-0.1100698361794153,2.6195425987243652,1.688702611559984e+18,90.85498396809896,-3.154248158137003,-8.889583905537924,-2.6812009811401367,1.6887026115513398e+18,90.8463399251302,-1.1323914527893066,-7.485389868418376,-0.0988583614428837,1.6887026115513398e+18,90.8463399251302,-1.133409559726715,-7.480961163838704,-0.0965676121413707,,,,,,,,,,,,1.68870261155366e+18,90.84865996093752,5.965799760818482,35.55567932128906,34.75291976928711,1.68870261155366e+18,90.84865996093752,-248.5749969482422,131.0206756591797,-98.45887756347656,1.688702611559984e+18,90.85498396809896,0.5603134632110596,-0.6256786783536276,-0.5018294950326284,0.2010887414216995,2.3194823265075684,1.131988883018494,1.8923385938008623
0.9,1.6887026116118925e+18,90.906892578125,0.5863691965738933,10.715778668721518,4.577930450439453,1.6887026116118925e+18,90.906892578125,-1.8803598284721377,1.55972154935201,2.077967047691345,1.6887026116118925e+18,90.906892578125,-2.472575028737386,-9.13855266571045,-2.562650680541992,1.688702611603238e+18,90.89823787434896,-1.9878064393997192,-5.078682740529378,-0.1015054434537887,1.688702611603238e+18,90.89823787434896,-1.9887736638387044,-5.074253877003987,-0.0991637880603472,,,,,,,,,,,,1.6887026116036567e+18,90.898656640625,-4.448119902610779,38.77159881591797,31.84443893432617,1.6887026116036567e+18,90.898656640625,-258.98890991210936,134.23659973144532,-101.3673583984375,1.6887026116118925e+18,90.906892578125,0.6139814058939616,-0.6736581524213155,-0.3861543039480845,0.1370215192437171,2.1928745905558267,1.2064242362976074,1.720732808113098
0.95,1.6887026116551447e+18,90.95014465332032,3.121688961982727,9.92114543914795,3.5305718183517456,1.6887026116551447e+18,90.95014465332032,1.2711870074272156,0.5054837763309479,1.4901303052902222,1.6887026116551447e+18,90.95014465332032,-1.8563480377197263,-9.398157119750977,-2.1031288504600525,1.6887026116551442e+18,90.95014404296876,-1.7298176288604736,-2.466775635878245,1.148782988389333,1.6887026116551442e+18,90.95014404296876,-1.7307339111963909,-2.4623469511667886,1.1510737538337708,,,,,,,,,,,,1.6887026116536635e+18,90.94866342773436,-10.948279571533202,41.52147979736328,25.837159729003908,1.6887026116536635e+18,90.94866342773436,-265.48906860351565,136.98648071289062,-107.37463836669922,1.6887026116551447e+18,90.95014465332032,0.6459493339061737,-0.690773606300354,-0.3040856719017029,0.1137229315936565,2.103578567504883,1.2932613492012024,1.643920600414276
1.0,1.688702611698394e+18,90.99339396158857,-0.4709495703379313,10.29232406616211,2.5762961308161416,1.688702611698394e+18,90.99339396158857,-1.5425729751586914,0.662413070599238,1.0221340656280518,1.688702611698394e+18,90.99339396158857,-1.0774694283803303,-9.612406412760416,-1.6168495019276936,1.6887026117070482e+18,91.00204825846356,-0.6170757214228312,-0.123649314045906,1.6077973047892251,1.6887026117070482e+18,91.00204825846356,-0.6180429061253866,-0.1192205299933751,1.6100880702336628,,,,,,,,,,,,1.688702611703664e+18,90.9986642578125,-15.923439598083496,42.10219879150391,23.104359436035157,1.688702611703664e+18,90.9986642578125,-270.4642395019531,137.56719665527345,-110.10743865966796,1.688702611698394e+18,90.99339396158857,0.6720690131187439,-0.674235204855601,-0.2740216851234435,0.1358751729130744,1.8732027212778728,1.374137242635091,1.8594743808110552
1.05,1.688702611750298e+18,91.04529793294272,0.4563598036766051,6.157700538635254,4.1120225588480634,1.688702611750298e+18,91.04529793294272,-0.5423731605211893,-3.485146244366964,2.6035903692245483,1.688702611750298e+18,91.04529793294272,-1.004578987757365,-9.625342051188152,-1.5711197058359785,1.688702611758947e+18,91.0539471842448,0.6151412924130758,1.4006631175676982,-2.8557949165503183,1.688702611758947e+18,91.0539471842448,0.6141231854756674,1.405091901620229,-2.853504180908203,,,,,,,,,,,,1.6887026117536586e+18,91.04865864257812,-17.223959541320802,42.04607925415039,22.394319915771483,1.6887026117536586e+18,91.04865864257812,-271.76475830078124,137.51107482910157,-110.8174774169922,1.688702611750298e+18,91.04529793294272,0.6763177712758383,-0.6730161905288696,-0.2671919763088226,0.1339717954397201,1.822078267733256,1.3798171679178874,1.8974860509236653
1.1,1.6887026118022034e+18,91.09720336914064,-13.5379319190979,-26.389199256896973,16.006840705871582,1.6887026118022034e+18,91.09720336914064,-17.698911666870117,-35.125240643819176,15.049059549967447,1.6887026118022034e+18,91.09720336914064,-4.1668267250061035,-8.718535423278809,-1.0204686323801675,1.6887026118108518e+18,91.10585188802084,1.0857620636622112,8.174598852793375,-7.179346402486165,1.6887026118108518e+18,91.10585188802084,1.0846930543581643,8.179027557373047,-7.1770046552022295,,,,,,,,,,,,1.6887026118036618e+18,91.09866196289065,0.7807998418807983,42.94888000488281,24.453679656982423,1.6887026118036618e+18,91.09866196289065,-253.75999145507816,138.41387939453125,-108.75811767578124,1.6887026118022034e+18,91.09720336914064,0.5252623359362284,-0.7391794323921204,-0.3762982189655304,0.1690828651189803,2.7403413454691568,1.1412758032480876,1.2171657880147295
1.15,1.6887026118541048e+18,91.14910498046876,-8.70419724782308,-15.391437848409018,-2.154768466949463,1.6887026118541048e+18,91.14910498046876,-14.521043618520102,-23.293132146199543,-1.8031912644704184,1.6887026118541048e+18,91.14910498046876,-5.8226925532023115,-7.884189287821452,0.288889796162645,1.6887026118541025e+18,91.1491026611328,-0.560468852519989,2.454074740409851,0.6952409781515598,1.6887026118541025e+18,91.1491026611328,-0.561537891626358,2.458503544330597,0.697531770914793,1.688702611848664e+18,91.1436640625,0.0,0.0,3.7943203449249263,7.432000160217285,2.670008420944214,260.2555847167969,43.400001525878906,-122.7531801,49.1887933,1.6887026118536596e+18,91.14865981445313,19.02467956542969,40.23071975708008,22.857919692993164,1.6887026118536596e+18,91.14865981445313,-235.5161163330078,135.69571838378906,-110.35387725830078,1.6887026118541048e+18,91.14910498046876,0.3989027639230092,-0.7479301889737447,-0.472323069969813,0.2410269131263096,1.019290606180827,0.9692363142967224,1.140769322713216
1.2,1.688702611906014e+18,91.201013671875,48.27182261149088,-2.0824081103006993,-19.37834294637044,1.688702611906014e+18,91.201013671875,41.29313977559408,-8.827720642089844,-18.482959747314453,1.688702611906014e+18,91.201013671875,-6.984531084696452,-6.727807998657227,0.8326965173085531,1.6887026118973532e+18,91.1923533528646,-5.515705982844035,-5.559993743896484,-5.081177035967509,1.6887026118973532e+18,91.1923533528646,-5.516673008600871,-5.555564920107524,-5.078886310259501,,,,,,,,,,,,1.6887026119036636e+18,91.19866372070312,21.725759506225582,41.172559356689455,17.89007911682129,1.6887026119036636e+18,91.19866372070312,-232.81503601074215,136.63755798339844,-115.32171783447264,1.688702611906014e+18,91.201013671875,0.3437468806902568,-0.8337423006693522,-0.3778156141440074,0.1906256576379139,-3.0665419896443686,0.8083095749219259,0.8216050068537394
1.25,1.6887026119579128e+18,91.25291284179688,-3.529740492502848,-3.404090166091919,-6.91323455174764,1.6887026119579128e+18,91.25291284179688,-10.297711531321209,-10.323434352874756,-5.296114206314087,1.6887026119579128e+18,91.25291284179688,-6.77381706237793,-6.901839892069499,1.5544329086939497,1.68870261194926e+18,91.24426017252604,-1.282511597654472,1.5902859171231587,3.726583401362101,1.68870261194926e+18,91.24426017252604,-1.2834787809600432,1.594714601834615,3.7289250691731777,,,,,,,,,,,,1.6887026119536635e+18,91.24866337890626,24.302399826049804,42.75367889404297,12.295159912109376,1.6887026119536635e+18,91.24866337890626,-230.23839721679687,138.21867980957032,-120.91663665771485,1.6887026119579128e+18,91.25291284179688,0.3561001221338907,-0.8565139969189962,-0.3104911645253499,0.2058303455511728,-2.944216092427572,0.8306326468785604,0.607732911904653
1.3,1.688702612009815e+18,91.30481502278644,2.869819402694702,8.251302401224772,-3.1979873975118003,1.688702612009815e+18,91.30481502278644,-2.639682213465373,0.1734796365102132,-2.3617159525553384,1.688702612009815e+18,91.30481502278644,-5.5153476397196455,-8.060318311055502,0.7735839287439982,1.688702612001161e+18,91.29616088867188,0.0543670008579889,-3.1688125928243003,3.55533758799235,1.688702612001161e+18,91.29616088867188,0.0532979915539423,-3.1643837292989097,3.557628313700358,,,,,,,,,,,,1.6887026120036593e+18,91.29865927734376,14.073919677734375,46.269718933105466,11.71931972503662,1.6887026120036593e+18,91.29865927734376,-240.46687927246097,141.73471374511718,-121.49247589111329,1.688702612009815e+18,91.30481502278644,0.4520890911420186,-0.8286980986595154,-0.2728874385356903,0.1823497613271077,-3.0371199448903403,1.0157007575035095,0.5788801312446594
1.35,1.6887026120617178e+18,91.35671801757812,2.7869505087534585,-0.0750017166137695,-5.512351989746094,1.6887026120617178e+18,91.35671801757812,-1.4057833154996235,-8.94536797205607,-5.483352343241374,1.6887026120617178e+18,91.35671801757812,-4.198579867680867,-8.852861722310385,-0.033687857290109,1.6887026120530678e+18,91.34806762695314,-0.7703010737895966,-4.277533054351807,3.1325170199076333,1.6887026120530678e+18,91.34806762695314,-0.7713191707928976,-4.273104190826416,3.134807745615641,,,,,,,,,,,,1.6887026120536596e+18,91.34865966796876,0.6539200484752655,48.63163833618164,12.253679656982422,1.6887026120536596e+18,91.34865966796876,-253.88687438964843,144.0966369628906,-120.95811614990234,1.6887026120617178e+18,91.35671801757812,0.541995902856191,-0.8070454001426697,-0.1966860244671503,0.1216443603237469,1.0005030632019043,1.178480585416158,0.5104226271311442
1.4,1.6887026121049713e+18,91.39997131347656,10.688746452331545,-21.097185134887695,-6.3531174659729,1.6887026121049713e+18,91.39997131347656,7.716254949569702,-30.38196849822998,-7.447660446166992,1.6887026121049713e+18,91.39997131347656,-2.9783374071121216,-9.267279148101808,-1.1572306752204895,1.6887026121049705e+18,91.39997054036458,3.862042824427286,2.0224222540855408,3.154813528060913,1.6887026121049705e+18,91.39997054036458,3.861024697621664,2.026850998401642,3.157104253768921,,,,,,,,,,,,1.688702612103657e+18,91.39865703125,-7.991000080108643,46.952919006347656,15.5623197555542,1.688702612103657e+18,91.39865703125,-262.53179931640625,142.41791687011718,-117.64947814941408,1.6887026121049713e+18,91.39997131347656,0.6059055030345917,-0.7672854661941528,-0.1954548805952071,0.07228584587574,2.679146409034729,1.279296875,0.8475557863712311
1.45,1.6887026121482168e+18,91.44321671549478,14.669198036193848,-28.12382920583089,8.796120802561441,1.6887026121482168e+18,91.44321671549478,11.652647654215494,-37.29353713989258,7.140582005182902,1.6887026121482168e+18,91.44321671549478,-3.0223962465922036,-9.152202606201172,-1.7182263135910034,1.6887026121568727e+18,91.4518728841146,4.452393134435018,21.664081573486328,0.0874555309613545,1.6887026121568727e+18,91.4518728841146,4.4514767328898115,21.66851043701172,0.0897462666034698,,,,,,,,,,,,1.688702612153664e+18,91.4486640625,3.891800022125244,39.87935943603516,29.316599655151368,1.688702612153664e+18,91.4486640625,-250.64899597167968,135.3443603515625,-103.89519805908203,1.6887026121482168e+18,91.44321671549478,0.550873726606369,-0.6479821602503458,-0.4497960706551869,0.2179121846954027,2.4782129923502603,1.21286936601003,1.6810169617335002
1.5,1.6887026122001267e+18,91.49512679036458,-6.270628452301025,1.7876691818237305,1.7462865114212036,1.6887026122001267e+18,91.49512679036458,-10.63509992758433,-6.981259346008301,1.151346484820048,1.6887026122001267e+18,91.49512679036458,-4.370317459106445,-8.751423835754395,-0.6576274335384369,1.688702612208773e+18,91.5037731933594,-0.2043853402137756,-4.907335013151169,-1.0583749612172444,1.688702612208773e+18,91.5037731933594,-0.2053525249163309,-4.902906179428101,-1.0560842156410215,,,,,,,,,,,,1.688702612203658e+18,91.49865805664062,23.40203971862793,35.223838806152344,28.54067916870117,1.688702612203658e+18,91.49865805664062,-231.13875732421872,130.68883361816407,-104.6711181640625,1.6887026122001267e+18,91.49512679036458,0.3906041085720062,-0.545966645081838,-0.6481887300809225,0.3573000033696492,2.8829711278279624,1.0998960733413696,1.9002244472503664
1.55,1.6887026122520271e+18,91.5470272623698,3.472459157307943,8.102601210276285,3.904998302459717,1.6887026122520271e+18,91.5470272623698,-0.6364908317724863,-0.6334997713565828,2.176072756449382,1.6887026122520271e+18,91.5470272623698,-4.114796002705892,-8.718596458435059,-1.791612982749939,1.6887026122606797e+18,91.5556796875,-1.8151352008183796,-7.791738828023274,-0.1254819035530089,1.6887026122606797e+18,91.5556796875,-1.8161532878875732,-7.787309964497884,-0.1231911592185496,,,,,,,,,,,,1.6887026122536622e+18,91.54866225585938,12.631879997253415,36.49995880126953,32.8472785949707,1.6887026122536622e+18,91.54866225585938,-241.9089141845703,131.96495666503907,-100.36451873779296,1.6887026122520271e+18,91.5470272623698,0.4891338845094045,-0.6236431201299032,-0.5529294808705648,0.2509769052267074,2.6154088179270425,1.0989302396774292,1.777598857879639
1.6,1.6887026123039296e+18,91.5989296875,1.6314142942428589,11.01291020711263,4.827013969421387,1.6887026123039296e+18,91.5989296875,-1.798405647277832,2.0791634718577066,2.6773691972096763,1.6887026123039296e+18,91.5989296875,-3.435666004816691,-8.916242281595865,-2.2123321692148843,1.688702612312583e+18,91.6075829264323,-2.518037478129069,-7.197367032368978,-0.1676825086275736,1.688702612312583e+18,91.6075829264323,-2.518953720728556,-7.192938168843587,-0.1653917667766411,,,,,,,,,,,,1.6887026123036598e+18,91.59865981445311,0.548999959230423,40.01843872070312,30.81475944519043,1.6887026123036598e+18,91.59865981445311,-253.991796875,135.48343505859376,-102.39703826904297,1.6887026123039296e+18,91.5989296875,0.5684675971666971,-0.6929062803586324,-0.4130487938721974,0.1519330715139706,2.437784115473429,1.1587104002634685,1.5462705691655476
1.65,1.6887026123558392e+18,91.65083927408854,4.142844438552856,10.866620699564615,3.002277930577596,1.6887026123558392e+18,91.65083927408854,1.4679967164993286,1.613161285718282,1.1579267183939617,1.6887026123558392e+18,91.65083927408854,-2.680693785349528,-9.235954920450846,-1.907038688659668,1.6887026123558298e+18,91.65082958984374,-2.4542274475097656,-3.628539562225342,0.8640688955783844,1.6887026123558298e+18,91.65082958984374,-2.455220103263855,-3.6241108179092407,0.8663596212863922,,,,,,,,,,,,1.6887026123536584e+18,91.648658203125,-8.400919818878174,43.607678985595705,24.24383964538574,1.6887026123536584e+18,91.648658203125,-262.94171752929685,139.0726776123047,-108.96795806884764,1.6887026123558392e+18,91.65083927408854,0.6181499560674032,-0.728969931602478,-0.2785517275333404,0.0899216458201408,2.3713905016581216,1.2600376605987549,1.3043182293574016
1.7,1.6887026124077356e+18,91.7027354329427,2.0205303033192954,8.793745994567871,1.559780518213908,1.6887026124077356e+18,91.7027354329427,0.2065803507963816,-0.7956135173638662,0.513061061501503,1.6887026124077356e+18,91.7027354329427,-1.8197960058848064,-9.571854909261068,-1.1094068884849548,1.6887026123990848e+18,91.6940850423177,-1.474577824274699,0.2640465001265208,1.7049249410629272,1.6887026123990848e+18,91.6940850423177,-1.4755959312121074,0.2684752643108368,1.707215666770935,1.688702612381787e+18,91.67678686523438,0.0,0.0,3.803820371627808,7.432000160217285,2.6942198276519775,258.1727600097656,43.400001525878906,-122.7532042,49.1887895,1.6887026124036603e+18,91.69866010742189,-13.86407985687256,45.11803970336914,18.978319549560545,1.6887026124036603e+18,91.69866010742189,-268.4048767089844,140.58303833007812,-114.23347778320311,1.6887026124077356e+18,91.7027354329427,0.648321251074473,-0.7160041530927023,-0.2298054993152618,0.118276260793209,2.3630107243855796,1.3859763542811077,1.2781728108723958
1.75,1.6887026124596426e+18,91.75464265950522,-0.7733874320983887,2.6052090326944985,4.271154165267944,1.6887026124596426e+18,91.75464265950522,-2.654437859853109,-7.011967182159424,3.7160534858703618,1.6887026124596426e+18,91.75464265950522,-1.8868964513142903,-9.599671681722006,-0.6177879869937897,1.6887026124509873e+18,91.74598738606772,-0.1241074566884587,3.905719757080078,-0.778242309888204,1.6887026124509873e+18,91.74598738606772,-0.1251255640139182,3.910148541132609,-0.7759515841801962,,,,,,,,,,,,1.6887026124536622e+18,91.74866206054688,-13.97387981414795,44.93503875732422,18.84167938232422,1.6887026124536622e+18,91.74866206054688,-268.5146728515625,140.40003662109376,-114.3701187133789,1.6887026124596426e+18,91.75464265950522,0.6298159758249918,-0.7054028113683065,-0.2691731949647267,0.1782666395107905,2.568310340245565,1.4019206364949544,1.2200522422790527
1.8,1.688702612511545e+18,91.80654516601562,-21.18834686279297,-33.40248807271322,6.521118799845378,1.688702612511545e+18,91.80654516601562,-25.628925323486328,-42.10649998982747,6.324429472287496,1.688702612511545e+18,91.80654516601562,-4.446424802144368,-8.686505635579428,-0.2593770424524943,1.6887026125028895e+18,91.79788997395832,1.3179926574230194,4.656116644541423,-6.494719346364339,1.6887026125028895e+18,91.79788997395832,1.3170254528522491,4.6605455080668134,-6.492428620656331,,,,,,,,,,,,1.688702612503662e+18,91.79866191406248,-0.6612400531768798,44.7935188293457,21.201159286499024,1.688702612503662e+18,91.79866191406248,-255.20203857421876,140.25851440429688,-112.01063995361328,1.688702612511545e+18,91.80654516601562,0.4960543711980184,-0.7454506357510885,-0.3867218792438507,0.213390956322352,2.9832752545674643,1.1373554865519206,1.0593826373418171
1.85,1.68870261255479e+18,91.8497901611328,-3.184099197387696,-9.176607370376589,-2.71655797958374,1.68870261255479e+18,91.8497901611328,-9.066106081008911,-17.030017375946045,-3.0397820472717285,1.68870261255479e+18,91.8497901611328,-5.887852907180786,-7.8359057903289795,-0.3859114199876785,1.6887026125547968e+18,91.84979679361976,-1.0503318905830383,-2.595770001411438,-2.1961623430252075,1.6887026125547968e+18,91.84979679361976,-1.0512990951538086,-2.591341237227122,-2.1938716173171997,,,,,,,,,,,,1.6887026125536612e+18,91.848661328125,13.61763973236084,42.39011917114258,22.667599487304688,1.6887026125536612e+18,91.848661328125,-240.92315368652345,137.85511779785156,-110.54419708251952,1.68870261255479e+18,91.8497901611328,0.4327500164508819,-0.7852507829666138,-0.4060860127210617,0.1757691800594329,3.0083212852478027,0.9661074876785278,1.0245301425457
1.9,1.6887026125980454e+18,91.89304524739585,43.23969062169393,-7.177775541941325,2.887658675511678,1.6887026125980454e+18,91.89304524739585,36.13441319266955,-13.650853474934896,1.5453646183013916,1.6887026125980454e+18,91.89304524739585,-7.111124674479167,-6.455573558807373,-1.4049813350041709,1.6887026126066993e+18,91.90169905598958,-0.724180743098259,-7.692626158396403,-6.231894612312317,1.6887026126066993e+18,91.90169905598958,-0.7250970626870791,-7.688197294871013,-6.229603846867879,,,,,,,,,,,,1.6887026126036616e+18,91.89866162109374,18.329279518127443,40.218518829345705,23.531359481811528,1.6887026126036616e+18,91.89866162109374,-236.21152038574215,135.6835144042969,-109.68043823242188,1.6887026125980454e+18,91.89304524739585,0.1532088617483774,-0.2611370881398518,-0.1344779431819915,0.0828734822571277,2.909053087234497,0.7693522572517395,0.8790399432182312
1.95,1.688702612649954e+18,91.94495410156247,19.912446975708008,-2.478914737701416,-0.8239203294118246,1.688702612649954e+18,91.94495410156247,12.63729445139567,-8.62592633565267,-2.9339993794759116,1.688702612649954e+18,91.94495410156247,-7.280999183654785,-6.129506905873616,-2.1727664470672607,1.6887026126586015e+18,91.9536015625,-1.5751160581906636,4.610658248265584,4.588921546936035,1.6887026126586015e+18,91.9536015625,-1.576083223025004,4.6150868733723955,4.591212272644043,,,,,,,,,,,,1.6887026126536576e+18,91.94865776367187,18.85876007080078,40.11847915649414,24.631799697875977,1.6887026126536576e+18,91.94865776367187,-235.6820373535156,135.58347778320314,-108.57999877929689,1.688702612649954e+18,91.94495410156247,-0.1116512616475423,0.2984755436579386,0.0987541476885477,0.0418942307975763,2.8199530442555747,0.72120600938797,0.7965128421783447
2.0,1.6887026127018555e+18,91.99685587565104,-1.175615310668945,5.002800941467285,-0.7784414688746134,1.6887026127018555e+18,91.99685587565104,-6.93320353825887,-2.861018339792887,-1.7509479920069375,1.6887026127018555e+18,91.99685587565104,-5.763434251149495,-7.846314748128255,-1.035193920135498,1.6887026127105062e+18,92.00550618489584,0.1738420650362968,-1.0614292820294695,4.465832074483235,1.6887026127105062e+18,92.00550618489584,0.1728239556153614,-1.057000478108724,4.468122959136963,,,,,,,,,,,,1.6887026127036582e+18,91.99865825195312,9.99179983139038,44.38603897094727,21.191400146484376,1.6887026127036582e+18,91.99865825195312,-244.5489959716797,139.85103454589844,-112.02039947509766,1.6887026127018555e+18,91.99685587565104,0.4645731747150421,-0.821993907292684,-0.3125235438346863,0.0990498190124829,2.9094579219818115,0.9725311398506165,0.8514028986295065
2.05,1.6887026127537564e+18,92.04875642903646,-0.6404021581013998,3.7736714680989585,-3.251666227976481,1.6887026127537564e+18,92.04875642903646,-4.3700917561848955,-5.139384130636851,-4.82353154818217,1.6887026127537564e+18,92.04875642903646,-3.7355356216430664,-8.895551045735678,-1.634552637736003,1.6887026127624028e+18,92.05740283203124,-0.8523097435633341,-4.460436185201009,4.276514848073323,1.6887026127624028e+18,92.05740283203124,-0.8532769282658895,-4.456007480621338,4.278805732727051,,,,,,,,,,,,1.688702612753662e+18,92.04866196289063,-3.586799991130829,45.42059860229492,21.37195930480957,1.688702612753662e+18,92.04866196289063,-258.1275939941406,140.8855987548828,-111.83983764648436,1.6887026127537564e+18,92.04875642903646,0.5724112192789713,-0.7739007870356241,-0.2573245167732238,0.0717369367678959,2.625638167063395,1.179560581843058,0.9957553942998252
2.1,1.6887026128056586e+18,92.10065844726564,13.315552393595375,-31.375205993652344,-1.163856585820516,1.6887026128056586e+18,92.10065844726564,11.712467829386393,-40.84627914428711,-3.1314072608947754,1.6887026128056586e+18,92.10065844726564,-1.608931024869283,-9.45356814066569,-2.030238072077433,1.6887026128056617e+18,92.10066162109376,1.6371951699256897,4.74390310049057,4.426864147186279,1.6887026128056617e+18,92.10066162109376,1.63627889752388,4.748255640268326,4.429154872894287,,,,,,,,,,,,1.688702612803659e+18,92.0986588378906,-16.31871929168701,43.43687973022461,20.700959396362304,1.688702612803659e+18,92.0986588378906,-270.85950927734376,138.9018768310547,-112.51083526611328,1.6887026128056586e+18,92.10065844726564,0.6605586608250936,-0.7029825647672018,-0.2445008556048075,0.0753554974993069,2.047759890556335,1.317885200182597,1.5547335147857666
2.15,1.688702612857562e+18,92.15256176757812,2.2651259104410806,-6.055632591247559,6.454304377237956,1.688702612857562e+18,92.15256176757812,-0.69850460688273,-15.264413833618164,5.0071808497111,1.688702612857562e+18,92.15256176757812,-2.9694769382476807,-9.191276868184408,-1.5098111430803935,1.6887026128489142e+18,92.1439141438802,2.753424127896627,20.30449930826823,-0.6133086979389191,1.6887026128489142e+18,92.1439141438802,2.752406040827433,20.30892817179362,-0.6110179722309113,,,,,,,,,,,,1.6887026128536622e+18,92.14866220703126,3.723439884185791,37.77363891601563,31.53211898803711,1.6887026128536622e+18,92.14866220703126,-250.8173583984375,133.23863830566407,-101.67967834472655,1.688702612857562e+18,92.15256176757812,0.5042139887809753,-0.5715798536936442,-0.5530807773272196,0.3088168750206629,2.5077900886535645,1.2083460092544556,1.9850554863611856
2.2,1.688702612909468e+18,92.20446785481772,-3.974674860636393,4.857669035593669,-0.6019384066263834,1.688702612909468e+18,92.20446785481772,-7.522037426630656,-4.1992043654123945,-1.8759730259577432,1.688702612909468e+18,92.20446785481772,-3.553208669026693,-9.039368947347006,-1.3367220163345337,1.688702612900817e+18,92.19581689453126,0.5281439227983356,-2.302147388458252,-0.3523674259583155,1.688702612900817e+18,92.19581689453126,0.5272276022781929,-2.2977186838785806,-0.3500257879495621,1.6887026129008172e+18,92.19581713867188,0.0,0.0,3.803820371627808,7.434999942779541,2.7139194011688232,254.56185913085935,43.400001525878906,-122.7532253,49.188785,1.688702612903663e+18,92.19866328125,19.068599510192872,35.514199829101564,31.24663887023926,1.688702612903663e+18,92.19866328125,-235.4721923828125,130.97919616699218,-101.96515808105468,1.688702612909468e+18,92.20446785481772,0.447410782178243,-0.5318158864974976,-0.6256685654322306,0.351439227660497,2.6544431845347085,1.1618717114130657,2.055697202682495
2.25,1.6887026129613714e+18,92.25637133789064,2.7052555084228516,8.404513041178385,4.158889611562093,1.6887026129613714e+18,92.25637133789064,-0.5439683347940444,-0.6123631993929545,2.068196336428324,1.6887026129613714e+18,92.25637133789064,-3.255069891611735,-8.999371528625488,-2.1533806324005127,1.6887026129527163e+18,92.24771663411458,-1.33071901400884,-7.554112275441487,-0.9117164015769958,1.6887026129527163e+18,92.24771663411458,-1.3317371209462483,-7.549683570861816,-0.90937473376592,,,,,,,,,,,,1.688702612953662e+18,92.24866201171876,8.483879852294923,36.12663955688477,34.47231903076172,1.688702612953662e+18,92.24866201171876,-246.05691528320312,131.59163818359374,-98.7394790649414,1.6887026129613714e+18,92.25637133789064,0.5370291272799174,-0.6114099224408468,-0.5242022077242533,0.2453225503365198,2.4221165974934897,1.1596392790476482,1.9002439578374224
2.3,1.6887026130046208e+18,92.29962072753906,2.1899688243865967,9.926143646240234,4.333026170730591,1.6887026130046208e+18,92.29962072753906,-0.9260223954916,0.8850452899932861,2.14516544342041,1.6887026130046208e+18,92.29962072753906,-3.121837258338928,-9.02359390258789,-2.250548243522644,1.688702613004623e+18,92.2996231282552,-1.99696946144104,-6.272873560587565,-1.2989031473795574,1.688702613004623e+18,92.2996231282552,-1.9979874690373736,-6.268444697062175,-1.2966123819351196,,,,,,,,,,,,1.6887026130036564e+18,92.29865629882812,-0.9759999722242356,39.1400390625,31.97863883972168,1.6887026130036564e+18,92.29865629882812,-255.51679382324215,134.60503845214845,-101.23315734863282,1.6887026130046208e+18,92.29962072753906,0.5790806114673615,-0.6770579218864441,-0.4218658357858658,0.1657597497105598,2.3740326166152954,1.1803662180900574,1.6427015662193298
2.35,1.6887026130478764e+18,92.34287613932293,12.146615505218506,8.998702685038248,2.7486159404118857,1.6887026130478764e+18,92.34287613932293,9.184849726657072,-0.105882445971171,0.6127620140711466,1.6887026130478764e+18,92.34287613932293,-2.967612107594808,-9.087080955505373,-2.1985413233439126,1.688702613056525e+18,92.35152490234375,-1.412625898917516,-2.4272731145222983,0.7963646848996481,1.688702613056525e+18,92.35152490234375,-1.4135421613852184,-2.4228951136271157,0.7987063129742941,,,,,,,,,,,,1.6887026130536635e+18,92.34866391601562,-7.80556001663208,42.33887939453125,27.02787971496582,1.6887026130536635e+18,92.34866391601562,-262.3463562011719,137.8038757324219,-106.18391876220704,1.6887026130478764e+18,92.34287613932293,0.604360044002533,-0.721182386080424,-0.3220244646072387,0.0981256067752837,2.359683116277059,1.2116026480992634,1.3959130843480427
2.4,1.6887026130997788e+18,92.39477872721352,1.7063292463620503,7.752054214477539,3.698993682861328,1.6887026130997788e+18,92.39477872721352,-0.1154537399609884,-1.725025733311971,1.94576358795166,1.6887026130997788e+18,92.39477872721352,-1.8276290893554688,-9.459575653076172,-1.8159174124399824,1.6887026131084257e+18,92.40342553710938,1.091616173585256,6.875033855438232,3.4702236652374268,1.6887026131084257e+18,92.40342553710938,1.0905980865160625,6.879462560017903,3.4725143909454346,,,,,,,,,,,,1.6887026131036598e+18,92.39865981445313,-10.640839767456054,41.37507934570313,27.62567901611328,1.6887026131036598e+18,92.39865981445313,-265.181640625,136.84007873535157,-105.58611755371092,1.6887026130997788e+18,92.39477872721352,0.632148822148641,-0.6650566260019938,-0.3527910411357879,0.1747621844212214,2.129835923512777,1.3109839757283528,1.7841507991154988
2.45,1.6887026131516785e+18,92.44667838541666,-4.971954902013143,-5.423428217569987,7.106103738149007,1.6887026131516785e+18,92.44667838541666,-6.949355125427246,-14.894523620605469,5.551149209340413,1.6887026131516785e+18,92.44667838541666,-1.9832462072372437,-9.453591346740724,-1.617641806602478,1.6887026131603302e+18,92.45533032226562,-0.4906774759292603,4.2986587683359785,-3.4191654125849404,1.6887026131603302e+18,92.45533032226562,-0.4915937980016072,4.303087552388509,-3.4168746868769326,,,,,,,,,,,,1.6887026131536591e+18,92.4486591796875,-4.653080010414124,38.93751983642578,31.956678771972655,1.6887026131536591e+18,92.4486591796875,-259.1938812255859,134.40251770019532,-101.25511932373048,1.6887026131516785e+18,92.44667838541666,0.5863462289174398,-0.6062504450480143,-0.4620858232180277,0.2712017893791198,2.2112262646357217,1.2946310838063555,2.0330220460891724
2.5,1.6887026132035835e+18,92.49858374023437,-9.383022944132486,-30.05243492126465,2.8350040515263877,1.6887026132035835e+18,92.49858374023437,-13.828919728597006,-38.76432418823242,2.2987049420674643,1.6887026132035835e+18,92.49858374023437,-4.45174241065979,-8.694384256998697,-0.5989864567915598,1.6887026132122327e+18,92.5072325846354,-1.850463589032491,0.2960660258928936,-4.2382339636484785,1.6887026132122327e+18,92.5072325846354,-1.8515324989954631,0.3004948298136393,-4.235943237940471,,,,,,,,,,,,1.6887026132036608e+18,92.49866074218752,11.380159664154052,39.496279907226565,29.29707908630371,1.6887026132036608e+18,92.49866074218752,-243.16063537597657,134.961279296875,-103.9147171020508,1.6887026132035835e+18,92.49858374023437,0.4635052382946014,-0.6699496308962504,-0.5119987924893697,0.2701012293497721,2.869680166244507,1.1149088541666667,1.4799251556396484
2.55,1.688702613255485e+18,92.55048486328126,0.5908486048380533,-4.920332272847493,-3.543233076731364,1.688702613255485e+18,92.55048486328126,-5.115655442078908,-12.89930820465088,-3.841277917226156,1.688702613255485e+18,92.55048486328126,-5.712350050608317,-7.961471239725749,-0.3607322921355565,1.6887026132554865e+18,92.55048645019532,-2.8622090816497803,-5.197317838668823,-2.1742985248565674,1.6887026132554865e+18,92.55048645019532,-2.8632017374038696,-5.192965269088745,-2.17200767993927,,,,,,,,,,,,1.688702613253663e+18,92.548662890625,15.706279754638672,40.36735916137695,26.32271957397461,1.688702613253663e+18,92.548662890625,-238.8345153808594,135.8323547363281,-106.88907623291016,1.688702613255485e+18,92.55048486328126,0.4258598585923512,-0.747913122177124,-0.4617348810036977,0.2093319048484166,2.99454665184021,0.9832970897356668,1.1854172547658284
2.6,1.6887026133073848e+18,92.602384765625,50.90973027547201,-6.335408846537272,-4.199698368708293,1.6887026133073848e+18,92.602384765625,43.16791661580404,-12.1736847559611,-5.332604726155599,1.6887026133073848e+18,92.602384765625,-7.747661272684733,-5.820771376291911,-1.1955937047799428,1.688702613298741e+18,92.59374080403644,-2.6210700273513794,-6.254598299662272,-7.270925362904866,1.688702613298741e+18,92.59374080403644,-2.6219863096872964,-6.2502204577128095,-7.268634637196858,,,,,,,,,,,,1.6887026133036575e+18,92.59865771484375,22.60904006958008,38.08595962524414,24.7049991607666,1.6887026133036575e+18,92.59865771484375,-231.93175659179687,133.55095825195312,-108.50679779052734,1.6887026133073848e+18,92.602384765625,0.3388941586017608,-0.8590500156084696,-0.3732647796471913,0.0605380325578153,2.947511990865072,0.6829196214675903,0.8871524135271708
2.65,1.6887026133592904e+18,92.65429036458332,-0.9063447316487632,-0.3021989663441976,-3.412635882695516,1.6887026133592904e+18,92.65429036458332,-7.999804178873698,-7.001399040222168,-4.152544418970744,1.6887026133592904e+18,92.65429036458332,-7.099305470784505,-6.681695461273193,-0.8025960127512614,1.6887026133506314e+18,92.64563159179689,-1.5269594589869182,2.5336145559946694,4.4156904220581055,1.6887026133506314e+18,92.64563159179689,-1.5279776056607564,2.5380433003107705,4.418032010396321,,,,,,,,,,,,1.6887026133536566e+18,92.64865659179688,19.859159469604492,40.672359466552734,22.840839767456053,1.6887026133536566e+18,92.64865659179688,-234.68163452148437,136.13735656738282,-110.37095947265624,1.6887026133592904e+18,92.65429036458332,0.383745123942693,-0.8548698226610819,-0.3357378145058949,0.087966260810693,2.9881458282470703,0.798340638478597,0.8122773766517639
2.7,1.6887026134111916e+18,92.70619148763022,0.5683075586954752,7.880283037821452,-1.310997466246287,1.6887026134111916e+18,92.70619148763022,-4.750151793162028,-0.2959124048550923,-2.214557329813639,1.6887026134111916e+18,92.70619148763022,-5.324305375417073,-8.15869108835856,-0.966247260570526,1.688702613402547e+18,92.6975469563802,-0.2217949926853179,-2.34730064868927,4.363664944966634,1.688702613402547e+18,92.6975469563802,-0.2227621972560882,-2.342871824900309,4.365955670674642,,,,,,,,,,,,1.688702613403663e+18,92.69866318359377,8.576599740982056,44.86671905517578,21.410999679565432,1.688702613403663e+18,92.69866318359377,-245.96419677734377,140.33171691894532,-111.80079803466796,1.6887026134111916e+18,92.70619148763022,0.4887270927429199,-0.8104334274927775,-0.3025836845239003,0.1070380707581837,2.896636168162028,1.031140069166819,0.8561451435089111
2.75,1.6887026134544497e+18,92.74944982910156,0.5880845785140991,4.244421720504761,-3.745982050895691,1.6887026134544497e+18,92.74944982910156,-3.077468991279602,-4.724927484989166,-5.253143072128296,1.6887026134544497e+18,92.74944982910156,-3.671399593353271,-8.951844692230225,-1.5698484182357788,1.6887026134544456e+18,92.74944571940108,-1.028035322825114,-4.942510604858398,3.795051256815592,1.6887026134544456e+18,92.74944571940108,-1.0290025075276692,-4.9380819002787275,3.7973419825236,,,,,,,,,,,,1.68870261345366e+18,92.74866000976564,-5.782799860835075,45.6231185913086,20.049479675292968,1.68870261345366e+18,92.74866000976564,-260.32359008789064,141.08811645507814,-113.16231689453124,1.6887026134544497e+18,92.74944982910156,0.5789457559585571,-0.7784709930419922,-0.2327079996466636,0.0616764426231384,2.643136739730835,1.196639060974121,0.92573082447052
2.8,1.6887026134977024e+18,92.79270231119791,15.692192395528158,-26.338019371032715,-4.7184451421101885,1.6887026134977024e+18,92.79270231119791,13.560724258422852,-35.7188606262207,-6.618946234385173,1.6887026134977024e+18,92.79270231119791,-2.137314240137736,-9.363336563110352,-1.9631886879603069,1.688702613506349e+18,92.80134895833332,2.9668197631835938,8.48766714334488,2.8968756993611655,1.688702613506349e+18,92.80134895833332,2.965852518876394,8.49209596713384,2.8991664250691733,,,,,,,,,,,,1.6887026135036636e+18,92.79866362304688,-15.652599906921386,43.575959014892575,20.62531967163086,1.6887026135036636e+18,92.79866362304688,-270.1933959960937,139.04095764160155,-112.58647766113282,1.6887026134977024e+18,92.79270231119791,0.6438689430554708,-0.7282876769701639,-0.2220844974120457,0.0534275844693183,2.2318993409474692,1.2985307772954304,1.3060381015141804
2.85,1.6887026135496008e+18,92.84460099283854,1.5927869478861492,-15.97097651163737,4.261536757151286,1.6887026135496008e+18,92.84460099283854,-1.6305091381072998,-25.099114100138348,2.871387163798014,1.6887026135496008e+18,92.84460099283854,-3.229142109553019,-9.11063321431478,-1.4528371095657349,1.6887026135582543e+18,92.85325447591146,2.5599326292673745,17.248696327209473,-0.1041525304317474,1.6887026135582543e+18,92.85325447591146,2.558914581934611,17.253125190734863,-0.1018617786467075,,,,,,,,,,,,1.6887026135536653e+18,92.84866528320312,8.147159790992736,37.09776000976562,32.00059967041015,1.6887026135536653e+18,92.84866528320312,-246.3936340332031,132.56275329589843,-101.21119842529296,1.6887026135496008e+18,92.84460099283854,0.5014487008253733,-0.5913529594739279,-0.5402370393276215,0.2897623082002004,2.560561021169027,1.190907001495361,1.8805651267369587
2.9,1.688702613601505e+18,92.8965048828125,-0.8619837760925294,3.2947417894999185,-0.2192864418029785,1.688702613601505e+18,92.8965048828125,-4.615754842758179,-5.665605703989665,-1.5383855601151784,1.688702613601505e+18,92.8965048828125,-3.75961701075236,-8.942842801411947,-1.3817864457766216,1.6887026136101612e+18,92.90516129557292,0.4310163259506225,-7.1582207679748535,-0.8500698804855347,1.6887026136101612e+18,92.90516129557292,0.4300491412480671,-7.153792063395183,-0.8477791547775269,,,,,,,,,,,,1.6887026136036598e+18,92.89865986328124,18.478119468688966,34.21611862182617,32.75699882507324,1.6887026136036598e+18,92.89865986328124,-236.06267700195312,129.68111877441407,-100.45479736328124,1.688702613601505e+18,92.8965048828125,0.4439279933770497,-0.536821444829305,-0.6292733351389567,0.3406590521335602,2.6638328234354653,1.137985388437907,2.0372909704844155
2.95,1.6887026136534116e+18,92.94841145833334,2.5273470878601074,8.683761278788248,4.61054007212321,1.6887026136534116e+18,92.94841145833334,-0.7186444203058878,-0.2227319156130155,2.107877333958944,1.6887026136534116e+18,92.94841145833334,-3.2518375714619956,-8.888988494873047,-2.56535005569458,1.6887026136620613e+18,92.95706136067707,-1.520392696062724,-7.209329922993978,-0.3779219736655553,1.6887026136620613e+18,92.95706136067707,-1.521359880765279,-7.204901059468587,-0.3756312131881714,,,,,,,,,,,,1.6887026136536576e+18,92.94865771484376,6.109759855270386,34.59676055908203,36.47555999755859,1.6887026136536576e+18,92.94865771484376,-248.43103637695313,130.06175842285157,-96.73623809814453,1.6887026136534116e+18,92.94841145833334,0.547797958056132,-0.6072411934534708,-0.5276085535685221,0.2237768719593683,2.3405675093332925,1.129357933998108,1.954657514890035
3.0,1.6887026137053184e+18,93.0003184407552,0.3091597159703572,10.585663159688314,4.72988764444987,1.6887026137053184e+18,93.0003184407552,-2.1381864150365195,1.4039886792500813,2.3166511058807373,1.6887026137053184e+18,93.0003184407552,-2.453192154566447,-9.164169947306316,-2.4759238560994468,1.6887026137053128e+18,93.00031262207033,-2.2565362453460693,-4.566599607467651,0.7176902741193771,1.6887026137053128e+18,93.00031262207033,-2.2575289011001587,-4.562247037887573,0.7199810668826103,,,,,,,,,,,,1.688702613703662e+18,92.99866196289062,-5.655919981002808,37.81999893188477,33.352359771728516,1.688702613703662e+18,92.99866196289062,-260.19672241210935,133.28499755859374,-99.85943603515624,1.6887026137053184e+18,93.0003184407552,0.6110381484031677,-0.6583697398503622,-0.4077699184417724,0.1603457232316334,2.1798770427703857,1.2125531832377117,1.8035215934117632
3.05,1.6887026137572188e+18,93.05221891276044,0.1017587979634602,10.824714342753092,2.7971009413401284,1.6887026137572188e+18,93.05221891276044,-0.9736793686946232,1.203789194424947,1.2506486376126609,1.6887026137572188e+18,93.05221891276044,-1.0812841852506,-9.603420893351236,-1.6091396808624268,1.688702613748564e+18,93.04356372070312,-2.126218239466349,-1.207884227236112,2.9140307903289795,1.688702613748564e+18,93.04356372070312,-2.1271345615386963,-1.2034554332494736,2.9163215160369873,,,,,,,,,,,,1.688702613753662e+18,93.04866201171876,-14.59363956451416,40.26731796264649,27.840399932861327,1.688702613753662e+18,93.04866201171876,-269.1344360351562,135.73231506347656,-105.37139892578124,1.6887026137572188e+18,93.05221891276044,0.6626114249229431,-0.6497073570887247,-0.3243771195411682,0.1814946929613749,1.817278703053792,1.364847183227539,2.060168782869974
3.1,1.6887026138091174e+18,93.10411767578124,-1.0956798195838928,7.46134106318156,2.2324976921081543,1.6887026138091174e+18,93.10411767578124,-1.5188441276550293,-2.3146570722262063,1.397408405939738,1.6887026138091174e+18,93.10411767578124,-0.4290103216965993,-9.758493741353352,-0.8977766434351603,1.688702613800464e+18,93.09546394856773,-0.9674578482906024,-0.1844303918381532,0.5924374858538309,1.688702613800464e+18,93.09546394856773,-0.968425010641416,-0.1800016282747189,0.5947791337966918,,,,,,,,,,,,1.6887026138036623e+18,93.09866225585937,-19.983599853515624,40.457637786865234,23.68507957458496,1.6887026138036623e+18,93.09866225585937,-274.52439575195314,135.92263793945312,-109.52671661376954,1.6887026138091174e+18,93.10411767578124,0.6787780920664469,-0.6388402382532755,-0.291807472705841,0.2143428574005762,1.4632456302642822,1.44692329565684,2.4118686517079673
3.15,1.688702613861021e+18,93.1560212402344,-1.1540158589680989,-3.3229173024495444,7.954860687255859,1.688702613861021e+18,93.1560212402344,-3.6209389766057334,-12.71825122833252,6.983452796936035,1.688702613861021e+18,93.1560212402344,-2.4727691411972046,-9.377829233805338,-1.034095545609792,1.6887026138523722e+18,93.14737247721354,1.2164872288703918,2.9249754349390664,-5.499467055002849,1.6887026138523722e+18,93.14737247721354,1.2155200242996216,2.9294042587280273,-5.4971762498219805,,,,,,,,,,,,1.6887026138536607e+18,93.1486607421875,-12.705080032348633,41.76303939819336,24.66839942932129,1.6887026138536607e+18,93.1486607421875,-267.2458801269531,137.22803344726563,-108.54339752197264,1.688702613861021e+18,93.1560212402344,0.598002552986145,-0.6869078079859415,-0.3547160724798838,0.2028525422016779,2.42663852373759,1.3146959940592449,1.534125566482544
3.2,1.688702613904277e+18,93.1992770996094,-22.602863311767575,-35.82858467102051,6.537453353404999,1.688702613904277e+18,93.1992770996094,-28.12553596496582,-43.91158485412598,5.973382771015166,1.688702613904277e+18,93.1992770996094,-5.528518199920654,-8.065494060516357,-0.6267583221197128,1.6887026139042775e+18,93.19927766927084,0.8499171932538351,4.805269638697307,-5.465614954630534,1.6887026139042775e+18,93.19927766927084,0.8489499489466349,4.809698502222697,-5.463324228922526,,,,,,,,,,,,1.688702613903658e+18,93.19865795898436,10.936079788208009,39.903759765625,27.71107940673828,1.688702613903658e+18,93.19865795898436,-243.60471801757816,135.36875915527344,-105.50071716308594,1.688702613904277e+18,93.1992770996094,0.4419031143188476,-0.7359201014041901,-0.4694889485836028,0.2044397145509719,2.925999879837036,1.0030905902385712,1.2552876472473145
3.25,1.6887026139475284e+18,93.24252840169272,-3.5468355814615884,-13.603260199228922,-5.815423329671224,1.6887026139475284e+18,93.24252840169272,-9.377870996793112,-21.504496256510414,-5.756931781768799,1.6887026139475284e+18,93.24252840169272,-5.836881319681804,-7.883732000986735,-0.0041957174738248,1.6887026139561787e+18,93.25117846679689,-3.129309972127279,-2.5906795064608255,-1.986177424589793,1.6887026139561787e+18,93.25117846679689,-3.130277156829834,-2.5862507422765098,-1.9838866988817851,1.6887026139335076e+18,93.22850756835938,0.0,0.0,4.069067478179932,7.440000057220459,2.7471206188201904,251.34132385253903,43.400001525878906,-122.7532555,49.1887779,1.688702613953659e+18,93.24865888671874,14.996239471435548,40.89196014404297,24.812359619140626,1.688702613953659e+18,93.24865888671874,-239.5445526123047,136.3569580078125,-108.3994384765625,1.6887026139475284e+18,93.24252840169272,0.4151650965213775,-0.754453976949056,-0.4577648937702179,0.2193912118673324,3.05469274520874,0.975106716156006,1.1365745862325034
