seconds_elapsed_rounded,accelerometer_time,accelerometer_seconds_elapsed,accelerometer_z,accelerometer_y,accelerometer_x,accelerometeruncalibrated_time,accelerometeruncalibrated_seconds_elapsed,accelerometeruncalibrated_z,accelerometeruncalibrated_y,accelerometeruncalibrated_x,gravity_time,gravity_seconds_elapsed,gravity_z,gravity_y,gravity_x,gyroscope_time,gyroscope_seconds_elapsed,gyroscope_z,gyroscope_y,gyroscope_x,gyroscopeuncalibrated_time,gyroscopeuncalibrated_seconds_elapsed,gyroscopeuncalibrated_z,gyroscopeuncalibrated_y,gyroscopeuncalibrated_x,location_time,location_seconds_elapsed,location_bearingAccuracy,location_speedAccuracy,location_verticalAccuracy,location_horizontalAccuracy,location_speed,location_bearing,location_altitude,location_longitude,location_latitude,magnetometer_time,magnetometer_seconds_elapsed,magnetometer_z,magnetometer_y,magnetometer_x,magnetometeruncalibrated_time,magnetometeruncalibrated_seconds_elapsed,magnetometeruncalibrated_z,magnetometeruncalibrated_y,magnetometeruncalibrated_x,orientation_time,orientation_seconds_elapsed,orientation_qz,orientation_qy,orientation_qx,orientation_qw,orientation_roll,orientation_pitch,orientation_yaw
0.0,1.6887025657119995e+18,45.00699951171875,14.27718464533488,-27.73685582478841,8.093494574228922,1.6887025657119995e+18,45.00699951171875,12.778669993082682,-37.15893999735514,10.48534870147705,1.6887025657119995e+18,45.00699951171875,-1.504360318183899,-9.404579162597656,2.3291664123535156,1.6887025657033516e+18,44.99835148111979,0.3403028510510921,7.283295422792435,0.1013526519139607,1.6887025657033516e+18,44.99835148111979,0.3392338405052821,7.287927756706874,0.1036435365676879,,,,,,,,,,,,1.6887025657036562e+18,44.99865629882813,2.039839922636747,47.64587936401367,-16.699359512329103,1.6887025657036562e+18,44.99865629882813,-252.5009582519531,143.11087951660156,-149.9111572265625,1.6887025657119995e+18,45.00699951171875,-0.5989753405253092,0.6340653896331787,-0.4208542803923288,0.2290068318446477,-2.223125378290812,1.2920482953389485,-1.8880259195963545
0.05,1.6887025657552553e+18,45.05025537109375,2.8454158306121826,-9.258424282073976,1.144553542137146,1.6887025657552553e+18,45.05025537109375,-0.0406780242919921,-18.078373908996586,4.417150497436523,1.6887025657552553e+18,45.05025537109375,-2.8919397592544556,-8.802445888519287,3.209909677505493,1.6887025657552527e+18,45.05025268554687,1.6937256852785747,11.152617454528809,-7.42593240737915,1.6887025657552527e+18,45.05025268554687,1.692758520444234,11.157351811726889,-7.423641681671143,,,,,,,,,,,,1.688702565753658e+18,45.04865776367187,6.5465198993682865,46.82115859985352,-16.821359634399414,1.688702565753658e+18,45.04865776367187,-247.99427185058593,142.2861572265625,-150.0331573486328,1.6887025657552553e+18,45.05025537109375,-0.0121297538280487,-0.0189957618713378,-0.0360109135508537,0.040231067687273,-2.3560954332351685,1.1034119725227356,-1.100297749042511
0.1,1.6887025657985055e+18,45.093506022135415,-2.270811080932617,3.5785330136617026,-1.9701073567072551,1.6887025657985055e+18,45.093506022135415,-5.635296821594238,-5.334598541259766,0.4277170697848002,1.6887025657985055e+18,45.093506022135415,-3.3703317642211914,-8.89562702178955,2.3351369301478067,1.688702565807159e+18,45.10215901692708,2.275014956792196,-4.20529826482137,1.2861258288224535,1.688702565807159e+18,45.10215901692708,2.2740476926167807,-4.200614889462789,1.288416638970375,,,,,,,,,,,,1.6887025658036598e+18,45.09865981445313,10.606679916381836,47.86791915893555,-11.543639755249025,1.6887025658036598e+18,45.09865981445313,-243.93411560058593,143.33291931152343,-144.75543823242188,1.6887025657985055e+18,45.093506022135415,0.1843519806861877,-0.2718709508577983,0.0506415466467539,0.040200083516538,-2.583446661631266,1.1193676392237346,-0.7511552572250366
0.15,1.688702565850409e+18,45.14540901692708,1.7347866694132488,9.458661715189615,1.4922244548797607,1.688702565850409e+18,45.14540901692708,-1.113659533361594,0.1178465187549591,2.600399971008301,1.688702565850409e+18,45.14540901692708,-2.8542922337849936,-9.32331085205078,1.045488138993581,1.688702565859063e+18,45.15406298828125,-0.5621487274765968,-5.8589104016621905,2.219324390093486,1.688702565859063e+18,45.15406298828125,-0.563115951915582,-5.854176203409831,2.221615115801493,,,,,,,,,,,,1.6887025658536617e+18,45.1486615234375,7.71039981842041,49.42463836669922,-6.778319835662842,1.6887025658536617e+18,45.1486615234375,-246.8303955078125,144.88963623046874,-139.9901153564453,1.688702565850409e+18,45.14540901692708,-0.5763013164202372,0.7769831021626791,-0.2253708392381668,0.1065702115495999,-2.8465333779652915,1.2394085725148518,-0.7759337425231934
0.2,1.6887025659023163e+18,45.197316650390626,0.302337646484375,11.169644037882486,1.6446839173634846,1.6887025659023163e+18,45.197316650390626,-1.8372890030344329,1.6261223554611206,2.6275187333424888,1.6887025659023163e+18,45.197316650390626,-2.1454726457595825,-9.52601718902588,0.9201474984486898,1.6887025659109612e+18,45.20596126302083,-0.971784790356954,-4.479525883992513,2.144900600115458,1.6887025659109612e+18,45.20596126302083,-0.972701052824656,-4.474893252054851,2.147242267926534,,,,,,,,,,,,1.6887025659036636e+18,45.19866352539062,4.628679990768433,49.84919891357422,-7.329759693145752,1.6887025659036636e+18,45.19866352539062,-249.91211547851563,145.31419677734374,-140.541552734375,1.6887025659023163e+18,45.197316650390626,-0.5834930141766866,0.7201412916183472,-0.314318984746933,0.2023680955171584,-2.8273359139760337,1.319783051808675,-1.0688761075337727
0.25,1.6887025659542167e+18,45.24921647135417,1.0932013591130574,11.08508586883545,0.774529774983724,1.6887025659542167e+18,45.24921647135417,-0.0175473888715108,1.3732808033625286,1.7762719988822937,1.6887025659542167e+18,45.24921647135417,-1.1165947318077087,-9.694300651550297,0.939054826895396,1.6887025659542185e+18,45.249218505859375,-0.2096031308174132,-3.278971910476685,2.8602237701416016,1.6887025659542185e+18,45.249218505859375,-0.210519429296255,-3.274314045906067,2.86251449584961,,,,,,,,,,,,1.6887025659536556e+18,45.2486556640625,0.1512800157070159,49.84675827026367,-8.23744010925293,1.6887025659536556e+18,45.2486556640625,-254.38951416015624,145.31175537109374,-141.44923706054686,1.6887025659542167e+18,45.24921647135417,-0.5969406763712565,0.6542025208473206,-0.3686022361119588,0.2811151146888733,-2.598716974258423,1.421443263689677,-1.5007595618565877
0.3,1.6887025660061238e+18,45.3011240234375,0.398940662542979,9.551390965779625,-0.1942188143730163,1.6887025660061238e+18,45.3011240234375,0.1228315432866414,-0.2293121715386709,0.7806583742300669,1.6887025660061238e+18,45.3011240234375,-0.2819551875193913,-9.763198852539062,0.912189781665802,1.6887025659974687e+18,45.292468750000005,0.0790561437606811,-1.3657929102579751,1.2805771827697754,1.6887025659974687e+18,45.292468750000005,0.0780889391899108,-1.3611604571342468,1.2828679084777832,,,,,,,,,,,,1.6887025660036593e+18,45.29865942382813,-4.765319871902466,49.69059829711914,-8.571719932556153,1.6887025660036593e+18,45.29865942382813,-259.3061157226563,145.1555938720703,-141.78351745605468,1.6887025660061238e+18,45.3011240234375,-0.6112392743428549,0.6132098436355591,-0.3807249963283539,0.3245814939339955,-2.1244986852010093,1.4911810159683228,-2.0622926553090415
0.35,1.688702566058024e+18,45.35302400716146,1.358853300412496,2.0953830083211265,5.823769052823384,1.688702566058024e+18,45.35302400716146,0.2999004125595093,-7.586842775344849,7.021538734436035,1.688702566058024e+18,45.35302400716146,-1.064798931280772,-9.664721488952637,1.1350821057955425,1.688702566049373e+18,45.34437263997396,-0.3984368449697892,3.313791334629059,-3.0172162652015686,1.688702566049373e+18,45.34437263997396,-0.3994040681670109,3.3183727860450745,-3.0148746172587075,,,,,,,,,,,,1.6887025660536576e+18,45.34865771484375,-2.9743600249290467,49.90531921386719,-8.564400005340577,1.6887025660536576e+18,45.34865771484375,-257.5151611328125,145.3703186035156,-141.7761993408203,1.688702566058024e+18,45.35302400716146,-0.6016821066538492,0.6547017892201742,-0.3655435641606648,0.2700121452411015,-2.493953069051107,1.4149060646692913,-1.5840588808059692
0.4,1.6887025661099282e+18,45.40492822265625,-9.047974586486816,-34.36076672871908,18.594455083211265,1.6887025661099282e+18,45.40492822265625,-12.45384438832601,-42.8400993347168,22.14038912455241,1.6887025661099282e+18,45.40492822265625,-3.4117159048716226,-8.461826801300049,3.483246326446533,1.68870256610128e+18,45.3962802734375,-3.870798587799072,6.5079037348429365,-6.9861094156901045,1.68870256610128e+18,45.3962802734375,-3.871816794077555,6.51253620783488,-6.983818531036377,,,,,,,,,,,,1.688702566103657e+18,45.39865688476563,7.0442800283432,47.1432388305664,-16.32359962463379,1.688702566103657e+18,45.39865688476563,-247.49651489257812,142.60823669433594,-149.535400390625,1.6887025661099282e+18,45.40492822265625,-0.2010148167610168,0.2357681592305501,-0.1191060245037078,0.053598778322339,-2.417630354563395,1.0423006018002827,-1.2984668811162312
0.45,1.688702566161835e+18,45.4568349609375,-4.797513961791992,-4.74705155690511,-6.10824179649353,1.688702566161835e+18,45.4568349609375,-9.712267557779947,-11.91366457939148,-1.5208383798599243,1.688702566161835e+18,45.4568349609375,-4.920599619547526,-7.14910888671875,4.524715900421143,1.6887025661531804e+18,45.44818041992187,-3.2195144494374595,-2.2120958069960275,-1.672549068927765,1.6887025661531804e+18,45.44818041992187,-3.220430612564087,-2.207361549139023,-1.6702073911825817,,,,,,,,,,,,1.6887025661536566e+18,45.448656640625,16.506599807739256,41.07251892089844,-24.78796005249023,1.6887025661536566e+18,45.448656640625,-238.03419494628903,136.5375213623047,-157.9997589111328,1.688702566161835e+18,45.4568349609375,0.4847507178783417,-0.7722396453221639,0.406328946352005,0.0312276985496282,-2.4427897135416665,0.811979333559672,-1.2798635164896648
0.5,1.68870256620508e+18,45.500080078124995,92.66213607788086,-21.15652084350586,-7.661440372467041,1.68870256620508e+18,45.500080078124995,85.18717956542969,-26.45833683013916,-4.089632987976074,1.68870256620508e+18,45.500080078124995,-7.480803489685059,-5.284312009811401,3.5091203451156616,1.6887025662050875e+18,45.50008764648438,-4.283794442812602,-4.761745611826579,-1.5934930443763733,1.6887025662050875e+18,45.50008764648438,-4.28471052646637,-4.7570115725199384,-1.59115136663119,1.6887025661877898e+18,45.48278979492188,0.0,0.0,3.206379652023315,7.236999988555908,2.547682523727417,6.854369640350342,43.400001525878906,-122.7524004,49.1879594,1.6887025662036618e+18,45.49866176757813,32.156759643554686,30.873319244384767,-25.13443946838379,1.6887025662036618e+18,45.49866176757813,-222.38403930664063,126.33831787109376,-158.3462341308594,1.68870256620508e+18,45.500080078124995,-0.3320929110050201,0.7482548356056213,-0.5730012059211731,0.0352457799017429,-2.7419532537460327,0.5671629011631012,-1.425157070159912
0.55,1.6887025662483382e+18,45.543337890625,-3.638240178426107,-5.498824119567871,-6.273147424062093,1.6887025662483382e+18,45.543337890625,-9.412367343902586,-11.670194943745932,-1.2683954238891602,1.6887025662483382e+18,45.543337890625,-5.779973189036052,-6.153866608937581,4.942064603169759,1.6887025662569912e+18,45.55199129231771,1.174032082160314,3.3139948646227517,3.735542774200439,1.6887025662569912e+18,45.55199129231771,1.1730649173259735,3.3186272978782654,3.737884442011515,,,,,,,,,,,,1.6887025662536617e+18,45.54866186523437,24.74891891479492,32.78383941650391,-30.038838958740236,1.6887025662536617e+18,45.54866186523437,-229.7918731689453,128.24883728027345,-163.25064086914062,1.6887025662483382e+18,45.543337890625,-0.144311120112737,0.2392232418060302,-0.1805550058682759,0.0039756473512776,-2.472813924153646,0.6810012459754944,-1.5362505118052163
0.6,1.688702566300246e+18,45.59524584960938,-0.7386809984842936,7.115475495656331,-6.053601582845052,1.688702566300246e+18,45.59524584960938,-5.018347342809041,-0.4570291390021642,-1.4620146751403809,1.688702566300246e+18,45.59524584960938,-4.285512367884318,-7.554999987284343,4.528899510701497,1.6887025663088937e+18,45.60389363606771,1.8224655787150064,-1.7196874618530271,3.627419630686442,1.6887025663088937e+18,45.60389363606771,1.8215492169062295,-1.7150550484657288,3.6297103563944497,,,,,,,,,,,,1.6887025663036595e+18,45.598659667968754,16.306519317626954,39.18639984130859,-27.30359916687012,1.6887025663036595e+18,45.598659667968754,-238.2342742919922,134.65139770507812,-160.51539611816406,1.688702566300246e+18,45.59524584960938,-0.5186447302500407,0.6921761433283488,-0.4978874425093333,0.0554321787009636,-2.372344573338826,0.8850255012512207,-1.6262605985005696
0.65,1.6887025663521492e+18,45.64714900716146,1.265440543492635,8.52671527862549,-5.689020156860352,1.6887025663521492e+18,45.64714900716146,-2.117847482363383,-0.0035891930262247,-2.1429720719655356,1.6887025663521492e+18,45.64714900716146,-3.3891340096791587,-8.512799898783365,3.4833606084187827,1.688702566360799e+18,45.655798828125,0.296778696278731,-3.1106276512145996,3.5657222270965576,1.688702566360799e+18,45.655798828125,0.2958623940745989,-3.105995257695516,3.5680129528045654,,,,,,,,,,,,1.6887025663536584e+18,45.6486583984375,12.048719596862792,43.39783935546875,-22.921359634399415,1.6887025663536584e+18,45.6486583984375,-242.49207763671876,138.8628356933594,-156.1331573486328,1.6887025663521492e+18,45.64714900716146,-0.5419881542523702,0.6502823034922282,-0.5051382184028625,0.1643176873524983,-2.3871304988861084,1.0590500036875408,-1.7774227460225422
0.7,1.6887025664040522e+18,45.69905216471354,12.772412459055582,-12.37016487121582,-2.20204750696818,1.6887025664040522e+18,45.69905216471354,10.4317098458608,-21.44188404083252,0.8031908671061198,1.6887025664040522e+18,45.69905216471354,-2.3465487162272134,-9.054214795430502,2.9425508975982666,1.6887025664040466e+18,45.69904650878907,1.36566561460495,2.573269933462143,1.3216833751648664,1.6887025664040466e+18,45.69904650878907,1.3647493720054626,2.5780040621757507,1.3240504674613476,,,,,,,,,,,,1.6887025664036608e+18,45.69866079101563,6.707559967041016,45.137559509277345,-21.1279598236084,1.6887025664036608e+18,45.69866079101563,-247.8332366943359,140.60255737304686,-154.33975524902343,1.6887025664040522e+18,45.69905216471354,-0.5707855621973673,0.6193218231201172,-0.4891346395015716,0.2230713019768396,-2.2906030813852944,1.1857857306798298,-1.929686705271403
0.75,1.6887025664559565e+18,45.750956542968744,-4.169297456741332,-28.09109401702881,6.0171200434366865,1.6887025664559565e+18,45.750956542968744,-6.410770654678345,-37.232120513916016,8.87896720568339,1.6887025664559565e+18,45.750956542968744,-2.247319221496582,-9.12352180480957,2.7991594473520913,1.6887025664473016e+18,45.74230151367187,3.5652640660603843,16.25364812215169,-5.41918929417928,1.6887025664473016e+18,45.74230151367187,3.564347823460897,16.258331298828125,-5.4168985684712725,,,,,,,,,,,,1.6887025664536648e+18,45.74866479492188,1.7397199392318723,47.70931854248047,-15.586719703674316,1.6887025664536648e+18,45.74866479492188,-252.8010711669922,143.17431640625,-148.79851684570312,1.6887025664559565e+18,45.750956542968744,-0.2152213056882222,0.2220577994982401,-0.1395822614431381,0.065320298851778,-2.2977987130482993,1.190219521522522,-1.197426716486613
0.8,1.6887025665078582e+18,45.80285815429687,10.817715088526407,-0.7902007102966309,-0.682930588722229,1.6887025665078582e+18,45.80285815429687,7.020143151283264,-9.194620291392008,2.756531755129496,1.6887025665078582e+18,45.80285815429687,-3.803418238957723,-8.38691488901774,3.3767749468485513,1.688702566499209e+18,45.794208740234374,0.322944089770317,3.8364882866541543,-4.881475190321605,1.688702566499209e+18,45.794208740234374,0.3219768851995467,3.8410697778066,-4.879184300700824,,,,,,,,,,,,1.6887025665036588e+18,45.798658642578125,11.84131965637207,46.66255798339843,-14.50823974609375,1.6887025665036588e+18,45.798658642578125,-242.69947509765623,142.12755432128907,-147.72003784179688,1.6887025665078582e+18,45.80285815429687,0.5215340654055277,-0.835029681523641,0.0835003529985745,0.1530984342098235,-2.4434324900309243,1.0078088243802388,-0.5955784320831299
0.85,1.6887025665597637e+18,45.85476383463541,2.78300412495931,7.539596875508626,-0.4273640712102253,1.6887025665597637e+18,45.85476383463541,-0.8765707214673361,-1.160718361536662,2.3451656103134155,1.6887025665597637e+18,45.85476383463541,-3.665420929590861,-8.68281078338623,2.7098422845204673,1.6887025665511089e+18,45.84610921223958,-0.8010479509830475,-6.144693533579509,2.928691546122233,1.6887025665511089e+18,45.84610921223958,-0.8020151704549789,-6.140010039011638,2.931033213933309,,,,,,,,,,,,1.6887025665536602e+18,45.848660205078126,12.795359802246091,47.07491912841797,-12.76851978302002,1.6887025665536602e+18,45.848660205078126,-241.7454345703125,142.5399169921875,-145.98031616210938,1.6887025665597637e+18,45.85476383463541,0.5459142128626505,-0.8194314042727152,0.1566853870948155,0.0593946377436319,-2.5418134530385337,1.0722511609395344,-0.7417168219884237
0.9,1.6887025666116672e+18,45.90666731770833,5.684384346008301,11.42697842915853,-1.3632365862528484,1.6887025666116672e+18,45.90666731770833,2.5286153157552085,2.5118655363718667,1.3575280507405598,1.6887025666116672e+18,45.90666731770833,-3.1616152127583823,-8.897608121236166,2.6580772399902344,1.6887025666030152e+18,45.89801529947917,-1.8784106572469077,-4.576449712117513,2.070578694343567,1.6887025666030152e+18,45.89801529947917,-1.879428744316101,-4.571715672810872,2.0728694200515747,,,,,,,,,,,,1.6887025666036608e+18,45.89866079101562,9.308599853515624,47.72883911132813,-13.15891990661621,1.6887025666036608e+18,45.89866079101562,-245.2321929931641,143.19383850097657,-146.37071838378907,1.6887025666116672e+18,45.90666731770833,-0.5718895395596822,0.7752399245897929,-0.2647748738527298,0.0295431430762012,-2.4988512992858887,1.126966158548991,-1.072945495446523
0.95,1.688702566654916e+18,45.949916015625,2.1483397483825684,10.277100563049316,-3.0674537420272827,1.688702566654916e+18,45.949916015625,-1.0731809847056866,1.419841185212135,-0.233898401260376,1.688702566654916e+18,45.949916015625,-3.227366805076599,-8.839754581451416,2.770867943763733,1.688702566654921e+18,45.949920979817705,-1.276911973953247,-3.7633371353149414,1.046615799268087,1.688702566654921e+18,45.949920979817705,-1.2778282761573792,-3.7586538791656494,1.0489065249760945,,,,,,,,,,,,1.6887025666536538e+18,45.94865390625,9.093879890441894,47.37503890991211,-15.603799629211426,1.6887025666536538e+18,45.94865390625,-245.44691772460936,142.84003601074218,-148.8156005859375,1.688702566654916e+18,45.949916015625,-0.5658598244190216,0.7480566799640656,-0.337431788444519,0.0777001567184925,-2.488518476486206,1.1182395219802856,-1.265120565891266
1.0,1.688702566698173e+18,45.99317277018229,2.3800507386525473,8.37137540181478,-3.7677601178487143,1.688702566698173e+18,45.99317277018229,-0.8677970369656881,-0.5523432257274786,-1.1916256546974182,1.688702566698173e+18,45.99317277018229,-3.2536937395731607,-8.906214078267416,2.5134470462799072,1.68870256670682e+18,46.00182014973958,-0.1947133019566535,-2.222938656806946,0.8385652701059977,1.68870256670682e+18,46.00182014973958,-0.1957314051687717,-2.2182552814483643,0.8408559958140055,1.6887025667068268e+18,46.00182666015625,0.0,0.0,3.206379652023315,7.265999794006348,2.5528056621551514,6.559327125549316,43.400001525878906,-122.7524004,49.1879767,1.6887025667036626e+18,45.99866284179687,9.081679916381836,46.78943939208985,-16.099119567871092,1.6887025667036626e+18,45.99866284179687,-245.45911560058593,142.2544403076172,-149.3109161376953,1.688702566698173e+18,45.99317277018229,-0.5583908359209696,0.7278743187586466,-0.3776012063026428,0.1246436536312102,-2.5333480834960938,1.1367847522099812,-1.3527385393778484
1.05,1.6887025667500736e+18,46.04507348632813,1.4857031504313152,2.884373346964518,-0.7307287057240804,1.6887025667500736e+18,46.04507348632813,-1.6941183805465698,-6.095316727956136,1.731007754802704,1.6887025667500736e+18,46.04507348632813,-3.1856675942738852,-8.962185541788736,2.3990490436553955,1.6887025667587284e+18,46.05372835286459,-0.3100650136669476,1.5788830543557804,-0.5967644564807415,1.6887025667587284e+18,46.05372835286459,-0.3109813096622625,1.583566283186277,-0.5944227625926336,,,,,,,,,,,,1.688702566753663e+18,46.0486630859375,9.623359870910644,47.040757751464845,-15.857559394836423,1.688702566753663e+18,46.0486630859375,-244.9174377441406,142.50575561523436,-149.0693572998047,1.6887025667500736e+18,46.04507348632813,-0.5585008064905802,0.7210528254508972,-0.385298232237498,0.1397850488622983,-2.545120636622111,1.1513057549794514,-1.3752676248550415
1.1,1.688702566801977e+18,46.09697713216146,-6.996217568715413,-33.614158630371094,9.153228123982748,1.688702566801977e+18,46.09697713216146,-10.048858165740969,-42.396830240885414,12.369895935058594,1.688702566801977e+18,46.09697713216146,-3.0584863821665444,-8.76516596476237,3.1539798577626548,1.6887025668106312e+18,46.10563102213541,-1.2755883932113647,2.931084156036377,-0.374714915951093,1.6887025668106312e+18,46.10563102213541,-1.2765556573867798,2.935818354288737,-0.3724241803089778,,,,,,,,,,,,1.688702566803655e+18,46.09865473632813,8.076400089263917,46.0671989440918,-19.358959579467772,1.688702566803655e+18,46.09865473632813,-246.46439514160156,141.53219909667968,-152.57076110839844,1.688702566801977e+18,46.09697713216146,-0.5754231810569763,0.7298653920491537,-0.3607773085435231,0.0736434186498323,-2.386709531148275,1.1049710512161257,-1.3973934253056843
1.15,1.6887025668538852e+18,46.14888525390625,0.612692674001058,-6.910128752390544,-0.974787712097168,1.6887025668538852e+18,46.14888525390625,-2.733002185821533,-15.183855374654136,3.1680970986684165,1.6887025668538852e+18,46.14888525390625,-3.3515408833821616,-8.256222248077393,4.08019741376241,1.6887025668625316e+18,46.15753149414062,-1.6075427929560344,-0.8974628349145254,-3.231375296910604,1.6887025668625316e+18,46.15753149414062,-1.6085609197616575,-0.8927286565303804,-3.2290337085723877,,,,,,,,,,,,1.6887025668536607e+18,46.14866083984375,9.337879848480224,43.87119903564453,-23.19707946777344,1.6887025668536607e+18,46.14866083984375,-245.20291442871093,139.33619995117186,-156.40887451171875,1.6887025668538852e+18,46.14888525390625,0.1776668032010396,-0.2537703514099121,0.1238491833209991,0.0123470768642922,-2.2936975955963135,1.0011432369550068,-1.3817944526672363
1.2,1.688702566905785e+18,46.20078491210938,25.3001028696696,-1.1876481374104817,8.572710514068605,1.688702566905785e+18,46.20078491210938,18.599810282389324,-7.693722565968831,10.62871903181076,1.688702566905785e+18,46.20078491210938,-6.706138928731282,-6.488569895426433,1.9933211108048756,1.6887025669057882e+18,46.20078820800781,-0.5443572755903007,-17.947373867034912,-8.182311058044434,1.6887025669057882e+18,46.20078820800781,-0.5452736038714647,-17.94263982772827,-8.180020332336426,,,,,,,,,,,,1.6887025669036598e+18,46.19865981445312,29.089679145812987,36.54143905639648,-17.697319889068602,1.6887025669036598e+18,46.19865981445312,-225.45111694335935,132.00643615722657,-150.90911560058595,1.688702566905785e+18,46.20078491210938,-0.3602388699849446,0.7907766302426656,-0.4665864805380503,0.0878415406526376,-0.759830633799235,0.7224865357081095,-1.190159519513448
1.25,1.6887025669576911e+18,46.25269116210938,26.821124871571858,-0.1378890673319498,2.44497819741567,1.6887025669576911e+18,46.25269116210938,19.78525400161743,-6.8929243087768555,2.3092731833457947,1.6887025669576911e+18,46.25269116210938,-7.041717529296875,-6.737530549367269,-0.1983924756447473,1.6887025669490432e+18,46.244043212890624,-2.0316359599431357,-0.2843578656514485,3.1234049002329507,1.6887025669490432e+18,46.244043212890624,-2.0325522820154824,-0.2796236673990885,3.1256956259409585,,,,,,,,,,,,1.6887025669536558e+18,46.24865581054688,36.9147590637207,35.12379913330078,-3.5477600626647474,1.6887025669536558e+18,46.24865581054688,-217.62603759765625,130.58879547119142,-136.75955505371093,1.6887025669576911e+18,46.25269116210938,-0.2878911346197128,0.7548008362452189,-0.5385695099830627,0.2314909547567367,0.9980966250101724,0.7546733021736145,-1.2242565552393596
1.3,1.688702567009597e+18,46.304596842447914,-1.158976713816325,3.6388947168986,-2.032965858777364,1.688702567009597e+18,46.304596842447914,-6.5503519376118975,-4.288137594858806,0.0915254587307572,1.688702567009597e+18,46.304596842447914,-5.3972212473551435,-7.909527937571208,2.061803936958313,1.6887025670009444e+18,46.29594425455729,-0.3736459215482076,4.576144218444824,3.5082499186197915,1.6887025670009444e+18,46.29594425455729,-0.3745622038841247,4.580827474594116,3.510591665903727,,,,,,,,,,,,1.6887025670036567e+18,46.29865678710938,25.654159927368163,40.50155868530273,-14.852279663085938,1.6887025670036567e+18,46.29865678710938,-228.8866394042969,135.96655883789063,-148.06408081054687,1.688702567009597e+18,46.304596842447914,-0.4401162564754485,0.7337127923965454,-0.4903671046098073,0.1630078752835591,-2.8073615233103433,0.9377926588058472,-1.3503137826919556
1.35,1.6887025670614996e+18,46.356499430338545,-2.6646578311920166,3.7600444157918296,-3.0715132554372153,1.6887025670614996e+18,46.356499430338545,-6.607779820760091,-5.034498850504558,-1.1860424478848774,1.6887025670614996e+18,46.356499430338545,-3.948968013127645,-8.77703857421875,1.822783390680949,1.6887025670528484e+18,46.34784847005208,0.9337075352668762,-1.0691159963607788,3.4749070008595786,1.6887025670528484e+18,46.34784847005208,0.9326894084612528,-1.064432680606842,3.4771977265675864,,,,,,,,,,,,1.6887025670536607e+18,46.34866069335938,17.15807933807373,44.52755889892578,-15.02307949066162,1.6887025670536607e+18,46.34866069335938,-237.3827209472656,139.9925567626953,-148.23487548828126,1.6887025670614996e+18,46.356499430338545,-0.5010334750016531,0.7017029921213785,-0.4605874518553416,0.2082885106404622,-2.7507505416870117,1.1106754144032798,-1.4056854248046875
1.4,1.6887025671047526e+18,46.39975244140625,19.369654655456543,-24.499877452850345,0.0812574625015258,1.6887025671047526e+18,46.39975244140625,16.890934944152832,-33.95116138458252,1.1183454394340515,1.6887025671047526e+18,46.39975244140625,-2.4845669269561768,-9.433780193328856,0.974400520324707,1.6887025671047514e+18,46.39975122070313,1.3685417970021565,1.8667022387186687,3.114190916220347,1.6887025671047514e+18,46.39975122070313,1.3676254749298096,1.8714364767074585,3.1164818008740744,,,,,,,,,,,,1.688702567103661e+18,46.39866108398438,8.683959865570069,47.70443954467773,-10.775039863586423,1.688702567103661e+18,46.39866108398438,-245.8568328857422,143.1694366455078,-143.98683471679686,1.6887025671047526e+18,46.39975244140625,-0.5305509567260742,0.6544173061847687,-0.4478796273469925,0.298890471458435,-2.8257668018341064,1.2958731055259705,-1.4405120611190796
1.45,1.6887025671480102e+18,46.44301009114583,5.115365187327067,-23.86070156097412,9.711787700653076,1.6887025671480102e+18,46.44301009114583,2.7202406177918106,-33.26641654968262,11.216156641642252,1.6887025671480102e+18,46.44301009114583,-2.400970538457235,-9.388209660847982,1.4416812658309937,1.688702567156652e+18,46.45165209960937,2.0624846617380777,16.09171772003174,-5.473199844360352,1.688702567156652e+18,46.45165209960937,2.0615175565083823,16.09635003407796,-5.470909118652344,,,,,,,,,,,,1.68870256715366e+18,46.44865991210938,4.7677600383758545,48.65359878540039,-8.742520141601563,1.68870256715366e+18,46.44865991210938,-249.77303466796872,144.11859741210938,-141.95431823730468,1.6887025671480102e+18,46.44301009114583,-0.2011173367500305,0.2163564960161844,-0.1499451249837875,0.1131032469371954,-2.6611317793528237,1.274105230967204,-0.992804765701294
1.5,1.688702567199905e+18,46.494904947916666,-1.2000176906585691,1.6527706782023113,-2.4967008034388223,1.688702567199905e+18,46.494904947916666,-4.93659241994222,-7.260222752888997,-0.6973084211349487,1.688702567199905e+18,46.494904947916666,-3.742420752843221,-8.895488739013672,1.73670494556427,1.6887025672085563e+18,46.50355615234375,1.035162091255188,-2.370869795481364,0.0753909150759379,1.6887025672085563e+18,46.50355615234375,1.0341948469479878,-2.366288344065348,0.0776816407839457,1.6887025672258609e+18,46.52086083984375,0.0,0.0,3.216513395309448,7.34499979019165,2.561506986618042,6.135742664337158,43.400001525878906,-122.7524031,49.1879856,1.6887025672036588e+18,46.49865883789063,13.183319664001464,47.83619842529297,-7.434679698944092,1.6887025672036588e+18,46.49865883789063,-241.3574737548828,143.3011962890625,-140.64647521972657,1.688702567199905e+18,46.494904947916666,0.546864906946818,-0.8312103152275085,0.0858378360668817,0.047582530726989,-2.7311373551686606,1.1222378810246785,-0.4659240245819092
1.55,1.6887025672518134e+18,46.54681339518229,2.07663631439209,8.415365219116211,1.582552433013916,1.6887025672518134e+18,46.54681339518229,-1.1048858265082042,-0.8458628058433533,2.358525514602661,1.6887025672518134e+18,46.54681339518229,-3.187368154525757,-9.243723551432293,0.7132856845855713,1.6887025672604634e+18,46.55546346028646,-0.7812457382678986,-6.2303164800008135,2.5850799083709717,1.6887025672604634e+18,46.55546346028646,-0.7822129428386688,-6.22568416595459,2.5874216556549072,,,,,,,,,,,,1.6887025672536576e+18,46.548657568359374,10.260199737548827,48.84879913330078,-3.750279951095581,1.6887025672536576e+18,46.548657568359374,-244.2805938720703,144.3137969970703,-136.96207580566406,1.6887025672518134e+18,46.54681339518229,-0.5699771444002787,0.8029737671216329,-0.1527846306562423,0.0688122709592183,-2.9547489484151206,1.2186535199483235,-0.506610780954361
1.6,1.6887025673037158e+18,46.59871590169271,1.518093427022298,11.56118392944336,1.1459808746973674,1.6887025673037158e+18,46.59871590169271,-0.757727158566316,2.0243279933929443,1.817348798116048,1.6887025673037158e+18,46.59871590169271,-2.2816665967305503,-9.51935132344564,0.6086805462837219,1.6887025673123628e+18,46.60736271158854,-1.7262542645136516,-5.529144922892253,1.7341446081797285,1.6887025673123628e+18,46.60736271158854,-1.7272214889526367,-5.524512608846028,1.7364354133605957,,,,,,,,,,,,1.6887025673036603e+18,46.598660498046875,5.521719837188721,49.722319793701175,-4.335879850387573,1.6887025673036603e+18,46.598660498046875,-249.01907653808593,145.18731994628905,-137.54767456054688,1.6887025673037158e+18,46.59871590169271,-0.589341382185618,0.7439985275268555,-0.2597663899262745,0.173083538810412,-2.938738981882731,1.318549394607544,-0.8305676778157552
1.65,1.6887025673556186e+18,46.65061848958334,0.8167252143224081,11.087826093037924,0.6789216796557108,1.6887025673556186e+18,46.65061848958334,-1.0257233381271362,1.4803595940272014,1.657428503036499,1.6887025673556186e+18,46.65061848958334,-1.8482945362726848,-9.589962005615234,0.9158194263776144,1.68870256735562e+18,46.6506201171875,-1.592067539691925,-5.97800350189209,1.2434925436973572,1.68870256735562e+18,46.6506201171875,-1.5930601954460144,-5.973345756530762,1.245783269405365,,,,,,,,,,,,1.688702567353659e+18,46.648658740234374,3.2476398944854736,49.31483840942383,-7.363919830322265,1.688702567353659e+18,46.648658740234374,-251.29315490722655,144.77983703613282,-140.57572021484376,1.6887025673556186e+18,46.65061848958334,-0.5785396496454874,0.6788713733355204,-0.3689242800076802,0.258039633433024,-2.766084909439087,1.3581016858418782,-1.3005560636520386
1.7,1.688702567407524e+18,46.70252408854166,3.483912944793701,8.636234601338705,-0.5688649813334147,1.688702567407524e+18,46.70252408854166,1.8177475531895957,-0.9732806285222372,0.6905287255843481,1.688702567407524e+18,46.70252408854166,-1.6720114549001055,-9.592010815938314,1.1967062950134275,1.6887025673988744e+18,46.69387426757813,-0.9198103149731954,-2.7903305490811667,0.3270165224870047,1.6887025673988744e+18,46.69387426757813,-0.9208284417788188,-2.785749077796936,0.3293072879314422,,,,,,,,,,,,1.6887025674036608e+18,46.69866079101563,3.591679906845093,48.74631805419922,-10.111359977722168,1.6887025674036608e+18,46.69866079101563,-250.94911499023436,144.21131591796876,-143.32315979003906,1.688702567407524e+18,46.70252408854166,-0.562252938747406,0.6301016608874003,-0.4369967778523763,0.3095108966032664,-2.6194542249043784,1.366161227226257,-1.6408898035685222
1.75,1.6887025674594255e+18,46.75442553710938,-0.3203802108764648,1.7173983256022136,3.227165142695109,1.6887025674594255e+18,46.75442553710938,-2.273979107538859,-7.821738243103027,4.586642185846965,1.6887025674594255e+18,46.75442553710938,-1.9594449202219648,-9.521631876627604,1.2967896064122515,1.6887025674507717e+18,46.74577189127603,0.6207917928695679,3.6231436332066855,-1.390583833058675,1.6887025674507717e+18,46.74577189127603,0.6198755105336508,3.627877712249756,-1.3882930874824524,,,,,,,,,,,,1.688702567453657e+18,46.74865727539062,4.277320051193238,48.724359130859376,-10.66035976409912,1.688702567453657e+18,46.74865727539062,-250.2634765625,144.18935852050782,-143.87216186523438,1.6887025674594255e+18,46.75442553710938,-0.5695433616638184,0.6627877751986185,-0.4050826430320739,0.2655016581217448,-2.6506823698679605,1.3321491877237956,-1.4874886671702068
1.8,1.688702567511332e+18,46.80633243815104,-9.496016502380373,-29.53393427530925,15.836019515991213,1.688702567511332e+18,46.80633243815104,-12.894721666971842,-38.42035675048828,18.224534670511883,1.688702567511332e+18,46.80633243815104,-3.4045511881510415,-8.868916511535645,2.325828313827514,1.6887025675026732e+18,46.797673421223955,-0.204028973976771,9.13386090596517,-5.329952081044515,1.6887025675026732e+18,46.797673421223955,-0.2050980081160862,9.138493220011393,-5.327661355336507,,,,,,,,,,,,1.6887025675036623e+18,46.79866245117187,9.149999809265136,47.46043930053711,-12.336639595031738,1.6887025675036623e+18,46.79866245117187,-245.3907958984375,142.9254364013672,-145.5484375,1.688702567511332e+18,46.80633243815104,-0.1912605365117391,0.238172431786855,-0.1230397323767343,0.0799352826240161,-2.610443592071533,1.128241499265035,-1.086433966954549
1.85,1.688702567554585e+18,46.8495849609375,-4.518783688545227,-9.908134937286375,-0.2799339294433594,1.688702567554585e+18,46.8495849609375,-8.43858814239502,-17.980865478515625,3.763610899448395,1.688702567554585e+18,46.8495849609375,-3.925650477409363,-8.05522632598877,3.980857372283935,1.6887025675545807e+18,46.849580810546875,-2.6256006161371865,3.1459050873915353,-2.038864572842916,1.6887025675545807e+18,46.849580810546875,-2.626567840576172,3.150588403145472,-2.036573807398478,,,,,,,,,,,,1.6887025675536563e+18,46.848656298828125,13.13451976776123,43.63695831298829,-20.417919921875,1.6887025675536563e+18,46.848656298828125,-241.4062744140625,139.10195922851562,-153.6297149658203,1.688702567554585e+18,46.8495849609375,0.5328265428543091,-0.8020544648170471,0.2591838836669921,0.0732359383255243,-2.390827894210815,0.9560050666332244,-1.0275201797485352
1.9,1.6887025675978383e+18,46.89283821614583,26.70245107014974,-9.216084162394203,-2.1093878746032715,1.6887025675978383e+18,46.89283821614583,20.520647366841633,-15.61556069056193,1.523430347442627,1.6887025675978383e+18,46.89283821614583,-6.1876481374104815,-6.381972312927246,3.5701305071512857,1.6887025676064865e+18,46.90148632812499,-5.593438466389974,-15.24505869547526,-3.7263287703196206,1.6887025676064865e+18,46.90148632812499,-5.594354708989461,-15.240375518798828,-3.723987102508545,,,,,,,,,,,,1.6887025676036613e+18,46.89866137695312,28.78223991394043,34.49427947998047,-21.145039558410645,1.6887025676036613e+18,46.89866137695312,-225.75855712890623,129.95927734375,-154.3568359375,1.6887025675978383e+18,46.89283821614583,0.2096884151299794,-0.2695954044659932,0.0631814698378245,0.0774799026548862,-2.6243366400400796,0.708733856678009,-1.1079395612080891
1.95,1.6887025676497388e+18,46.944738850911456,27.806399663289387,-8.329898834228516,-2.5386113921801248,1.6887025676497388e+18,46.944738850911456,20.485153039296467,-14.484154065450031,-0.4147559404373169,1.6887025676497388e+18,46.944738850911456,-7.327092170715332,-6.1367506980896,2.0611680348714194,1.6887025676583885e+18,46.953388427734374,-0.6190101305643718,5.003139019012451,2.155132532119751,1.6887025676583885e+18,46.953388427734374,-0.619926393032074,5.007873296737671,2.157423337300618,,,,,,,,,,,,1.6887025676536602e+18,46.94866015625,36.224239349365234,32.57887916564941,-14.779079627990722,1.6887025676536602e+18,46.94866015625,-218.31655883789065,128.04387664794922,-147.99087524414062,1.6887025676497388e+18,46.944738850911456,-0.3328517079353332,0.7801841497421265,-0.5181177457173666,0.100298357506593,-2.8959600925445557,0.6736433307329813,-1.2603981494903564
2.0,1.6887025677016453e+18,46.99664542643229,-0.4444157282511392,3.732665777206421,-4.229283968607585,1.6887025677016453e+18,46.99664542643229,-6.5009002685546875,-3.2841490507125854,-0.9513463973999025,1.6887025677016453e+18,46.99664542643229,-6.062330563863118,-6.999310334523519,3.215250015258789,1.6887025677102892e+18,47.00528946940104,1.3253230452537537,0.7547748883565267,2.537890593210856,1.6887025677102892e+18,47.00528946940104,1.3244067827860515,0.7594582041104635,2.540232261021932,,,,,,,,,,,,1.688702567703659e+18,46.998659033203126,27.82332000732422,36.514599609375,-20.705839920043942,1.688702567703659e+18,46.998659033203126,-226.71748046875,131.97959899902344,-153.91763916015626,1.6887025677016453e+18,46.99664542643229,-0.4261637131373088,0.7690512537956238,-0.4720514317353566,0.060648750513792,-2.6846818129221597,0.7938417593638102,-1.295546293258667
2.05,1.688702567753549e+18,47.04854899088542,1.0182610352834065,8.766702651977539,-4.324512481689453,1.688702567753549e+18,47.04854899088542,-4.067000945409139,0.7617152184247971,-1.752343734105428,1.688702567753549e+18,47.04854899088542,-5.091108004252116,-7.987482865651448,2.509481350580851,1.6887025677622003e+18,47.057200195312504,0.5067127247651418,-2.280156334241231,3.6613226731618247,1.6887025677622003e+18,47.057200195312504,0.5057964026927948,-2.2754220962524414,3.663664261500041,1.6887025677449009e+18,47.03990087890625,0.0,0.0,3.216513395309448,7.369999885559082,2.590522527694702,5.838703632354736,43.400001525878906,-122.7524033,49.1880035,1.688702567753658e+18,47.048658056640626,22.521199798583982,41.36287994384766,-17.826639556884764,1.688702567753658e+18,47.048658056640626,-232.01959533691405,136.8278778076172,-151.03843688964844,1.688702567753549e+18,47.04854899088542,-0.4696325858434041,0.7475814421971639,-0.4521160324414571,0.1237702618042627,-2.7148682276407876,0.9524275461832682,-1.3102881113688152
2.1,1.688702567805446e+18,47.10044571940104,12.933124383290606,-8.54633363087972,-2.7548118432362876,1.688702567805446e+18,47.10044571940104,9.41236694653829,-17.504494667053223,-0.824127991994222,1.688702567805446e+18,47.10044571940104,-3.5266036987304688,-8.940656026204428,1.8679964145024617,1.688702567805451e+18,47.10045104980469,-0.3098614003974945,-2.7853927612304688,4.927391767501831,1.688702567805451e+18,47.10045104980469,-0.3109304121462628,-2.780734896659851,4.929682493209839,,,,,,,,,,,,1.6887025678036588e+18,47.09865874023437,14.94011993408203,45.36691970825195,-15.115799713134766,1.6887025678036588e+18,47.09865874023437,-239.60067443847657,140.83191528320313,-148.32759704589844,1.688702567805446e+18,47.10044571940104,-0.5174910326798757,0.6826155583063761,-0.4641137023766835,0.2225912859042485,-2.682653268178304,1.1532687346140544,-1.4982158342997234
2.15,1.6887025678573527e+18,47.15235270182291,2.066673358281454,-28.964712778727215,9.400227705637612,1.6887025678573527e+18,47.15235270182291,-0.1409772237141927,-38.38944880167643,11.142577489217125,1.6887025678573527e+18,47.15235270182291,-2.2134966055552163,-9.407231012980144,1.6796621481577556,1.6887025678487048e+18,47.14370450846354,4.359999656677246,17.13349787394206,-1.1190541982650757,1.6887025678487048e+18,47.14370450846354,4.358981688817342,17.13818105061849,-1.116763472557068,,,,,,,,,,,,1.6887025678536617e+18,47.1486619140625,4.433479928970337,48.06555862426758,-11.558279609680175,1.6887025678536617e+18,47.1486619140625,-250.10731811523436,143.53055725097656,-144.77007751464845,1.6887025678573527e+18,47.15235270182291,-0.1958080530166626,0.2240365942319234,-0.1614799300829569,0.0986005129913488,-2.5387001037597656,1.2796708742777507,-1.04054989417394
2.2,1.6887025679092603e+18,47.20426017252604,1.8613295555114744,-0.4713625907897949,-1.129585027694702,1.6887025679092603e+18,47.20426017252604,-1.718246062596639,-9.39661423365275,0.9156534671783448,1.6887025679092603e+18,47.20426017252604,-3.5854217211405435,-8.907746950785318,1.982551097869873,1.6887025679006088e+18,47.19560888671875,0.7542149499058722,5.244889179865519,-4.809291243553162,1.6887025679006088e+18,47.19560888671875,0.7531459480524064,5.249521533648172,-4.806949615478516,,,,,,,,,,,,1.6887025679036595e+18,47.198659765624996,9.364719724655153,48.57551879882813,-7.356599903106689,1.6887025679036595e+18,47.198659765624996,-245.17607421875,144.04051513671874,-140.56839904785156,1.6887025679092603e+18,47.20426017252604,0.5464108188947042,-0.8301700552304586,0.0208215878034631,0.1066060264905293,-2.654865821202596,1.126927177111308,-0.362203985452652
2.25,1.6887025679611607e+18,47.25616056315104,2.771695693333944,6.588634332021077,1.4037874539693196,1.6887025679611607e+18,47.25616056315104,-0.7806583841641744,-2.4466612140337625,2.9513473510742188,1.6887025679611607e+18,47.25616056315104,-3.5582001209259033,-9.01779079437256,1.4848725001017251,1.6887025679525128e+18,47.247512532552086,-1.3140220443407695,-6.552853266398112,2.092060685157776,1.6887025679525128e+18,47.247512532552086,-1.315040151278178,-6.54816993077596,2.0943514903386435,,,,,,,,,,,,1.6887025679536591e+18,47.248659082031246,12.709959983825684,48.39983901977539,-6.3537599563598635,1.6887025679536591e+18,47.248659082031246,-241.8308319091797,143.86483459472657,-139.5655548095703,1.6887025679611607e+18,47.25616056315104,0.1781235734621683,-0.2830736637115478,0.0050224463144938,0.0306256115436553,-2.7734386920928955,1.1551775137583415,-0.5009233752886454
2.3,1.6887025680044168e+18,47.29941674804687,3.070441484451294,10.454757690429688,0.0810450911521911,1.6887025680044168e+18,47.29941674804687,0.0765703268116339,1.2367901802062988,1.747956931591034,1.6887025680044168e+18,47.29941674804687,-2.9997172355651855,-9.20046329498291,1.604224443435669,1.6887025680044083e+18,47.29940844726563,-2.611143430074056,-5.686544577280681,2.1916826168696084,1.6887025680044083e+18,47.29940844726563,-2.612110694249471,-5.681912104288737,2.193973501523336,,,,,,,,,,,,1.688702568003654e+18,47.298653808593755,9.189039993286134,48.8634391784668,-8.23987979888916,1.688702568003654e+18,47.298653808593755,-245.3517517089844,144.32843627929688,-141.4516815185547,1.6887025680044168e+18,47.29941674804687,-0.579579621553421,0.7814770340919495,-0.219869241118431,0.065535457804799,-2.6947420835494995,1.2088496088981628,-0.8602218627929688
2.35,1.6887025680476692e+18,47.342669433593755,1.5098884105682373,11.126578648885092,-0.6038732926050822,1.6887025680476692e+18,47.342669433593755,-1.278365502754847,1.937986930211385,1.5324035088221233,1.6887025680476692e+18,47.342669433593755,-2.794099966684977,-9.171087265014648,2.0735894044240317,1.688702568056317e+18,47.35131648763021,-2.5323418776194253,-5.558924674987793,1.30857519308726,1.688702568056317e+18,47.35131648763021,-2.533360004425049,-5.554190476735433,1.3108659187952678,,,,,,,,,,,,1.6887025680536604e+18,47.34866064453125,6.997919940948487,47.90451889038086,-13.141839599609376,1.6887025680536604e+18,47.34866064453125,-247.54287414550785,143.36951904296876,-146.3536346435547,1.6887025680476692e+18,47.342669433593755,-0.579699714978536,0.7338940302530924,-0.3282957375049591,0.1252468675374984,-2.554173549016317,1.2072304487228394,-1.2523812055587769
2.4,1.6887025680995738e+18,47.394573567708335,11.48328185081482,6.995407740275065,-2.6973806619644165,1.6887025680995738e+18,47.394573567708335,8.791230658690134,-2.1234307487805686,-0.168693969026208,1.6887025680995738e+18,47.394573567708335,-2.69789711634318,-9.101333936055502,2.4659992853800454,1.6887025681082194e+18,47.40321931966147,-0.6537785281737646,0.7623598575592041,0.7305439313252767,1.6887025681082194e+18,47.40321931966147,-0.6547457128763199,0.7670431931813559,0.7328346868356069,,,,,,,,,,,,1.6887025681036603e+18,47.39866044921875,7.383440017700195,46.860199737548825,-16.17475986480713,1.6887025681036603e+18,47.39866044921875,-247.1573516845703,142.32520141601563,-149.38656311035157,1.6887025680995738e+18,47.394573567708335,-0.5722610354423523,0.6870704690615336,-0.4123684366544087,0.1737197091182072,-2.454191207885742,1.193604032198588,-1.5585760672887166
2.45,1.6887025681514775e+18,47.446477620442714,0.7732377847035726,6.709326108296712,0.0382906198501586,1.6887025681514775e+18,47.446477620442714,-1.2849457661310832,-2.4939193725585938,2.8536404371261597,1.6887025681514775e+18,47.446477620442714,-2.064029574394226,-9.185741106669107,2.752662420272827,1.688702568160125e+18,47.45512475585937,1.069981376330058,4.589481512705485,-0.4307618041833241,1.688702568160125e+18,47.45512475585937,1.0690651138623557,4.594113985697429,-0.4284710610906283,,,,,,,,,,,,1.6887025681536591e+18,47.44865927734375,3.215919923782349,47.509239196777344,-16.60419979095459,1.6887025681536591e+18,47.44865927734375,-251.3248748779297,142.97423706054687,-149.8159973144531,1.6887025681514775e+18,47.446477620442714,-0.6110179821650187,0.697675863901774,-0.352642019589742,0.11997369180123,-2.2739590803782144,1.2178332408269246,-1.560799201329549
2.5,1.6887025682033797e+18,47.49837955729166,-3.48950465520223,-20.174415906270344,10.882847468058268,1.6887025682033797e+18,47.49837955729166,-5.687141259511312,-29.362127621968583,13.62592871983846,1.6887025682033797e+18,47.49837955729166,-2.2034826278686523,-9.170207023620604,2.680394252141317,1.6887025682120266e+18,47.50702661132812,0.0778853297233581,2.8064167698224387,-3.4476725260416665,1.6887025682120266e+18,47.50702661132812,0.076969027519226,2.810998241106669,-3.4453309377034507,,,,,,,,,,,,1.6887025682036577e+18,47.49865776367188,3.2061599254608155,48.19731826782227,-14.452119827270508,1.6887025682036577e+18,47.49865776367188,-251.33463439941409,143.66231384277344,-147.6639190673828,1.6887025682033797e+18,47.49837955729166,-0.6136855880419413,0.7429358164469401,-0.2616811543703079,0.0426109097898005,-2.318653345108032,1.207626183827718,-1.2641273339589436
2.55,1.688702568255285e+18,47.55028499348958,-4.7319901784261065,-16.625752449035645,3.06621781984965,1.688702568255285e+18,47.55028499348958,-8.67677370707194,-24.827529271443684,6.745765686035156,1.688702568255285e+18,47.55028499348958,-3.950629552205404,-8.184272448221842,3.6168603897094727,1.688702568255278e+18,47.55027795410156,-3.8613555431365967,-1.0438159927725792,-4.027663707733154,1.688702568255278e+18,47.55027795410156,-3.862348198890686,-1.0390818119049072,-4.0253729820251465,1.688702568268612e+18,47.56361206054687,0.0,0.0,3.216513395309448,7.35699987411499,2.617300510406494,5.6144022941589355,43.400001525878906,-122.7524033,49.1880154,1.6887025682536627e+18,47.548662597656254,12.24391965866089,45.35471801757812,-18.724559020996093,1.6887025682536627e+18,47.548662597656254,-242.2968719482422,140.81971740722656,-151.9363586425781,1.688702568255285e+18,47.55028499348958,0.5365855097770691,-0.792144258817037,0.2865337630112965,0.0304648078357179,-2.4396800994873047,0.9862512350082396,-1.082911769549052
2.6,1.6887025683071885e+18,47.602188232421874,8.278765757878622,-3.357984860738118,-1.6694802443186445,1.6887025683071885e+18,47.602188232421874,2.2045872211456294,-9.990632692972818,2.1304097970326743,1.6887025683071885e+18,47.602188232421874,-6.080024401346843,-6.6151431401570635,3.737202644348145,1.6887025682985336e+18,47.59353352864584,-3.4972035884857178,-5.855143388112386,-3.0508646170298257,1.6887025682985336e+18,47.59353352864584,-3.4981706937154136,-5.850460211435954,-3.0485738118489585,,,,,,,,,,,,1.6887025683036585e+18,47.598658544921875,23.380079650878905,38.693518829345706,-23.423999786376953,1.6887025683036585e+18,47.598658544921875,-231.16071472167968,134.1585205078125,-156.63580017089845,1.6887025683071885e+18,47.602188232421874,0.1926509042580922,-0.262661596139272,0.0968343615531921,0.0310345397641261,-2.61153244972229,0.7398005723953247,-1.1504815816879272
2.65,1.6887025683590922e+18,47.65409204101562,40.34978453318278,-7.192888895670573,-3.0749617417653403,1.6887025683590922e+18,47.65409204101562,32.91706498463949,-13.216157595316568,-1.0189435879389446,1.6887025683590922e+18,47.65409204101562,-7.438564936319987,-6.005764166514079,1.993330717086792,1.6887025683504415e+18,47.64544173177084,-0.70819644878308,-2.9841784089803696,0.8289949893951416,1.6887025683504415e+18,47.64544173177084,-0.709112731118997,-2.979546085000038,0.8312857945760092,,,,,,,,,,,,1.688702568353658e+18,47.648657910156246,38.19575958251953,31.9054386138916,-14.759559631347656,1.688702568353658e+18,47.648657910156246,-216.34503479003905,127.37043762207033,-147.9713592529297,1.6887025683590922e+18,47.65409204101562,-0.3275525073210398,0.8008210261662801,-0.4912493626276652,0.0869161983331044,-2.9051174322764077,0.6573893229166666,-1.1845494111378987
2.7,1.6887025684109926e+18,47.70599283854167,-2.195549647013346,2.6717721621195474,-3.9490578969319663,1.6887025684109926e+18,47.70599283854167,-7.385247707366943,-5.085545698801677,-0.9148558775583904,1.6887025684109926e+18,47.70599283854167,-5.195544083913167,-7.739813327789307,2.9715147018432617,1.688702568402342e+18,47.69734212239583,1.4741705656051636,3.0736194054285684,4.801604429880778,1.688702568402342e+18,47.69734212239583,1.4732033610343933,3.078302582105001,4.803895155588786,,,,,,,,,,,,1.688702568403661e+18,47.69866098632813,25.356479263305665,39.118079376220706,-19.05639991760254,1.688702568403661e+18,47.69866098632813,-229.18431396484377,134.5830810546875,-152.26820068359376,1.6887025684109926e+18,47.70599283854167,-0.4721221625804901,0.7681078910827637,-0.424373318751653,0.0752626458803811,-2.654736598332723,0.9110416372617086,-1.2529824177424114
2.75,1.688702568454252e+18,47.749252075195315,-3.8296217918396,5.0033369064331055,-4.896965742111206,1.688702568454252e+18,47.749252075195315,-7.38215708732605,-3.857828140258789,-2.555235505104065,1.688702568454252e+18,47.749252075195315,-3.558381199836731,-8.843660354614258,2.2790427207946777,1.6887025684542484e+18,47.74924837239583,1.4904093742370603,-2.1428643663724265,4.925151983896892,1.6887025684542484e+18,47.74924837239583,1.4894421895345051,-2.1381301879882812,4.927442709604899,,,,,,,,,,,,1.688702568453658e+18,47.74865815429688,13.788439559936524,45.46451950073242,-16.40167980194092,1.688702568453658e+18,47.74865815429688,-240.75235290527343,140.9295196533203,-149.6134765625,1.688702568454252e+18,47.749252075195315,-0.5414629578590393,0.7292777895927429,-0.3922378420829773,0.1431579142808914,-2.6144663095474243,1.1258357763290403,-1.3245075941085815
2.8,1.688702568497494e+18,47.792494059244795,9.592215061187744,-11.877196311950684,-2.8154563109079995,1.688702568497494e+18,47.792494059244795,7.647859717408816,-21.388843218485516,-1.3387842973073325,1.688702568497494e+18,47.792494059244795,-1.9502012729644775,-9.494142532348633,1.4139846563339231,1.6887025685061486e+18,47.80114851888021,1.3477723399798076,-0.0814994970957438,2.7162123123804727,1.6887025685061486e+18,47.80114851888021,1.3468051552772522,-0.0768163204193115,2.7185030579566956,,,,,,,,,,,,1.6887025685036585e+18,47.798658593750005,3.9259599089622497,48.42179870605469,-12.0560396194458,1.6887025685036585e+18,47.798658593750005,-250.6148376464844,143.8867950439453,-145.26783447265626,1.688702568497494e+18,47.792494059244795,-0.5782356262207031,0.6652131279309591,-0.3989060123761495,0.2505656133095423,-2.5713953971862793,1.3266089757283528,-1.5327349106470745
2.85,1.6887025685494065e+18,47.84440625,8.140334288279215,-22.56587314605713,6.74110468228658,1.6887025685494065e+18,47.84440625,6.166503190994263,-32.1132755279541,7.957331816355388,1.6887025685494065e+18,47.84440625,-1.9796771605809529,-9.52989705403646,1.1535395582516987,1.6887025685580524e+18,47.853052246093746,2.2809199492136636,15.319227854410808,-5.037398338317871,1.6887025685580524e+18,47.853052246093746,2.280003627141317,15.323860168457031,-5.035107612609863,,,,,,,,,,,,1.688702568553661e+18,47.84866069335938,1.2834399580955504,49.55883865356445,-7.990999698638916,1.688702568553661e+18,47.84866069335938,-253.25735473632812,145.02383728027343,-141.20279541015626,1.6887025685494065e+18,47.84440625,-0.6077733635902405,0.7361578345298767,-0.2386165012915929,0.129674986625711,-2.6815385023752847,1.3302273352940877,-0.9942802985509236
2.9,1.6887025686013094e+18,47.896309488932296,-3.1223350365956626,-0.3802286783854167,-2.1429686148961387,1.6887025686013094e+18,47.896309488932296,-6.649654070536296,-9.43589687347412,-0.685942530632019,1.6887025686013094e+18,47.896309488932296,-3.533164978027344,-9.038163503011068,1.3943387269973757,1.6887025686099592e+18,47.90495930989584,1.2803226113319397,-0.5670865376790365,-1.6268358826637268,1.6887025686099592e+18,47.90495930989584,1.2793554464975994,-0.5624033610026041,-1.624545156955719,,,,,,,,,,,,1.6887025686036588e+18,47.89865883789063,10.487119579315186,48.74143981933594,-5.221599960327149,1.6887025686036588e+18,47.89865883789063,-244.05367736816407,144.20643920898436,-138.4333953857422,1.6887025686013094e+18,47.896309488932296,0.555785338083903,-0.8281343579292297,0.042928323149681,0.053966462612152,-2.788379351298014,1.1579537391662598,-0.337215781211853
2.95,1.688702568653212e+18,47.948211995442705,2.4215028285980225,7.508170127868652,1.92486310005188,1.688702568653212e+18,47.948211995442705,-1.1475578943888347,-1.6315062443415325,2.4333012898763022,1.688702568653212e+18,47.948211995442705,-3.574906826019287,-9.122171719868978,0.4457508027553558,1.6887025686618596e+18,47.95685961914062,-1.2139419317245483,-6.261419614156087,1.1417071620623271,1.6887025686618596e+18,47.95685961914062,-1.2149091760317483,-6.256787300109863,1.1440997123718262,,,,,,,,,,,,1.6887025686536566e+18,47.94865678710938,11.394799613952635,48.95859909057617,-1.7177599787712097,1.6887025686536566e+18,47.94865678710938,-243.1459930419922,144.42359619140626,-134.92955627441407,1.688702568653212e+18,47.948211995442705,-0.5548563798268636,0.8229684432347616,-0.102800982693831,0.046961900157233,-3.0443116823832193,1.1809985637664793,-0.3136783341566721
3.0,1.6887025687051174e+18,48.00011759440105,2.980630874633789,10.618669191996256,1.045414129892985,1.6887025687051174e+18,48.00011759440105,-0.3300101161003112,1.3772688309351604,1.4965111414591472,1.6887025687051174e+18,48.00011759440105,-3.316487073898315,-9.223895708719889,0.3884095946947734,1.688702568705113e+18,48.00011291503907,-2.232177972793579,-5.240994691848755,0.4637230932712555,1.688702568705113e+18,48.00011291503907,-2.2330942153930664,-5.236336946487427,0.4660901874303818,,,,,,,,,,,,1.688702568703656e+18,47.998655957031254,10.230919647216798,49.27335891723633,-2.4497599840164184,1.688702568703656e+18,47.998655957031254,-244.30987854003905,144.7383575439453,-135.66155700683595,1.6887025687051174e+18,48.00011759440105,-0.5532729824384054,0.7907401323318481,-0.2198138783375421,0.1369318390885988,-3.064953088760376,1.2125945488611858,-0.5955283939838409
3.05,1.688702568757018e+18,48.05201782226563,2.53862996896108,10.3207000096639,1.3037861982981365,1.688702568757018e+18,48.05201782226563,-0.8638089696566263,1.1266206701596575,2.004587173461914,1.688702568757018e+18,48.05201782226563,-3.4082849820454917,-9.17657502492269,0.6381135781606039,1.6887025687483617e+18,48.04336165364583,-2.1906136671702066,-5.206658999125163,0.1368338142832119,1.6887025687483617e+18,48.04336165364583,-2.191529909769694,-5.2019758224487305,0.1391245598594347,,,,,,,,,,,,1.688702568753657e+18,48.04865703125,10.731119918823245,49.03667984008789,-5.38996000289917,1.688702568753657e+18,48.04865703125,-243.80967712402344,144.50167846679688,-138.6017578125,1.688702568757018e+18,48.05201782226563,-0.5293199419975281,0.7510385513305664,-0.3356342713038127,0.2042420208454131,-3.006082852681478,1.2039286692937214,-0.9336098432540894
3.1,1.6887025688089137e+18,48.10391357421875,13.198654890060425,4.403831799825032,1.5836659967899325,1.6887025688089137e+18,48.10391357421875,10.80917795499166,-5.049254576365153,2.556731084982554,1.6887025688089137e+18,48.10391357421875,-2.3953233559926352,-9.435581843058268,0.9103776017824808,1.6887025688002614e+18,48.09526163736979,-0.1509855339924494,2.8424577713012695,3.1550171275933585,1.6887025688002614e+18,48.09526163736979,-0.1520036061604818,2.8471409479777017,3.1573078632354736,1.688702568782959e+18,48.077958984375,0.0,0.0,3.441812038421631,7.354000091552734,2.6665778160095215,5.199007987976074,43.400001525878906,-122.7524016,49.1880355,1.6887025688036524e+18,48.0986525390625,7.612799835205078,49.04643859863281,-7.388319778442383,1.6887025688036524e+18,48.0986525390625,-246.92799072265623,144.51143798828124,-140.60011596679686,1.6887025688089137e+18,48.10391357421875,-0.5695912639300028,0.7148954272270203,-0.3373394012451172,0.2145106792449951,-2.825349807739258,1.2999284664789836,-1.1283660729726157
3.15,1.6887025688608233e+18,48.155823160807294,-5.877696355183919,4.177783966064453,5.478837331136067,1.6887025688608233e+18,48.155823160807294,-7.210172971089681,-5.537988662719727,6.062216122945149,1.6887025688608233e+18,48.155823160807294,-1.3383227189381917,-9.698267936706545,0.520691454410553,1.6887025688521697e+18,48.14716959635417,2.1688262224197388,4.864116430282593,0.0037161260843275,1.6887025688521697e+18,48.14716959635417,2.167858918507894,4.868850549062093,0.0060068567593892,,,,,,,,,,,,1.6887025688536553e+18,48.14865546875,-1.625039958953857,50.41283950805664,-3.4769999980926514,1.6887025688536553e+18,48.14865546875,-256.16583251953125,145.87783813476562,-136.6887939453125,1.6887025688608233e+18,48.155823160807294,-0.6349910298983256,0.7332081993420919,-0.1944073090950647,0.1432042568922042,-2.881023327509562,1.4117780923843384,-0.7443794210751852
3.2,1.688702568904071e+18,48.19907080078125,-3.111988067626953,-19.243637084960938,13.459378242492676,1.688702568904071e+18,48.19907080078125,-6.279065847396851,-28.450363159179688,14.637195110321043,1.688702568904071e+18,48.19907080078125,-3.172923803329468,-9.189221382141112,1.1151292622089386,1.6887025689040722e+18,48.19907218424479,-3.4506250421206155,1.5720616976420083,-5.666182359059651,1.6887025689040722e+18,48.19907218424479,-3.4516940911610923,1.5766941010951996,-5.6638407707214355,,,,,,,,,,,,1.6887025689036534e+18,48.1986533203125,7.256559824943542,49.47587966918945,-4.540839886665344,1.6887025689036534e+18,48.1986533203125,-247.28423461914065,144.9408752441406,-137.7526397705078,1.688702568904071e+18,48.19907080078125,-0.5678126513957977,0.7924759984016418,-0.2033362835645675,0.083353066816926,-2.871731400489807,1.2074968814849854,-0.6852224767208099
3.25,1.6887025689473262e+18,48.242326171875,-5.648779392242432,-19.87309201558431,7.777271827061971,1.6887025689473262e+18,48.242326171875,-9.956136067708334,-28.12902577718099,10.93081259727478,1.6887025689473262e+18,48.242326171875,-4.313202699025472,-8.23842970530192,3.090853452682495,1.6887025689559785e+18,48.25097843424479,-2.6477954387664795,1.4217888911565144,-0.9147706627845764,1.6887025689559785e+18,48.25097843424479,-2.648711681365967,1.4264212648073833,-0.912429024775823,,,,,,,,,,,,1.6887025689536563e+18,48.24865634765625,15.725799751281738,45.59383926391602,-15.35491943359375,1.6887025689536563e+18,48.24865634765625,-238.8149932861328,141.058837890625,-148.56672058105468,1.6887025689473262e+18,48.242326171875,0.1695807377497355,-0.2738530437151591,0.0825952639182408,0.0329781451728194,-2.5624285538991294,0.9896194934844972,-0.8841007749239603
