seconds_elapsed_rounded,accelerometer_time,accelerometer_seconds_elapsed,accelerometer_z,accelerometer_y,accelerometer_x,accelerometeruncalibrated_time,accelerometeruncalibrated_seconds_elapsed,accelerometeruncalibrated_z,accelerometeruncalibrated_y,accelerometeruncalibrated_x,gravity_time,gravity_seconds_elapsed,gravity_z,gravity_y,gravity_x,gyroscope_time,gyroscope_seconds_elapsed,gyroscope_z,gyroscope_y,gyroscope_x,gyroscopeuncalibrated_time,gyroscopeuncalibrated_seconds_elapsed,gyroscopeuncalibrated_z,gyroscopeuncalibrated_y,gyroscopeuncalibrated_x,location_time,location_seconds_elapsed,location_bearingAccuracy,location_speedAccuracy,location_verticalAccuracy,location_horizontalAccuracy,location_speed,location_bearing,location_altitude,location_longitude,location_latitude,magnetometer_time,magnetometer_seconds_elapsed,magnetometer_z,magnetometer_y,magnetometer_x,magnetometeruncalibrated_time,magnetometeruncalibrated_seconds_elapsed,magnetometeruncalibrated_z,magnetometeruncalibrated_y,magnetometeruncalibrated_x,orientation_time,orientation_seconds_elapsed,orientation_qz,orientation_qy,orientation_qx,orientation_qw,orientation_roll,orientation_pitch,orientation_yaw
0.0,1.6887028812377551e+18,59.992755208333335,0.5186524391174318,-0.3509621620178216,4.688027461369832,1.688702881246406e+18,60.00140600585937,-1.6669997175534566,-15.86740533510844,11.309476852416992,1.6887028812377551e+18,59.992755208333335,-1.1356652577718098,-9.403621991475424,2.5499862829844155,1.688702881246406e+18,60.00140600585937,-0.18972455834349,2.873153805732727,-0.3662646239002545,1.688702881246406e+18,60.00140600585937,-0.1906408568223317,2.877582550048828,-0.363973893225193,,,,,,,,,,,,1.6887028812467766e+18,60.00177646484375,-20.830279922485353,46.418558502197264,1.3737199425697326,1.6887028812467766e+18,60.00177646484375,-278.2502685546875,141.04175720214843,-131.50867614746093,1.6887028812377551e+18,59.992755208333335,0.6371121406555176,-0.7322071592013041,-0.0646225040157635,0.2311025559902191,-1.876953641573588,1.298701246579488,-0.839240312576294
0.05,1.688702881289651e+18,60.044650960286454,-6.9801890055338545,-25.94421005249023,19.35782241821289,1.6887028812983078e+18,60.053307779947914,-8.590233325958252,-31.093333562215168,19.736001014709473,1.688702881289651e+18,60.044650960286454,-1.886678417523702,-9.04069455464681,3.2447046438852944,1.6887028812983078e+18,60.053307779947914,-1.91231365998586,0.0213802556196848,-4.137797435124715,1.6887028812983078e+18,60.053307779947914,-1.9132808844248457,0.0258090893427532,-4.135506709416707,,,,,,,,,,,,1.6887028812967788e+18,60.051778710937505,-13.944599723815918,49.019598388671874,0.8857199903577566,1.6887028812967788e+18,60.051778710937505,-271.3645935058594,143.64279479980468,-131.99667663574218,1.688702881289651e+18,60.044650960286454,0.577103058497111,-0.7538448969523112,-0.1050161818663278,0.2939930160840352,-2.0153172810872397,1.2003140052159629,-0.5436779856681824
0.1,1.6887028813415575e+18,60.09655729166667,1.6925078233083088,-0.0556840896606445,0.2349035739898681,1.6887028813502036e+18,60.10520385742188,-1.767298897107442,-6.570890426635742,3.088934580485026,1.6887028813415575e+18,60.09655729166667,-3.967347860336304,-8.157323519388834,3.6870569388071694,1.6887028813502036e+18,60.10520385742188,-2.061466614405314,-3.826714356740316,-2.95633331934611,1.6887028813502036e+18,60.10520385742188,-2.0624337593714395,-3.822285652160645,-2.954042434692383,,,,,,,,,,,,1.6887028813467804e+18,60.10178046874999,-4.531079840660095,50.661719512939456,-4.643319988250733,1.6887028813467804e+18,60.10178046874999,-261.95107421875,145.2849151611328,-137.52571716308594,1.6887028813415575e+18,60.09655729166667,0.4919075866540273,-0.8256524006525675,-0.0663204404215017,0.265682299931844,-2.3526389598846436,1.0131107370058696,-0.2956217527389526
0.15,1.6887028813934615e+18,60.148461588541664,27.801729202270508,-2.6805739402770996,8.690521399180094,1.6887028814021092e+18,60.157109130859375,44.97729015350342,-10.750753084818522,11.791032155354818,1.6887028813934615e+18,60.148461588541664,-6.316436608632405,-6.999632835388184,2.258760372797648,1.6887028814021092e+18,60.157109130859375,-2.448347886403402,-12.022896925608316,0.2496911883354187,1.6887028814021092e+18,60.157109130859375,-2.449315071105957,-12.018468062082926,0.2519819339116414,,,,,,,,,,,,1.6887028813967795e+18,60.15177954101563,7.805559968948364,49.990718841552734,-9.586759662628172,1.6887028813967795e+18,60.15177954101563,-249.61443481445312,144.613916015625,-142.4691589355469,1.6887028813934615e+18,60.148461588541664,0.1465356846650441,-0.2896139820416769,-0.0284023943046728,0.1176783647388219,-2.763769785563151,0.8242294589678446,-0.2929877738157908
0.2,1.6887028814453596e+18,60.20035953776041,19.31544780731201,-1.524439811706543,1.3238482077916462,1.6887028814453632e+18,60.20036328125,7.834101676940918,-9.19531798362732,1.8095721006393433,1.6887028814453596e+18,60.20035953776041,-5.646711667378743,-7.815388202667236,1.5458685159683228,1.6887028814453632e+18,60.20036328125,-2.678720474243164,5.639736890792847,3.214296579360962,1.6887028814453632e+18,60.20036328125,-2.6797131299972534,5.644165754318237,3.2165873050689697,,,,,,,,,,,,1.6887028814467766e+18,60.20177661132813,4.106520009040833,49.61983947753906,-12.463519859313966,1.6887028814467766e+18,60.20177661132813,-253.3134765625,144.24303588867187,-145.34591979980468,1.6887028814453596e+18,60.20035953776041,0.1778211891651153,-0.2781160871187846,0.0468770215908686,0.0416698399931192,-2.8293445905049643,0.9449868599573772,-0.5075147151947021
0.25,1.6887028814972664e+18,60.25226643880208,-3.0610854625701904,-0.7971952756245931,-2.6954700549443564,1.6887028814886167e+18,60.24361661783854,-6.2512491544087725,-8.835697015126547,1.1944172730048497,1.6887028814972664e+18,60.25226643880208,-3.7982035477956138,-8.386301358540853,3.342055161794027,1.6887028814886167e+18,60.24361661783854,-0.3789400756359101,4.819523096084595,2.6547694206237793,1.6887028814886167e+18,60.24361661783854,-0.3799581627051034,4.823951959609985,2.657060146331787,,,,,,,,,,,,1.68870288149678e+18,60.25178002929688,-7.237039709091187,48.32663803100586,-14.64731960296631,1.68870288149678e+18,60.25178002929688,-264.65703735351565,142.94983520507813,-147.52971801757812,1.6887028814972664e+18,60.25226643880208,0.5477951566378275,-0.8165544668833414,0.1090375954906145,0.1420440524816512,-2.361964384714762,1.0431572993596394,-0.7314467032750448
0.3,1.6887028815491658e+18,60.30416577148437,-3.531602442264557,-9.36024252573649,-2.572556416193644,1.688702881540519e+18,60.29551871744792,-6.893123785654704,-16.551154454549152,-0.0390827655792236,1.6887028815491658e+18,60.30416577148437,-1.7699591120084126,-9.065532048543297,3.2370876471201577,1.688702881540519e+18,60.29551871744792,1.0027861992518108,0.8481863811612129,4.345542669296265,1.688702881540519e+18,60.29551871744792,1.0018190344174702,0.8526151552796364,4.3478333950042725,,,,,,,,,,,,1.688702881546777e+18,60.301777539062506,-17.92179946899414,46.15991897583008,-11.548519897460938,1.688702881546777e+18,60.301777539062506,-275.341796875,140.78311767578126,-144.43091430664063,1.6887028815491658e+18,60.30416577148437,0.6329009930292765,-0.7533344825108846,0.0808535243074099,0.155493011077245,-1.9731634457906089,1.1888692378997805,-1.0608259439468384
0.35,1.688702881601071e+18,60.3560712890625,12.088924090067543,-16.133278846740723,12.584678649902344,1.6887028815924214e+18,60.34742130533854,8.775078942378363,-25.471995671590168,13.4689990679423,1.688702881601071e+18,60.3560712890625,-0.5813054144382477,-9.308650970458984,3.0196406841278076,1.6887028815924214e+18,60.34742130533854,0.7963137479188541,7.874256650606792,-1.7181603113810222,1.6887028815924214e+18,60.34742130533854,0.7952956591422359,7.878685514132182,-1.7158695856730144,,,,,,,,,,,,1.68870288159678e+18,60.35177993164062,-26.34711952209473,43.44419937133789,-6.595319831371308,1.68870288159678e+18,60.35177993164062,-283.76710815429686,138.06739501953126,-139.47771606445312,1.688702881601071e+18,60.3560712890625,0.6550665895144144,-0.7131911118825277,-0.0217454719046751,0.2311084220806757,-1.6668010155359905,1.2558708588282268,-1.109473983446757
0.4,1.6887028816443233e+18,60.39932348632813,7.991216540336609,-5.269918918609619,4.403465032577515,1.68870288164432e+18,60.39931998697917,2.57088851928711,-14.421542485555014,7.876773198445638,1.6887028816443233e+18,60.39932348632813,-3.030759334564209,-8.919063091278076,2.6620662212371826,1.68870288164432e+18,60.39931998697917,2.4511986573537192,6.685614585876465,-9.36023728052775,1.68870288164432e+18,60.39931998697917,2.450231393178304,6.6900434494018555,-9.357946554819742,1.688702881644323e+18,60.39932299804688,0.0,0.0,3.7714343070983887,7.915999889373779,2.4080066680908203,236.0414581298828,43.400001525878906,-122.7536077,49.1885708,1.6887028816467758e+18,60.4017759765625,-7.405399656295776,49.18307876586914,7.088199853897095,1.6887028816467758e+18,60.4017759765625,-264.825390625,143.8062744140625,-125.79419860839845,1.6887028816443233e+18,60.39932348632813,0.5101722031831741,-0.7697374820709229,-0.2186912223696708,0.311205044388771,-2.3878331184387207,1.1737464666366575,0.0316157564520836
0.45,1.6887028816875735e+18,60.44257356770834,1.7518233458201091,2.913129965464274,0.6715613206227621,1.6887028816962245e+18,60.451224365234374,-3.0017958879470825,-3.426920774082342,3.030111074447632,1.6887028816875735e+18,60.44257356770834,-4.539525032043457,-8.32553799947103,2.4994517167409263,1.6887028816962245e+18,60.451224365234374,1.150310155004263,-1.0836749076843262,-0.6101525773604711,1.6887028816962245e+18,60.451224365234374,1.149342951675256,-1.079246163368225,-0.6078618466854094,,,,,,,,,,,,1.6887028816967798e+18,60.45177993164062,10.638399696350096,48.67311782836914,13.51028003692627,1.6887028816967798e+18,60.45177993164062,-246.7815948486328,143.29631652832032,-119.372119140625,1.6887028816875735e+18,60.44257356770834,0.4146234095096588,-0.782541553179423,-0.330141286055247,0.3261990149815877,-2.6502044200897217,1.043700059254964,0.5116303960482279
0.5,1.6887028817394772e+18,60.494477376302086,4.321273008982341,10.444413185119627,0.9542973438898722,1.6887028817481285e+18,60.50312825520834,0.2578266461690267,2.0474585692087808,2.3527427911758423,1.6887028817394772e+18,60.494477376302086,-4.028215646743774,-8.763497988382975,1.7427374124526978,1.6887028817481285e+18,60.50312825520834,-1.5697200695673623,-5.395161787668864,3.964108228683472,1.6887028817481285e+18,60.50312825520834,-1.5706363320350647,-5.390733083089192,3.966398954391479,,,,,,,,,,,,1.6887028817467794e+18,60.50177934570312,0.6319599866867065,49.30263977050781,13.13207950592041,1.6887028817467794e+18,60.50177934570312,-256.7880340576172,143.92583618164062,-119.7503173828125,1.6887028817394772e+18,60.494477376302086,0.4854103326797485,-0.7880810697873434,-0.2652358214060464,0.2658672978480657,-2.738264719645182,1.1385077635447185,0.3872877955436706
0.55,1.6887028817913782e+18,60.54637833658854,2.2578936417897544,11.80064868927002,-0.4903252522150675,1.6887028818000292e+18,60.55502921549479,-0.4652046052118141,2.3320050636927285,1.37447722752889,1.6887028817913782e+18,60.54637833658854,-2.644597291946411,-9.24774932861328,1.8886555035909016,1.6887028818000292e+18,60.55502921549479,-2.506481965382894,-5.177744547526042,3.7591629028320312,1.6887028818000292e+18,60.55502921549479,-2.5075000127156577,-5.17331600189209,3.761453628540039,,,,,,,,,,,,1.6887028817967828e+18,60.5517830078125,-13.058879470825197,48.9049186706543,5.931639862060547,1.6887028817967828e+18,60.5517830078125,-270.47886962890624,143.52811584472656,-126.9507553100586,1.6887028817913782e+18,60.54637833658854,0.5795344710350037,-0.7757471799850464,-0.1234508380293845,0.2114853660265604,-2.467564344406128,1.2612420320510864,-0.1893475862840811
0.6,1.6887028818432763e+18,60.5982763671875,1.4124651749928792,9.015084266662598,-1.725741267204285,1.688702881851929e+18,60.60692903645833,0.2123629748821258,-1.040479044119517,0.9144570827484132,1.6887028818432763e+18,60.5982763671875,-1.7678627173105876,-9.319414456685385,2.496952533721924,1.688702881851929e+18,60.60692903645833,-1.667662183443705,-4.756858666737874,2.0689496199289956,1.688702881851929e+18,60.60692903645833,-1.668680191040039,-4.752429723739624,2.0712403853734336,,,,,,,,,,,,1.6887028818467814e+18,60.60178154296875,-20.600919723510746,46.15259857177735,-4.309039855003357,1.6887028818467814e+18,60.60178154296875,-278.0209106445312,140.77579650878906,-137.19143676757812,1.6887028818432763e+18,60.5982763671875,0.635227620601654,-0.755632201830546,0.0209851811329523,0.1529910614093144,-2.0841078758239746,1.2691481113433838,-0.8682796557744344
0.65,1.6887028818951813e+18,60.65018123372396,2.010401129722595,-0.2787892023722331,4.3110279242197675,1.6887028818951834e+18,60.65018322753906,0.7229315340518951,-8.840283393859863,6.667600512504578,1.6887028818951813e+18,60.65018123372396,-1.411461313565572,-9.31946341196696,2.7152209281921387,1.6887028818951834e+18,60.65018322753906,-0.0698677003383636,0.1199586987495422,0.8281805515289307,1.6887028818951834e+18,60.65018322753906,-0.0707840025424957,0.1243874430656433,0.8304713070392609,,,,,,,,,,,,1.6887028818967772e+18,60.65177734375,-23.036039352416992,44.78375930786133,-9.10851993560791,1.6887028818967772e+18,60.65177734375,-280.45603637695314,139.4069580078125,-141.99091491699218,1.6887028818951813e+18,60.65018123372396,0.656723141670227,-0.7400306264559428,0.0872386122743288,0.1155343775947888,-1.9398022492726643,1.259321967760722,-1.161287744839986
0.7,1.6887028819470868e+18,60.7020869140625,-4.67618974049886,-19.23943328857422,17.26467482248942,1.688702881938435e+18,60.69343505859374,-4.782654245694479,-29.01297442118327,20.517257690429688,1.6887028819470868e+18,60.7020869140625,-1.1414240598678589,-9.310772577921549,2.859088659286499,1.688702881938435e+18,60.69343505859374,0.1371392210324604,6.248286088307698,-1.641191283861796,1.688702881938435e+18,60.69343505859374,0.1361211538314819,6.252714951833089,-1.6389005482196808,,,,,,,,,,,,1.6887028819467786e+18,60.7017787109375,-23.287359619140624,45.442559814453126,-3.4672399520874024,1.6887028819467786e+18,60.7017787109375,-280.7073486328125,140.06575927734374,-136.34963684082032,1.6887028819470868e+18,60.7020869140625,0.6459359526634216,-0.7350971897443136,-0.0015522491497297,0.1990965356429417,-1.8455257813135784,1.2623226245244343,-1.0073476831118269
0.75,1.6887028819989842e+18,60.753984293619794,-0.5407618284225464,0.0805694262186686,1.191029151280721,1.6887028819903378e+18,60.74533797200521,-4.111068646113078,-10.896315733591717,6.83848778406779,1.6887028819989842e+18,60.753984293619794,-2.4437496264775596,-8.65967877705892,3.856954018274943,1.6887028819903378e+18,60.74533797200521,-1.9737056493759155,1.596038182576497,-4.226729393005371,1.6887028819903378e+18,60.74533797200521,-1.9747236967086792,1.600466897090276,-4.224438667297363,,,,,,,,,,,,1.6887028819967818e+18,60.75178183593751,-14.910839653015136,48.65603942871094,-2.727919960021973,1.6887028819967818e+18,60.75178183593751,-272.3308410644531,143.27923583984375,-135.61031494140624,1.6887028819989842e+18,60.753984293619794,0.5571152567863464,-0.7784736553827921,-0.0471829796830812,0.2832321524620056,-2.07207198937734,1.107390522956848,-0.5843814313411713
0.8,1.6887028820508918e+18,60.805891520182286,-1.691920280456543,-1.1912123362223308,-1.839093287785848,1.6887028820422351e+18,60.79723527018229,-5.62233571211497,-6.09890604019165,0.9304091533025106,1.6887028820508918e+18,60.805891520182286,-4.575743198394775,-7.337049802144368,4.512000401814778,1.6887028820422351e+18,60.79723527018229,-2.926044464111328,-2.7323492765426636,-4.107712348302205,1.6887028820422351e+18,60.79723527018229,-2.927011728286743,-2.727920631567637,-4.105421622594197,,,,,,,,,,,,1.6887028820467786e+18,60.801778710937505,-4.143119978904724,50.141998291015625,-8.625399780273437,1.6887028820467786e+18,60.801778710937505,-261.5631103515625,144.76519775390625,-141.50780029296874,1.6887028820508918e+18,60.805891520182286,0.4505630731582641,-0.8468824625015259,-0.0039354631056388,0.275749921798706,-2.321516831715902,0.8751683632532755,-0.3966953158378601
0.85,1.6887028820941422e+18,60.849142211914064,62.38220405578613,-10.6435284614563,2.9899258613586426,1.6887028820941402e+18,60.849140055338545,37.62972768147787,-17.41835308074951,6.165107488632202,1.6887028820941422e+18,60.849142211914064,-6.699589729309082,-6.5469512939453125,2.8809887170791626,1.6887028820941402e+18,60.849140055338545,-3.3339497248331704,-8.106945137182871,1.57979949315389,1.6887028820941402e+18,60.849140055338545,-3.3349169890085855,-8.102516949176788,1.5820902188618975,,,,,,,,,,,,1.6887028820967808e+18,60.851780957031245,8.737639904022217,48.59503936767578,-15.777039909362792,1.6887028820967808e+18,60.851780957031245,-248.68235473632816,143.2182403564453,-148.65943908691406,1.6887028820941422e+18,60.849142211914064,0.3972525298595428,-0.8999118804931641,0.1387219466269016,0.1089386232197284,-2.704527258872986,0.7550346553325653,-0.4825270920991897
0.9,1.6887028821373952e+18,60.892395182291665,5.683216730753581,-3.310222307840983,-2.982116142908732,1.688702882146046e+18,60.90104606119792,-3.950350761413574,-9.797013441721598,-0.0927218745152155,1.6887028821373952e+18,60.892395182291665,-5.513588905334473,-7.208269755045573,3.6982925732930503,1.688702882146046e+18,60.90104606119792,-0.9032151897748312,1.950187345345815,2.094300627708435,1.688702882146046e+18,60.90104606119792,-0.9041823570926982,1.9546160101890564,2.096591353416443,1.688702882163347e+18,60.918346923828125,0.0,0.0,3.652249813079834,7.921999931335449,2.396674156188965,234.9204559326172,43.400001525878906,-122.7536076,49.1885645,1.6887028821467786e+18,60.90177861328125,0.9320799946784972,47.42627868652344,-19.67371940612793,1.6887028821467786e+18,60.90177861328125,-256.4879119873047,142.04947814941406,-152.55611877441407,1.6887028821373952e+18,60.892395182291665,0.4617714087168376,-0.8591482043266296,0.1735603163639704,0.1341077908873557,-2.511631647745768,0.8430631955464681,-0.6897345383961996
0.95,1.688702882189299e+18,60.9442989095052,-0.4854464530944824,2.3803070386250815,-6.052055676778157,1.6887028821979494e+18,60.952949381510415,-4.397409915924072,-5.503292719523112,-2.513062040011088,1.688702882189299e+18,60.9442989095052,-4.4015583992004395,-7.872076988220215,3.837423245112101,1.6887028821979494e+18,60.952949381510415,0.7902560035387675,-0.6252205893397331,3.2079079945882163,1.6887028821979494e+18,60.952949381510415,0.7892887989679972,-0.6207917953530947,3.210198720296224,,,,,,,,,,,,1.6887028821967775e+18,60.951777587890625,-6.058519983291626,46.91143951416016,-19.08323974609375,1.6887028821967775e+18,60.951777587890625,-263.478515625,141.53463745117188,-151.96563720703125,1.688702882189299e+18,60.9442989095052,0.5201449990272522,-0.8249956170717875,0.1729717353979746,0.1355921179056167,-2.37632425626119,0.9469963908195496,-0.8207230567932129
1.0,1.6887028822411963e+18,60.99619645182292,5.596811453501384,-7.152325471242269,-3.9188703695933023,1.68870288224985e+18,61.00484977213542,8.180263261000315,-20.866610527038578,3.667000651359558,1.6887028822411963e+18,60.99619645182292,-2.78191868464152,-8.701961835225424,3.5156044960021973,1.68870288224985e+18,61.00484977213542,0.372729607236882,3.79688369234403,3.421914299329122,1.68870288224985e+18,61.00484977213542,0.3717115186154842,3.801312486330668,3.424255927403768,,,,,,,,,,,,1.6887028822467817e+18,61.00178188476563,-15.108479690551755,44.98139953613281,-18.25363960266113,1.6887028822467817e+18,61.00178188476563,-272.5284790039062,139.6045928955078,-151.13603820800782,1.6887028822411963e+18,60.99619645182292,0.6009729901949564,-0.7719871203104655,0.1761528501907984,0.1035424868265787,-2.1637633641560874,1.0995489756266277,-1.0835270682970684
1.05,1.6887028822931013e+18,61.04810107421875,1.1569161017735798,-20.576581001281745,17.542456309000652,1.6887028823017503e+18,61.05675032552083,-2.353939314683279,-26.815766016642257,18.87797482808431,1.6887028822931013e+18,61.04810107421875,-1.2124133308728535,-9.08249855041504,3.473231077194214,1.6887028823017503e+18,61.05675032552083,2.6051366329193115,12.321610450744627,-8.30064066251119,1.6887028823017503e+18,61.05675032552083,2.6041694482167563,12.32603899637858,-8.298349936803183,,,,,,,,,,,,1.6887028822967788e+18,61.051778808593745,-21.633039474487305,45.52063980102539,-4.870239925384522,1.6887028822967788e+18,61.051778808593745,-279.05303344726565,140.14383850097656,-137.75263671875,1.6887028822931013e+18,61.04810107421875,0.6132189234097799,-0.7323253949483236,-0.0401234899957974,0.2678934584061304,-1.834502935409546,1.1963545481363933,-0.8574816385904948
1.1,1.6887028823450053e+18,61.10000528971354,13.316294034322103,-5.069466590881348,2.169789671897888,1.688702882345005e+18,61.10000500488282,10.482955634593964,-13.960026264190674,6.077769637107849,1.6887028823450053e+18,61.10000528971354,-4.033202727635701,-8.335169156392416,3.199230194091797,1.688702882345005e+18,61.10000500488282,2.44796621799469,5.919666051864624,-7.270136594772339,1.688702882345005e+18,61.10000500488282,2.4468971490859985,5.9240946769714355,-7.267845869064331,,,,,,,,,,,,1.6887028823467753e+18,61.10177534179687,6.1170799255371096,49.751599884033205,8.945039844512939,1.6887028823467753e+18,61.10177534179687,-251.30291442871095,144.37479553222656,-123.93735809326172,1.6887028823450053e+18,61.10000528971354,0.4279148976008097,-0.7852818965911865,-0.2770649095376332,0.346425861120224,-2.4659120241800943,1.046737829844157,0.2742881253361701
1.15,1.6887028823969108e+18,61.151911051432286,0.613379716873169,7.89167054494222,1.829166571299235,1.6887028823882568e+18,61.14325691731771,-4.670191725095113,-2.053041877845923,3.450051506360372,1.6887028823969108e+18,61.151911051432286,-4.178549289703369,-8.636678695678711,1.9671709537506104,1.6887028823882568e+18,61.14325691731771,1.3396783471107483,-5.091816345850627,2.4581726789474487,1.6887028823882568e+18,61.14325691731771,1.338711182276408,-5.087387482325236,2.4604634046554565,,,,,,,,,,,,1.688702882396781e+18,61.151781152343744,5.9975198864936825,48.541358947753906,14.769319915771485,1.688702882396781e+18,61.151781152343744,-251.42247619628907,143.1645538330078,-118.11307830810549,1.6887028823969108e+18,61.151911051432286,0.4613335430622101,-0.7845134536425272,-0.2925686041514078,0.2887105147043863,-2.7174626191457114,1.1094412406285603,0.4495346844196319
1.2,1.688702882448807e+18,61.203806396484374,2.0070239702860513,11.91462230682373,0.8786159753799438,1.688702882440152e+18,61.19515201822917,-0.7334001561005911,2.068196336428324,2.5339991648991904,1.688702882448807e+18,61.203806396484374,-2.686848402023315,-9.326428731282553,1.3404523928960164,1.688702882440152e+18,61.19515201822917,-1.2876530289649963,-5.6338067054748535,4.402454853057861,1.688702882440152e+18,61.19515201822917,-1.2886711359024048,-5.629377841949463,4.404745578765869,,,,,,,,,,,,1.688702882446779e+18,61.201778955078126,-9.13048005104065,48.31687927246094,12.619679641723632,1.688702882446779e+18,61.201778955078126,-266.55046997070315,142.94007568359376,-120.2627182006836,1.688702882448807e+18,61.203806396484374,0.5768362085024515,-0.7687215407689413,-0.1715607543786366,0.2108638286590576,-2.640743891398112,1.289922873179118,0.0532137180368105
1.25,1.6887028825007117e+18,61.25571183268229,0.7243924140930176,11.837998390197754,-0.2577162583669026,1.6887028824920556e+18,61.24705558268229,-0.359920397400856,2.5682963530222573,1.795015811920166,1.6887028825007117e+18,61.25571183268229,-0.9266493419806162,-9.571041107177734,1.8644214471181233,1.6887028824920556e+18,61.24705558268229,-1.9247854948043823,-4.400367895762126,4.398535092671712,1.6887028824920556e+18,61.24705558268229,-1.9257526795069375,-4.395939032236735,4.4008259773254395,,,,,,,,,,,,1.6887028824967818e+18,61.25178198242187,-22.41871910095215,45.5352783203125,4.189479899406433,1.6887028824967818e+18,61.25178198242187,-279.8387145996094,140.15847473144532,-128.692919921875,1.6887028825007117e+18,61.25571183268229,0.664813220500946,-0.7261664271354675,-0.0387948265609641,0.1652467797199884,-1.887901306152344,1.362147370974223,-0.9624135295550028
1.3,1.688702882552614e+18,61.3076143391927,0.3021068771680196,8.172983328501383,-2.0758729775746665,1.6887028825439642e+18,61.29896427408854,0.7609176399807135,-0.6311070124308268,0.3517449299494425,1.688702882552614e+18,61.3076143391927,0.5432937492926916,-9.475320180257162,2.4712116718292236,1.6887028825439642e+18,61.29896427408854,-0.8786787278950214,-1.832035760084788,2.9384145736694336,1.6887028825439642e+18,61.29896427408854,-0.8796459709604582,-1.827606976032257,2.9407052993774414,,,,,,,,,,,,1.688702882546778e+18,61.301778027343744,-31.295439147949217,40.05503845214844,-2.8718799114227296,1.688702882546778e+18,61.301778027343744,-288.71543579101564,134.67823791503906,-135.7542755126953,1.688702882552614e+18,61.3076143391927,0.7238271236419678,-0.6732214689254761,0.0429573152214288,0.1441060602664947,-1.2377767165501912,1.2949556112289429,-1.7592796484629314
1.35,1.688702882595866e+18,61.350866333007815,0.9577321410179138,6.468766689300537,1.9358590841293335,1.688702882595866e+18,61.35086612955729,1.6598212917645772,-3.7639100551605225,4.6532425085703535,1.688702882595866e+18,61.350866333007815,0.7224644422531128,-9.514374256134031,2.2759320735931396,1.688702882595866e+18,61.35086612955729,0.718479335308075,2.837265412012736,-1.3580043489734333,1.688702882595866e+18,61.35086612955729,0.7175630331039429,2.841694255669912,-1.3557136158148448,,,,,,,,,,,,1.688702882596782e+18,61.35178212890626,-31.854198837280272,39.42551956176758,-2.032520031929016,1.688702882596782e+18,61.35178212890626,-289.27418823242186,134.04871826171876,-134.9149200439453,1.688702882595866e+18,61.350866333007815,0.7279229164123535,-0.6678580939769745,0.0211110834497958,0.1528220027685164,-1.1453919410705566,1.3097182512283323,-1.808055400848389
1.4,1.6887028826391122e+18,61.39411238606771,-2.0150708059469857,-17.046638170878094,18.654372851053875,1.6887028826477678e+18,61.402767740885416,-3.5353955030441284,-31.390642801920578,23.46661122639974,1.6887028826391122e+18,61.39411238606771,-0.4741263488928477,-9.473655700683596,2.3782633940378823,1.6887028826477678e+18,61.402767740885416,-2.058819462855657,2.681647473325332,-6.122702439626058,1.6887028826477678e+18,61.402767740885416,-2.0598376095294952,2.6860762275755405,-6.12041171391805,,,,,,,,,,,,1.6887028826467812e+18,61.40178100585938,-23.41179962158203,44.76179962158203,2.8255199670791624,1.6887028826467812e+18,61.40178100585938,-280.8317932128906,139.38499755859374,-130.05687561035157,1.6887028826391122e+18,61.39411238606771,0.6659878492355347,-0.7099671363830566,-0.0527921033402283,0.2166543801625569,-1.5990009307861328,1.3180828094482422,-1.1557236512502034
1.45,1.6887028826910177e+18,61.44601717122396,-1.0754663149515789,-12.686686833699545,8.545698642730713,1.6887028826996713e+18,61.45467106119791,-3.8953158855438232,-16.11785348256429,8.455038865407309,1.6887028826910177e+18,61.44601717122396,-3.462984085083008,-8.490434010823568,3.394211451212565,1.6887028826996713e+18,61.45467106119791,-2.0159571170806885,-2.172033150990804,-4.88284961382548,1.6887028826996713e+18,61.45467106119791,-2.0169243812561035,-2.167604406674703,-4.880558888117473,1.688702882676782e+18,61.431781982421874,0.0,0.0,3.652249813079834,7.848999977111816,2.409299850463867,233.24020385742188,43.400001525878906,-122.7536171,49.1885512,1.6887028826967818e+18,61.45178173828125,-7.8470399379730225,50.42015914916992,-2.181359928846359,1.6887028826967818e+18,61.45178173828125,-265.26702880859375,145.0433563232422,-135.06375732421876,1.6887028826910177e+18,61.44601717122396,0.5273128350575765,-0.8114100495974222,-0.0485218030711014,0.2439356346925099,-2.312281688054403,1.0760148167610168,-0.3993378182252248
1.5,1.688702882742923e+18,61.497923014322915,2.1409873167673745,1.0611203511555989,-2.686270316441854,1.6887028827515656e+18,61.5065654296875,9.938987890879313,-9.040682156880695,0.1475573778152465,1.688702882742923e+18,61.497923014322915,-5.437363306681315,-7.184994379679362,3.8327558835347495,1.6887028827515656e+18,61.5065654296875,-3.830176035563151,-4.713894208272298,-3.677561442057291,1.6887028827515656e+18,61.5065654296875,-3.8311431407928462,-4.709465742111206,-3.675270716349284,,,,,,,,,,,,1.688702882746777e+18,61.5017771484375,2.8133199244737623,50.55435943603515,-8.93283987045288,1.688702882746777e+18,61.5017771484375,-254.60667724609377,145.17755737304688,-141.81523742675782,1.688702882742923e+18,61.497923014322915,0.4335330824057261,-0.8733567992846171,0.0165703864768147,0.2182364811499913,-2.498522917429606,0.8498718539873759,-0.337405522664388
1.55,1.6887028827948244e+18,61.549824462890626,37.792638301849365,-11.280328273773192,-5.821483771006267,1.6887028827948252e+18,61.5498251953125,25.81825804710388,-16.289738178253174,-2.0168503522872925,1.6887028827948244e+18,61.549824462890626,-6.521698474884033,-5.83358097076416,4.3877090613047285,1.6887028827948252e+18,61.5498251953125,-2.3631322383880615,3.47024917602539,0.2763401642441749,1.6887028827948252e+18,61.5498251953125,-2.3641247749328613,3.474677801132202,0.278707280755043,,,,,,,,,,,,1.6887028827967785e+18,61.551778466796875,10.501759910583496,47.68979949951172,-17.528959846496583,1.6887028827967785e+18,61.551778466796875,-246.9182373046875,142.31299743652343,-150.41135864257814,1.6887028827948244e+18,61.549824462890626,0.36500879128774,-0.8999655842781067,0.1052086477478345,0.211226999759674,-2.5241409142812095,0.659019927183787,-0.4501570363839467
1.6,1.6887028828467282e+18,61.601728271484376,1.5935200055440266,0.2793416976928711,-5.897394975026448,1.6887028828380682e+18,61.59306819661458,-5.089533726374309,-7.183054129282634,0.0853440016508102,1.6887028828467282e+18,61.601728271484376,-5.293086528778076,-6.1878617604573565,5.455445130666097,1.6887028828380682e+18,61.59306819661458,-0.2316197454929351,2.0093903144200644,2.120516896247864,1.6887028828380682e+18,61.59306819661458,-0.2325869500637054,2.013819098472595,2.122807701428731,,,,,,,,,,,,1.6887028828467794e+18,61.60177939453125,3.982079964876175,47.32379913330078,-20.630199813842772,1.6887028828467794e+18,61.60177939453125,-253.4379119873047,141.9469970703125,-153.51259765625,1.6887028828467282e+18,61.601728271484376,0.406799167394638,-0.8641629815101624,0.1035023281971613,0.2767169078191121,-2.311475276947022,0.701919158299764,-0.5592502156893412
1.65,1.688702882898631e+18,61.653630940755214,2.80702273050944,-0.4344644546508789,-7.705892403920491,1.688702882889982e+18,61.64498185221354,-1.795613964398702,-5.983651796976726,-2.0673988262812295,1.688702882898631e+18,61.653630940755214,-4.037196318308513,-7.061095396677653,5.467730363210042,1.688702882889982e+18,61.64498185221354,0.5506950120131174,0.7109453479448954,3.026735544204712,1.688702882889982e+18,61.64498185221354,0.5497787098089854,0.7153740922609965,3.0290262699127197,,,,,,,,,,,,1.6887028828967788e+18,61.651778710937506,-4.321240067481995,47.1261589050293,-19.700559616088867,1.6887028828967788e+18,61.651778710937506,-261.7412353515625,141.74935607910157,-152.58295593261718,1.688702882898631e+18,61.653630940755214,0.4775837659835815,-0.8258113463719686,0.1031938567757606,0.2806787093480428,-2.170411745707194,0.8195435603459676,-0.7004761298497518
1.7,1.688702882950532e+18,61.70553206380208,6.4411163330078125,-13.913675626118978,-2.57413657506307,1.6887028829418824e+18,61.69688248697917,3.403590758641561,-19.29512405395508,1.194616715113322,1.688702882950532e+18,61.70553206380208,-2.843371550242106,-7.880396207173665,5.086325645446777,1.6887028829418824e+18,61.69688248697917,2.1417444944381714,2.304947296778361,1.135954846938451,1.6887028829418824e+18,61.69688248697917,2.1407772103945413,2.309376080830892,1.1382455825805666,,,,,,,,,,,,1.6887028829467827e+18,61.70178291015625,-11.055640029907227,47.27011947631836,-16.143039894104003,1.6887028829467827e+18,61.70178291015625,-268.47564697265625,141.89332275390626,-149.0254333496094,1.688702882950532e+18,61.70553206380208,0.5334458549817404,-0.7920560240745544,0.0595520318796236,0.2887202203273772,-2.0391536553700766,0.9470672607421876,-0.7604159911473592
1.75,1.6887028830024302e+18,61.75743033854167,-1.1065080960591631,-22.033109029134113,10.083932876586914,1.6887028829937828e+18,61.74878287760416,-1.6017952859401705,-31.32264582316081,13.481362342834473,1.6887028830024302e+18,61.75743033854167,-2.3517821629842124,-8.527864138285318,4.223875125249227,1.6887028829937828e+18,61.74878287760416,4.156632502873738,8.67438824971517,-4.162690242131551,1.6887028829937828e+18,61.74878287760416,4.155665397644043,8.67881711324056,-4.160348653793335,,,,,,,,,,,,1.6887028829967785e+18,61.75177866210937,-8.779119968414307,50.01511917114258,-1.6372400283813475,1.6887028829967785e+18,61.75177866210937,-266.19912109375,144.63832092285156,-134.51963806152344,1.6887028830024302e+18,61.75743033854167,0.5036239127318064,-0.7638035217920939,-0.1439398018022377,0.3687112629413605,-2.0474191904067993,1.0743676821390789,-0.32570755854249
1.8,1.688702883045691e+18,61.80069091796875,21.002902030944824,-3.893282413482666,8.532668113708496,1.6887028830456812e+18,61.800680989583334,8.614361047744751,-12.399806340535482,11.726027488708496,1.688702883045691e+18,61.80069091796875,-4.471651077270508,-7.96419358253479,3.5515090227127075,1.6887028830456812e+18,61.800680989583334,2.473495125770569,2.3557000160217285,-7.257435401280721,1.6887028830456812e+18,61.800680989583334,2.472528020540873,2.360128859678904,-7.255144675572713,,,,,,,,,,,,1.688702883046781e+18,61.80178081054687,11.189839506149292,49.56371841430664,7.688439655303955,1.688702883046781e+18,61.80178081054687,-246.23015441894532,144.18692016601562,-125.19395751953124,1.688702883045691e+18,61.80069091796875,0.3826574236154556,-0.792592316865921,-0.301799938082695,0.3646491020917892,-2.4690608978271484,0.973880171775818,0.3594573140144348
1.85,1.688702883088935e+18,61.843934651692706,4.172444184621175,6.690145492553711,2.6053263346354165,1.6887028830975887e+18,61.852588704427085,-0.978066215912501,-0.399202619989713,4.3828535079956055,1.688702883088935e+18,61.843934651692706,-5.006804943084717,-7.804844856262207,3.180643002192179,1.6887028830975887e+18,61.852588704427085,0.3683008253574371,-3.583182772000631,2.3205243349075317,1.6887028830975887e+18,61.852588704427085,0.3672827382882435,-3.57875394821167,2.3228150655825934,,,,,,,,,,,,1.6887028830967803e+18,61.8517802734375,15.681879806518555,48.16559982299805,11.126399803161622,1.6887028830967803e+18,61.8517802734375,-241.7381134033203,142.78880004882814,-121.75599822998046,1.688702883088935e+18,61.843934651692706,0.3602500756581624,-0.7943625450134277,-0.341357280810674,0.3488838175932566,-2.585696538289388,0.946562925974528,0.5219909946123759
1.9,1.6887028831408384e+18,61.89583846028646,4.162219047546387,10.965347607930502,-1.5207040309906006,1.6887028831494863e+18,61.90448632812499,0.1890329901749889,2.588635285695394,0.91844509045283,1.6887028831408384e+18,61.89583846028646,-3.973249355951945,-8.587124188741049,2.549343109130859,1.6887028831494863e+18,61.90448632812499,-1.7108808755874634,-4.163657347361247,4.627049605051677,1.6887028831494863e+18,61.90448632812499,-1.7118480205535889,-4.1592287222544355,4.6293403307596845,,,,,,,,,,,,1.6887028831467855e+18,61.901785546875,2.9328798949718475,49.780879211425784,10.877519798278808,1.6887028831467855e+18,61.901785546875,-254.4871154785156,144.4040771484375,-122.00487670898436,1.6887028831408384e+18,61.89583846028646,0.463881105184555,-0.791316548983256,-0.2536225616931915,0.3039320906003316,-2.5634641647338867,1.09600830078125,0.2582519302765528
1.95,1.6887028831927452e+18,61.94774552408854,2.2239874601364136,11.660123189290363,-2.160747845967611,1.6887028832013903e+18,61.956390299479175,-0.2624128895501296,2.197010040283203,0.6546364029248556,1.6887028831927452e+18,61.94774552408854,-2.5592454274495444,-9.026067097981771,2.84282652537028,1.6887028832013903e+18,61.956390299479175,-2.181145270665487,-4.092949787775676,3.8500800132751465,1.6887028832013903e+18,61.956390299479175,-2.182214339574178,-4.088521162668864,3.8523707389831543,1.688702883201383e+18,61.95638256835937,0.0,0.0,4.437384605407715,7.7270002365112305,2.422635316848755,231.48870849609375,43.400001525878906,-122.753624,49.1885377,1.6887028831967729e+18,61.95177299804688,-10.901919841766356,49.56859817504883,4.482279944419861,1.6887028831967729e+18,61.95177299804688,-268.32191162109376,144.1917938232422,-128.40011596679688,1.6887028831927452e+18,61.94774552408854,0.5549477736155192,-0.7736107110977173,-0.1285069535175958,0.2741750578085581,-2.2561399936676025,1.1933985948562622,-0.2967972954114278
2.0,1.688702883244642e+18,61.99964184570312,2.329000155131022,8.068034331003824,-3.0980521043141684,1.6887028832446464e+18,61.99964624023438,0.4645066820085048,-1.308275818824768,-0.0822532624006271,1.688702883244642e+18,61.99964184570312,-1.6869895060857136,-9.098586400349935,3.2529122034708657,1.6887028832446464e+18,61.99964624023438,-1.0060950815677645,-3.0589840412139893,2.2494348883628845,1.6887028832446464e+18,61.99964624023438,-1.007011353969574,-3.054555296897888,2.251725673675537,,,,,,,,,,,,1.68870288324678e+18,62.001780078125,-19.217440032958983,47.192039489746094,-2.369239994883537,1.68870288324678e+18,62.001780078125,-276.63743286132814,141.81523742675782,-135.25163879394532,1.688702883244642e+18,61.99964184570312,0.6116105119387308,-0.75497039159139,-0.0190821885286519,0.2343932439883549,-1.9745293855667112,1.2020803689956665,-0.8002616167068481
2.05,1.6887028832965476e+18,62.05154744466146,0.2482132911682128,-2.9407199223836265,5.262851079305013,1.688702883287897e+18,62.04289705403645,-0.0498504439989725,-8.153144598007202,6.191229184468587,1.6887028832965476e+18,62.05154744466146,-1.1423947016398113,-9.158232053120932,3.321723381678263,1.688702883287897e+18,62.04289705403645,0.0724893361330032,0.3857104778289794,0.971530258655548,1.688702883287897e+18,62.04289705403645,0.0714712279538313,0.3901392718156178,0.9738210240999856,,,,,,,,,,,,1.6887028832967788e+18,62.051778759765625,-22.106399536132812,45.742678833007815,-4.245599937438965,1.6887028832967788e+18,62.051778759765625,-279.5263916015625,140.36587524414062,-137.12799682617188,1.6887028832965476e+18,62.05154744466146,0.6366009712219238,-0.7371136943499247,0.0045824479311704,0.2263169835011164,-1.8207553625106812,1.2125913699467976,-1.0007890860239663
2.1,1.6887028833484465e+18,62.103446695963534,-4.44322148958842,-23.89484628041585,16.59556833902995,1.6887028833397985e+18,62.094798665364586,-5.462016582489014,-33.620354334513344,21.09392801920573,1.6887028833484465e+18,62.103446695963534,-1.283065716425578,-9.003515561421713,3.654216686884562,1.6887028833397985e+18,62.094798665364586,-0.9609928329785664,2.3090197443962097,-1.9833266735076904,1.6887028833397985e+18,62.094798665364586,-0.9619600772857666,2.313448508580526,-1.9809850851694744,,,,,,,,,,,,1.6887028833467807e+18,62.10178076171875,-20.549679565429688,46.68207931518555,-2.269199991226196,1.6887028833467807e+18,62.10178076171875,-277.969677734375,141.3052764892578,-135.15159912109374,1.6887028833484465e+18,62.103446695963534,0.6103063623110453,-0.7414060632387797,-0.032473391542832,0.2759000261624654,-1.8342153231302896,1.1761643091837566,-0.858700176080068
2.15,1.688702883400349e+18,62.15534912109376,1.0074948072433472,-0.0644901593526204,-0.4052743911743164,1.6887028833916992e+18,62.14669921875,-2.1678973038991294,-10.685748100280762,5.3439704577128095,1.688702883400349e+18,62.15534912109376,-2.908257007598877,-8.311827341715494,4.284164110819499,1.6887028833916992e+18,62.14669921875,-1.6794722080230713,-1.822007417678833,-3.259475072224935,1.6887028833916992e+18,62.14669921875,-1.680490255355835,-1.817578653494517,-3.2571843465169272,,,,,,,,,,,,1.6887028833967808e+18,62.15178081054687,-12.861239624023437,48.94395904541015,-6.334239816665649,1.6887028833967808e+18,62.15178081054687,-270.28123779296874,143.56715698242186,-139.21663818359374,1.688702883400349e+18,62.15534912109376,0.5349399248758951,-0.7961549758911133,-0.0098723901125292,0.2809154490629831,-2.1176505088806152,1.0306944847106934,-0.5939610203107198
2.2,1.6887028834522555e+18,62.207255615234374,33.16488250096639,-5.8876142501831055,1.5675245920817058,1.6887028834436042e+18,62.19860432942708,-3.6374892791112265,-8.71087153752645,3.818546056747437,1.6887028834522555e+18,62.207255615234374,-5.699527104695638,-6.862583955128987,3.78454597791036,1.6887028834436042e+18,62.19860432942708,-2.9495627880096436,-8.581944227218628,-5.254561106363933,1.6887028834436042e+18,62.19860432942708,-2.9505301316579184,-8.577515363693237,-5.252270380655925,,,,,,,,,,,,1.6887028834467791e+18,62.201779199218755,-1.3883599996566771,49.43683853149414,-13.168679809570312,1.6887028834467791e+18,62.201779199218755,-258.8083557128906,144.0600341796875,-146.05107727050782,1.6887028834522555e+18,62.207255615234374,0.4243851006031036,-0.8763939539591471,0.0879954310754934,0.1868760287761688,-2.509390115737915,0.799131433169047,-0.4835792581240336
2.25,1.6887028834955064e+18,62.25050646972656,29.28789520263672,-3.1198313236236572,0.3362460136413574,1.6887028834954995e+18,62.25049934895833,26.2165625890096,-10.86301612854004,4.014757672945659,1.6887028834955064e+18,62.25050646972656,-6.562525749206543,-6.661571741104126,2.9438397884368896,1.6887028834954995e+18,62.25049934895833,-1.4496850570042927,-0.3121011654535929,3.168456236521403,1.6887028834954995e+18,62.25049934895833,-1.4507031440734863,-0.3076725006103515,3.1707469622294107,,,,,,,,,,,,1.6887028834967813e+18,62.25178120117188,9.720959854125976,47.59951934814453,-18.0974796295166,1.6887028834967813e+18,62.25178120117188,-247.69903259277345,142.22271728515625,-150.9798797607422,1.6887028834955064e+18,62.25050646972656,0.4067723155021667,-0.8914768397808075,0.1732861325144767,0.0972181819379329,-2.690171241760254,0.7635596990585327,-0.5685079097747803
2.3,1.6887028835387546e+18,62.29375455729166,2.4017091592152915,2.0097386042277017,-2.8598318099975586,1.6887028835474092e+18,62.30240901692708,-2.7740790049235025,-4.722235520680745,0.6570292313893636,1.6887028835387546e+18,62.29375455729166,-5.178244431813558,-7.401209513346355,3.783784866333008,1.6887028835474092e+18,62.30240901692708,-0.3528255919615428,2.1145609617233276,3.38521154721578,1.6887028835474092e+18,62.30240901692708,-0.3537418941656748,2.118989785512289,3.3875022729237876,,,,,,,,,,,,1.6887028835467768e+18,62.30177690429688,-1.0833599336445332,47.084678649902344,-19.815239715576173,1.6887028835467768e+18,62.30177690429688,-258.50335998535155,141.70787963867187,-152.69763793945313,1.6887028835387546e+18,62.29375455729166,0.4771523972352345,-0.8498783310254415,0.175227736433347,0.1359371319413184,-2.472631851832072,0.868300716082255,-0.7282764315605164
2.35,1.6887028835906609e+18,62.34566088867188,1.371667782465617,3.698378245035807,-4.891383171081543,1.688702883599307e+18,62.35430712890625,0.5940182209014893,-6.2386869589487715,-0.5980062832434972,1.6887028835906609e+18,62.34566088867188,-3.553786039352417,-8.206698417663574,4.003770271937053,1.688702883599307e+18,62.35430712890625,0.7893397013346354,1.1163562337557476,3.2137111028035483,1.688702883599307e+18,62.35430712890625,0.7883215943972269,1.1207849979400637,3.216001828511556,,,,,,,,,,,,1.688702883596776e+18,62.35177587890625,-12.056039810180664,45.97203903198242,-18.702599716186523,1.688702883596776e+18,62.35177587890625,-269.4760375976563,140.59523315429686,-151.58499755859376,1.6887028835906609e+18,62.34566088867188,0.555285652478536,-0.8015717267990112,0.1628484328587849,0.1483890016873677,-2.2473012606302896,1.0008910695711772,-0.9156148632367452
2.4,1.6887028836425536e+18,62.397553466796886,7.365772247314453,-14.105726559956867,1.8016042709350584,1.688702883651208e+18,62.406207926432295,5.1682976086934405,-28.039095560709637,9.153543869654335,1.6887028836425536e+18,62.397553466796886,-1.8561619917551675,-8.836899439493815,3.802310864130656,1.688702883651208e+18,62.406207926432295,1.936493754386902,8.082103252410889,0.0778853297233581,1.688702883651208e+18,62.406207926432295,1.9355265696843464,8.08653211593628,0.0801760653654734,,,,,,,,,,,,1.688702883646776e+18,62.40177607421875,-19.6444393157959,45.2400390625,-11.58023977279663,1.688702883646776e+18,62.40177607421875,-277.06443481445314,139.8632354736328,-144.46263732910157,1.6887028836425536e+18,62.397553466796886,0.618270993232727,-0.7562150359153748,0.0926609473923841,0.1854377786318461,-1.9610682328542073,1.1276415189107258,-1.046050190925598
2.45,1.6887028836944576e+18,62.44945735677083,2.314208527406057,-23.02931022644043,13.457124710083008,1.6887028836944655e+18,62.44946545410156,-2.614457845687866,-32.71915817260742,17.441882610321045,1.6887028836944576e+18,62.44945735677083,-1.8873526652654011,-9.029969215393066,3.2415117422739663,1.6887028836944655e+18,62.44946545410156,3.1610748767852783,7.078095436096191,-7.844349384307861,1.6887028836944655e+18,62.44946545410156,3.160082221031189,7.082524299621583,-7.841982364654541,,,,,,,,,,,,1.688702883696775e+18,62.4517748046875,-12.87831983566284,48.63895874023437,2.9060398608446123,1.688702883696775e+18,62.4517748046875,-270.2983154296875,143.262158203125,-129.97635650634766,1.6887028836944576e+18,62.44945735677083,0.5659932295481364,-0.7520385384559631,-0.1233066730201244,0.3051485419273376,-2.0450803438822427,1.1862357854843142,-0.4678120762109756
2.5,1.6887028837463675e+18,62.50136759440104,1.5100470383961997,2.5429895718892417,1.883634328842163,1.688702883737716e+18,62.49271622721354,0.4480560521284739,-8.530412673950195,4.863212505976359,1.6887028837463675e+18,62.50136759440104,-3.599244038263957,-8.781719207763672,2.471427043279012,1.688702883737716e+18,62.49271622721354,2.389857530593872,2.2541945377985635,-3.2010356845955052,1.688702883737716e+18,62.49271622721354,2.3888394435246787,2.2586233814557395,-3.1986940105756125,1.6887028837204168e+18,62.475416748046875,0.0,0.0,4.437384605407715,7.533999919891357,2.421328067779541,228.4720458984375,43.400001525878906,-122.7536331,49.1885162,1.6887028837467812e+18,62.501781152343746,2.542479932308197,49.74427871704101,11.548519706726074,1.6887028837467812e+18,62.501781152343746,-254.8775146484375,144.3674743652344,-121.33387756347656,1.6887028837463675e+18,62.50136759440104,0.473554531733195,-0.7757296363512675,-0.2682494123776753,0.3190364936987558,-2.536034345626831,1.133263150850932,0.2733345727125804
2.55,1.6887028837982702e+18,62.55327026367187,2.217946449915568,8.098729769388834,2.2081810235977173,1.68870288378962e+18,62.54461971028646,-1.9890338480472565,-1.4610175987084706,4.622733910878499,1.6887028837982702e+18,62.55327026367187,-3.1334638595581055,-9.09199333190918,1.9157737890879312,1.68870288378962e+18,62.54461971028646,-0.6411030888557434,-4.48436180750529,2.7087292671203613,1.68870288378962e+18,62.54461971028646,-0.6420193513234457,-4.479933102925618,2.711019992828369,,,,,,,,,,,,1.6887028837967785e+18,62.551778759765625,-3.3257198572158813,49.251399230957034,12.073119926452636,1.6887028837967785e+18,62.551778759765625,-260.7457214355469,143.87459716796874,-120.80927734375,1.6887028837982702e+18,62.55327026367187,0.529992401599884,-0.776215672492981,-0.2122779836257298,0.2646983961264292,-2.5761229197184243,1.2117000818252563,0.1349221548686424
2.6,1.6887028838501696e+18,62.6051698404948,1.417282501856486,12.040005048116049,-1.0173144737879436,1.6887028838415186e+18,62.5965185546875,-0.6061817159255346,2.1880369583765664,1.468794325987498,1.6887028838501696e+18,62.6051698404948,-2.2073761622111,-9.291691462198893,2.232194979985555,1.6887028838415186e+18,62.5965185546875,-1.7538450558980303,-3.965686241785685,2.744362990061442,1.6887028838415186e+18,62.5965185546875,-1.7547613382339478,-3.9612574577331543,2.746704657872518,,,,,,,,,,,,1.688702883846781e+18,62.60178076171875,-12.7660795211792,48.89271850585938,6.749039936065674,1.688702883846781e+18,62.60178076171875,-270.1860778808594,143.51591796875,-126.13335571289062,1.6887028838501696e+18,62.6051698404948,0.5906499822934469,-0.7663085659344991,-0.1050103232264518,0.2267812738815943,-2.2946488857269287,1.2654940287272136,-0.367323487997055
2.65,1.688702883902074e+18,62.65707413736979,2.0810324350992837,11.094061851501465,-1.1447463035583496,1.688702883893424e+18,62.648424153645834,-0.0458624462286631,2.1603200833002725,1.5724832614262898,1.688702883902074e+18,62.65707413736979,-1.8545753161112468,-9.27875010172526,2.585349718729655,1.688702883893424e+18,62.648424153645834,-1.6670512358347576,-5.512346108754476,2.077298164367676,1.688702883893424e+18,62.648424153645834,-1.6680693626403809,-5.507917404174805,2.0795888900756836,,,,,,,,,,,,1.6887028838967785e+18,62.65177856445312,-19.095439529418947,47.03587951660156,-1.8373199231922623,1.6887028838967785e+18,62.65177856445312,-276.51543579101565,141.6590789794922,-134.71971740722657,1.688702883902074e+18,62.65707413736979,0.6284555594126383,-0.7607722878456116,0.0252246968448161,0.1549331098794936,-2.112337907155355,1.2522266705830891,-0.8430861433347067
2.7,1.6887028839453215e+18,62.70032165527344,1.9462814927101135,9.017046451568604,-2.471014499664306,1.6887028839453204e+18,62.7003203125,0.8875377972920736,-0.1750748455524444,0.5722834219535192,1.6887028839453215e+18,62.70032165527344,-1.4819378852844238,-9.279203414916992,2.8160042762756348,1.6887028839453204e+18,62.7003203125,-1.0020735263824463,-3.6940548419952393,1.9932533105214432,1.6887028839453204e+18,62.7003203125,-1.0030407309532166,-3.689626057942709,1.9955440362294512,,,,,,,,,,,,1.688702883946773e+18,62.70177294921875,-22.73348007202149,44.317719268798825,-10.162599754333495,1.688702883946773e+18,62.70177294921875,-280.1534729003906,138.9409149169922,-143.0449981689453,1.6887028839453215e+18,62.70032165527344,0.6537842154502869,-0.7411678433418274,0.1134161576628684,0.1001865528523921,-1.9687106013298037,1.2426570653915403,-1.1918523907661438
2.75,1.688702883997222e+18,62.752222167968746,1.3634172876675923,1.3837194442749023,4.019393126169841,1.688702883997222e+18,62.752222167968746,0.3667000631491343,-7.964310963948567,6.935995419820149,1.688702883997222e+18,62.752222167968746,-1.0025632778803508,-9.330526034037272,2.853914737701416,1.688702883997222e+18,62.752222167968746,0.5504914124806722,1.248557686805725,0.6290893941186368,1.688702883997222e+18,62.752222167968746,0.549524188041687,1.2529864311218262,0.6313801261906823,,,,,,,,,,,,1.688702883996775e+18,62.75177485351562,-24.573239517211913,42.28763961791992,-13.085719871520997,1.688702883996775e+18,62.75177485351562,-281.99323120117185,136.91083679199218,-145.968115234375,1.688702883997222e+18,62.752222167968746,0.6740709145863851,-0.7210906346638998,0.1372550850113232,0.0811122953891754,-1.8222142060597737,1.2534364064534504,-1.399842619895935
2.8,1.688702884049122e+18,62.80412190755209,-2.0627872943878174,-22.069996515909832,21.761160850524902,1.688702884049122e+18,62.80412190755209,-3.166501863549153,-31.428927739461265,24.56730969746907,1.688702884049122e+18,62.80412190755209,-1.1095606486002605,-9.341425895690918,2.743462324142456,1.688702884049122e+18,62.80412190755209,-0.3979787429173787,7.535175482432048,-3.971642136573791,1.688702884049122e+18,62.80412190755209,-0.3989967703819275,7.539604187011719,-3.969351410865784,,,,,,,,,,,,1.6887028840467735e+18,62.80177353515624,-24.563479614257812,44.12739944458008,-5.677879905700683,1.6887028840467735e+18,62.80177353515624,-281.9834777832031,138.75059814453124,-138.56027221679688,1.688702884049122e+18,62.80412190755209,0.6499862670898438,-0.7361488143603007,0.0164057568957407,0.1758004128932952,-1.8614461819330852,1.2687687873840332,-1.0508466561635337
2.85,1.6887028841010286e+18,62.856028645833334,-1.2495969931284587,-2.7359609603881836,1.5158158938090007,1.6887028841010286e+18,62.856028645833334,-3.9778683185577393,-11.0650102297465,5.950351715087891,1.6887028841010286e+18,62.856028645833334,-2.734117348988851,-8.31154489517212,4.371848265329997,1.6887028841010286e+18,62.856028645833334,-3.3775248527526855,1.8313231468200684,-4.754771550496419,1.6887028841010286e+18,62.856028645833334,-3.3784920374552407,1.835751861333847,-4.752480824788411,,,,,,,,,,,,1.6887028840967734e+18,62.85177338867188,-13.873839569091796,48.995198822021486,-4.218759894371033,1.6887028840967734e+18,62.85177338867188,-271.29383544921876,143.61839599609374,-137.10115966796874,1.6887028841010286e+18,62.856028645833334,0.5296207765738169,-0.7910865942637125,-0.0316058347622553,0.3016025125980377,-2.0858349800109863,1.0316839218139648,-0.5612133145332336
2.9,1.6887028841442775e+18,62.89927746582031,-7.645114660263062,-1.5215110778808594,-6.394176483154297,1.6887028841442775e+18,62.89927746582031,-12.457034349441528,-8.324330925941467,-1.25144624710083,1.6887028841442775e+18,62.89927746582031,-4.817765474319458,-6.785315275192261,5.080042839050293,1.6887028841442775e+18,62.89927746582031,-4.757494926452637,-9.047983765602112,-5.06598174571991,1.6887028841442775e+18,62.89927746582031,-4.758411288261414,-9.043554961681366,-5.063691020011902,,,,,,,,,,,,1.688702884146774e+18,62.90177392578126,-0.7783599376678467,49.0317985534668,-12.422039794921876,1.688702884146774e+18,62.90177392578126,-258.19835510253904,143.65499877929688,-145.30443420410157,1.6887028841442775e+18,62.89927746582031,0.4219934493303298,-0.8552750051021576,0.0302977671381085,0.2918229252099991,-2.295396089553833,0.7850064635276794,-0.4438418000936508
2.95,1.6887028841875284e+18,62.942528645833335,46.2205556233724,-7.89498233795166,-0.2468443711598714,1.6887028841875284e+18,62.942528645833335,39.79483334223429,-14.562918027242024,3.031706283489863,1.6887028841875284e+18,62.942528645833335,-6.4315667152404785,-6.6504316329956055,3.2158632278442383,1.6887028841875284e+18,62.942528645833335,-3.0519846280415854,-5.335806131362915,4.243731657663981,1.6887028841875284e+18,62.942528645833335,-3.0529517332712808,-5.331377347310384,4.246022383371989,,,,,,,,,,,,1.6887028841967726e+18,62.95177265625,6.688039779663086,46.647919464111325,-20.134879302978515,1.6887028841967726e+18,62.95177265625,-250.7319549560547,141.2711151123047,-153.01727600097655,1.6887028841875284e+18,62.942528645833335,0.4120759963989258,-0.8830128113428751,0.1956389447053273,0.1012620752056439,-2.6483776569366455,0.7596088846524557,-0.6381046175956726
3.0,1.688702884239432e+18,62.99443188476562,0.8631231784820557,0.995579719543457,-3.662672201792399,1.688702884239432e+18,62.99443188476562,-4.153740803400676,-6.382056872049968,0.4775675038496653,1.688702884239432e+18,62.99443188476562,-5.022710005442302,-7.360131899515788,4.077552239100139,1.688702884239432e+18,62.99443188476562,-0.7270823468764623,1.7145968675613403,2.865161657333374,1.688702884239432e+18,62.99443188476562,-0.7279986689488093,1.719025731086731,2.867452383041382,1.6887028842394322e+18,62.99443212890625,0.0,0.0,4.447711944580078,7.456999778747559,2.4184348583221436,227.16014099121097,43.400001525878906,-122.7536297,49.1885104,1.6887028842467738e+18,63.00177377929688,-3.662439942359924,44.952118682861325,-23.260519790649415,1.6887028842467738e+18,63.00177377929688,-261.0824401855469,139.5753173828125,-156.14291687011718,1.688702884239432e+18,62.99443188476562,0.4871691266695658,-0.8341556787490845,0.2245428363482157,0.1259950449069341,-2.423606554667155,0.857132613658905,-0.8669186035792033
3.05,1.6887028842913303e+18,63.046330322265625,-0.5278687477111816,3.439662297566732,-6.342052459716797,1.6887028842913303e+18,63.046330322265625,-4.194418589274089,-4.649653196334839,-2.1040887236595154,1.6887028842913303e+18,63.046330322265625,-3.672395865122477,-8.071811040242514,4.175276279449463,1.6887028842913303e+18,63.046330322265625,0.3038545499245325,-0.1089885334173838,3.2688417434692383,1.6887028842913303e+18,63.046330322265625,0.3028873552878697,-0.1045597592989603,3.2711833318074546,,,,,,,,,,,,1.6887028842967757e+18,63.051775634765626,-11.026359748840331,43.9663589477539,-22.755439376831056,1.6887028842967757e+18,63.051775634765626,-268.44635009765625,138.5895538330078,-155.63783569335936,1.6887028842913303e+18,63.046330322265625,0.5558111866315206,-0.7909832000732422,0.2253372818231582,0.1186961407462755,-2.246702273686727,0.9717544118563334,-1.0528400937716167
3.1,1.6887028843432374e+18,63.0982373046875,10.119357665379844,-11.797460238138834,-0.9501269658406576,1.6887028843432374e+18,63.0982373046875,8.00518790880839,-20.527028401692707,3.056232730547587,1.6887028843432374e+18,63.0982373046875,-2.1200159390767417,-8.712064107259115,3.9436721007029214,1.6887028843432374e+18,63.0982373046875,1.1109602848688762,4.584849059581757,1.9259562889734905,1.6887028843432374e+18,63.0982373046875,1.1099930206934612,4.589277883370717,1.928247133890788,,,,,,,,,,,,1.6887028843467766e+18,63.10177666015625,-19.45411968231201,42.277880096435545,-20.41303939819336,1.6887028843467766e+18,63.10177666015625,-276.87412109375,136.9010772705078,-153.29543762207032,1.6887028843432374e+18,63.0982373046875,0.624849001566569,-0.7445785800615946,0.2034108787775039,0.1080808863043784,-2.0033925771713257,1.0932224988937378,-1.2774405479431152
3.15,1.6887028843951442e+18,63.15014428710938,-0.8025451103846238,-23.6729310353597,14.59211285909017,1.6887028843951442e+18,63.15014428710938,-2.4033908247947693,-32.6141726175944,18.29352792104085,1.6887028843951442e+18,63.15014428710938,-1.6066919366518655,-8.923736890157064,3.6387277444203696,1.6887028843951442e+18,63.15014428710938,2.672789971033732,11.429695765177408,-8.818450689315796,1.6887028843951442e+18,63.15014428710938,2.6718227863311768,11.4341246287028,-8.816159963607788,,,,,,,,,,,,1.6887028843967826e+18,63.15178261718749,-17.014119815826415,46.91875991821289,-2.10083988904953,1.6887028843967826e+18,63.15178261718749,-274.4341064453125,141.54195861816407,-134.98323669433594,1.6887028843951442e+18,63.15014428710938,0.5838401118914286,-0.7476821740468343,-0.065613180398941,0.291059672832489,-1.9284777243932087,1.154997746149699,-0.6896146883567175
3.2,1.688702884447047e+18,63.202047037760416,9.209561030069986,-2.6281018257141113,2.377187887827555,1.688702884447047e+18,63.202047037760416,4.912464896837871,-10.71585734685262,5.97587521870931,1.688702884447047e+18,63.202047037760416,-4.302942276000977,-8.07025114695231,3.535999854405721,1.688702884447047e+18,63.202047037760416,1.824094533920288,3.7713801066080728,-5.082093338171641,1.688702884447047e+18,63.202047037760416,1.823127309481303,3.7758089502652488,-5.0798026124636335,,,,,,,,,,,,1.688702884446779e+18,63.201778808593744,8.344799876213074,49.995599365234376,6.50503978729248,1.688702884446779e+18,63.201778808593744,-249.0751922607422,144.618798828125,-126.37735748291016,1.688702884447047e+18,63.202047037760416,0.4048091173171997,-0.7996111313501993,-0.2660444031159083,0.3526649971803029,-2.448366165161133,0.989838719367981,0.2561164523164431
3.25,1.6887028844989555e+18,63.25395581054687,2.312035878499349,7.625895659128825,0.7347997029622396,1.6887028844989555e+18,63.25395581054687,-2.092722801491618,-0.763111005226771,3.351945718129476,1.6887028844989555e+18,63.25395581054687,-4.410604635874431,-8.371502240498861,2.5544586181640625,1.6887028844989555e+18,63.25395581054687,-0.1053233444690704,-5.688529809315999,3.0896036624908447,1.6887028844989555e+18,63.25395581054687,-0.1063923587401707,-5.684101104736328,3.0918943881988525,,,,,,,,,,,,1.6887028844967795e+18,63.25177949218751,7.868999862670899,49.37095947265625,9.794159507751464,1.6887028844967795e+18,63.25177949218751,-249.55099792480468,143.99415893554686,-123.08824005126954,1.6887028844989555e+18,63.25395581054687,0.4442401727040608,-0.8071985840797424,-0.2511300742626189,0.2928981582323709,-2.6155176162719727,1.0479844808578491,0.2945437630017598
