seconds_elapsed_rounded,accelerometer_time,accelerometer_seconds_elapsed,accelerometer_z,accelerometer_y,accelerometer_x,accelerometeruncalibrated_time,accelerometeruncalibrated_seconds_elapsed,accelerometeruncalibrated_z,accelerometeruncalibrated_y,accelerometeruncalibrated_x,gravity_time,gravity_seconds_elapsed,gravity_z,gravity_y,gravity_x,gyroscope_time,gyroscope_seconds_elapsed,gyroscope_z,gyroscope_y,gyroscope_x,gyroscopeuncalibrated_time,gyroscopeuncalibrated_seconds_elapsed,gyroscopeuncalibrated_z,gyroscopeuncalibrated_y,gyroscopeuncalibrated_x,location_time,location_seconds_elapsed,location_bearingAccuracy,location_speedAccuracy,location_verticalAccuracy,location_horizontalAccuracy,location_speed,location_bearing,location_altitude,location_longitude,location_latitude,magnetometer_time,magnetometer_seconds_elapsed,magnetometer_z,magnetometer_y,magnetometer_x,magnetometeruncalibrated_time,magnetometeruncalibrated_seconds_elapsed,magnetometeruncalibrated_z,magnetometeruncalibrated_y,magnetometeruncalibrated_x,orientation_time,orientation_seconds_elapsed,orientation_qz,orientation_qy,orientation_qx,orientation_qw,orientation_roll,orientation_pitch,orientation_yaw
0.0,1.688702595712215e+18,75.00721500651042,33.290202140808105,-6.906291643778483,2.1922263304392495,1.688702595712215e+18,75.00721500651042,25.769901315371197,-12.798211574554443,1.5996019045511882,1.688702595712215e+18,75.00721500651042,-7.526145935058594,-5.874415874481201,-0.6553119321664175,1.6887025957035625e+18,74.99856266276042,-1.6155349810918171,-10.220030029614769,-7.091025749842326,1.6887025957035625e+18,74.99856266276042,-1.6165530681610107,-10.215295910835266,-7.088735024134318,,,,,,,,,,,,1.688702595703656e+18,74.99865600585937,33.66711959838867,36.4609188079834,7.349279928207397,1.688702595703656e+18,74.99865600585937,-220.87367553710936,131.92591857910156,-125.86251678466796,1.688702595712215e+18,75.00721500651042,0.1068676908810933,-0.2666714787483215,-0.1548504332701365,0.1375161930918693,0.9636102517445884,0.6481814980506897,0.789644738038381
0.05,1.6887025957554662e+18,75.05046618652344,31.40773057937622,-1.402587890625,0.4820567965507507,1.6887025957554662e+18,75.05046618652344,23.61686050891876,-6.559026002883911,-2.384447753429413,1.6887025957554662e+18,75.05046618652344,-7.796717643737794,-5.138933420181274,-2.9291919469833374,1.6887025957554614e+18,75.05046126302084,-2.2816834847132363,1.1566222508748378,1.6599754492441814,1.6887025957554614e+18,75.05046126302084,-2.28270161151886,1.1613059043884275,1.6622661749521892,1.6887025957727578e+18,75.0677578125,0.0,0.0,4.2646942138671875,7.369999885559082,2.7279863357543945,340.1388244628906,43.400001525878906,-122.7525746,49.1886992,1.6887025957536594e+18,75.048659375,35.997319030761716,30.29503936767578,21.71111946105957,1.6887025957536594e+18,75.048659375,-218.5434753417969,125.76003723144532,-111.50067901611328,1.6887025957554662e+18,75.05046618652344,-0.3118442296981811,0.9064252376556396,0.2715803980827331,0.0777813605964183,2.769149661064148,0.5510202050209045,0.6873215138912201
0.1,1.6887025957987215e+18,75.09372159830728,0.0359954833984375,0.8768502076466879,0.9144350488980612,1.6887025957987215e+18,75.09372159830728,-6.888737042744954,-6.003791491190593,0.2901297453790903,1.6887025957987215e+18,75.09372159830728,-6.930578549702962,-6.863137086232503,-0.6869927446047465,1.6887025958073705e+18,75.10237084960937,0.1166243453820546,3.411427855491638,5.025028387705485,1.6887025958073705e+18,75.10237084960937,0.1155553360780079,3.4160603284835815,5.027319113413493,,,,,,,,,,,,1.6887025958036585e+18,75.0986583984375,30.853799438476564,38.920439910888675,11.75103988647461,1.6887025958036585e+18,75.0986583984375,-223.6869934082031,134.38544006347655,-121.46075897216797,1.6887025957987215e+18,75.09372159830728,0.3730920453866322,-0.8768806457519531,-0.289325714111328,0.0771219215045372,3.0289226373036704,0.7763504385948181,0.6820432345072428
0.15,1.6887025958506227e+18,75.14562263997396,-3.4378307660420737,-0.4925570487976074,-2.7160561879475913,1.6887025958506227e+18,75.14562263997396,-8.521439711252848,-8.827521642049154,-3.415953814983368,1.6887025958506227e+18,75.14562263997396,-5.089454968770345,-8.31745990117391,-0.7625850935777029,1.6887025958592737e+18,75.1542735188802,1.4753413995107014,-2.8688267866770425,4.9088114102681475,1.6887025958592737e+18,75.1542735188802,1.474323272705078,-2.864194452762604,4.911102135976155,,,,,,,,,,,,1.688702595853657e+18,75.14865727539062,20.35691967010498,44.36163864135742,12.175599670410156,1.688702595853657e+18,75.14865727539062,-234.18387145996093,139.8266357421875,-121.03619689941408,1.6887025958506227e+18,75.14562263997396,0.473892609278361,-0.814814289410909,-0.3078271448612213,0.1233286360899607,2.960029443105062,1.013469139734904,0.8274787068367004
0.2,1.6887025959025285e+18,75.19752791341146,15.909700791041056,-28.26698875427246,-3.0102832317352295,1.6887025959025285e+18,75.19752791341146,13.226327180862429,-37.51367632548014,-4.84167726834615,1.6887025959025285e+18,75.19752791341146,-2.6892194747924805,-9.229182879130043,-1.8940813144048056,1.6887025959111734e+18,75.20617350260416,1.4030556678771973,7.215998570124309,2.9142853021621704,1.6887025959111734e+18,75.20617350260416,1.402037541071574,7.220732688903809,2.9166269501050315,,,,,,,,,,,,1.6887025959036575e+18,75.19865737304687,5.855999946594238,46.32339935302734,17.326439666748048,1.6887025959036575e+18,75.19865737304687,-248.6847930908203,141.78840026855468,-115.88535766601562,1.6887025959025285e+18,75.19752791341146,0.5910800894101461,-0.7341550588607788,-0.3102356692155202,0.1113310605287551,2.4909802277882895,1.219920039176941,1.2664461135864258
0.25,1.6887025959544223e+18,75.24942228190105,-0.5562980969746908,-11.118237813313804,-0.913837989171346,1.6887025959544223e+18,75.24942228190105,-3.854637781778971,-20.331015904744465,-1.6572290261586506,1.6887025959544223e+18,75.24942228190105,-3.304185628890991,-9.195274035135904,-0.8060785134633383,1.6887025959544297e+18,75.2494296875,1.5075390934944153,12.167901039123535,-0.7166212797164917,1.6887025959544297e+18,75.2494296875,1.506622701883316,12.172635316848757,-0.7143305465579033,,,,,,,,,,,,1.6887025959536563e+18,75.24865649414063,13.829919624328614,45.530399322509766,16.04300003051758,1.6887025959536563e+18,75.24865649414063,-240.71087341308595,140.99539794921876,-117.16879730224608,1.6887025959544223e+18,75.24942228190105,0.4797972440719604,-0.6420168876647949,-0.5072544713815054,0.3082058628400166,2.8827359676361084,1.2053980429967244,1.5160731077194214
0.3,1.688702596006329e+18,75.30132942708333,-1.7498265902201335,3.034180164337158,0.4928938150405884,1.688702596006329e+18,75.30132942708333,-5.149154822031657,-5.987041870752971,-1.2721840292215347,1.688702596006329e+18,75.30132942708333,-3.4051742553710938,-9.003717422485352,-1.8277652263641355,1.6887025959976817e+18,75.2926815592448,1.9780326286951704,-4.245869795481364,-0.3901901791493098,1.6887025959976817e+18,75.2926815592448,1.9770653645197551,-4.2411865790685015,-0.3878994236389796,,,,,,,,,,,,1.6887025960036593e+18,75.29865922851562,17.133679580688476,43.37343978881836,19.166199684143063,1.6887025960036593e+18,75.29865922851562,-237.40711364746093,138.83843688964845,-114.04559783935548,1.688702596006329e+18,75.30132942708333,0.4950510859489441,-0.6191114187240601,-0.5417140324910482,0.2762874960899352,2.6437416871388755,1.1520530382792156,1.7643479108810425
0.35,1.6887025960582392e+18,75.3532392578125,1.4231743415196736,8.536539554595947,3.627803484598795,1.6887025960582392e+18,75.3532392578125,-1.4867404699325562,-0.4809573491414387,1.0987043976783752,1.6887025960582392e+18,75.3532392578125,-2.9157608350118003,-8.999992370605469,-2.5917864640553794,1.6887025960495834e+18,75.34458333333333,-0.8162686706831058,-4.827515284220378,-0.1706350271900494,1.6887025960495834e+18,75.34458333333333,-0.8172358938803276,-4.822832107543945,-0.1683442791302998,,,,,,,,,,,,1.6887025960536612e+18,75.34866113281251,11.614399909973145,43.05379943847656,23.88515968322754,1.6887025960536612e+18,75.34866113281251,-242.9263946533203,138.5187957763672,-109.32664031982422,1.6887025960582392e+18,75.3532392578125,0.5594324866930643,-0.6532705624898275,-0.4714930156866709,0.1925061593453089,2.396514972050985,1.1514338254928589,1.7470529874165852
0.4,1.6887025961101366e+18,75.40513671875,-1.1733787854512532,10.531936963399252,3.87984832127889,1.6887025961101366e+18,75.40513671875,-3.6077783902486167,1.262612779935201,1.797408660252889,1.6887025961101366e+18,75.40513671875,-2.4402456283569336,-9.251819610595703,-2.145127018292745,1.6887025961014894e+18,75.39648909505208,-2.1949406464894614,-3.5982508659362793,0.410246896247069,1.6887025961014894e+18,75.39648909505208,-2.1959078311920166,-3.5935166676839194,0.4125885839263598,,,,,,,,,,,,1.6887025961036588e+18,75.39865864257813,6.324479866027832,45.10095977783203,21.706239700317383,1.6887025961036588e+18,75.39865864257813,-248.21631469726563,140.56595764160156,-111.50555725097657,1.6887025961101366e+18,75.40513671875,0.5932358105977377,-0.6883064309755961,-0.3841529289881388,0.1608174890279769,2.37716539700826,1.225699504216512,1.5687190691630046
0.45,1.6887025961620426e+18,75.45704248046876,0.5497400561968485,10.48648166656494,3.178096294403076,1.6887025961620426e+18,75.45704248046876,-0.6833502352237701,0.8510472575823466,1.846062699953715,1.6887025961620426e+18,75.45704248046876,-1.2389363249142964,-9.61793009440104,-1.394720991452535,1.6887025961533924e+18,75.44839241536458,-1.8948530753453572,-2.756427605946859,2.5123360554377236,1.6887025961533924e+18,75.44839241536458,-1.895820339520772,-2.7518460750579834,2.5146267811457315,,,,,,,,,,,,1.688702596153658e+18,75.44865771484375,-1.1858398914337158,47.389678955078125,16.87016010284424,1.688702596153658e+18,75.44865771484375,-255.7266357421875,142.85467834472655,-116.34163970947266,1.6887025961620426e+18,75.45704248046876,0.645834227403005,-0.6871476372083029,-0.2915139098962148,0.1577848394711812,2.167350649833679,1.3709735870361328,1.6245150566101074
0.5,1.6887025962052977e+18,75.50029760742187,-0.4165012985467911,9.7517671585083,2.674251914024353,1.6887025962052977e+18,75.50029760742187,-0.3954139500856399,-0.0334995090961456,1.848156452178955,1.6887025962052977e+18,75.50029760742187,0.0152413025498389,-9.767762184143066,-0.8887828588485718,1.6887025962052895e+18,75.50028930664062,-0.6189592008789381,-1.889151652654012,2.17966898282369,1.6887025962052895e+18,75.50028930664062,-0.6199264253179232,-1.8844683567682905,2.1820106506347656,,,,,,,,,,,,1.6887025962036608e+18,75.49866083984375,-10.316319942474363,48.085078430175784,13.002759552001953,1.6887025962036608e+18,75.49866083984375,-264.85711059570315,143.5500732421875,-120.20903778076172,1.6887025962052977e+18,75.50029760742187,0.6929405331611633,-0.6605050265789032,-0.2362458631396293,0.166113294661045,1.4209160208702087,1.459842562675476,2.2986074686050415
0.55,1.6887025962485455e+18,75.54354557291667,1.4349309206008911,6.013217608133952,4.40351144472758,1.6887025962485455e+18,75.54354557291667,1.6474583943684895,-3.7595231533050537,3.478765328725179,1.6887025962485455e+18,75.54354557291667,0.2066814849774042,-9.755236307779947,-0.9874334931373596,1.688702596257196e+18,75.55219620768229,1.185180385907491,-0.0710640052954355,-1.974316522479057,1.688702596257196e+18,75.55219620768229,1.1842131813367207,-0.0663806895414989,-1.9719748894373577,,,,,,,,,,,,1.6887025962536617e+18,75.5486615234375,-12.112159919738769,47.56047821044922,13.080839920043946,1.6887025962536617e+18,75.5486615234375,-266.6529541015625,143.02547302246094,-120.1309600830078,1.6887025962485455e+18,75.54354557291667,0.7061098019282023,-0.6606621742248535,-0.2130756477514902,0.139103353023529,1.2601735194524128,1.4459030230840046,2.38578995068868
0.6,1.688702596300447e+18,75.595447265625,-3.403571327527364,-17.706117630004883,11.761497974395752,1.688702596300447e+18,75.595447265625,-6.1806608239809675,-26.92124843597412,10.731211503346762,1.688702596300447e+18,75.595447265625,-2.782935678958893,-9.19762674967448,-1.0929741462071736,1.688702596309104e+18,75.60410392252605,-0.082415888706843,6.8801242510477705,-10.52072842915853,1.688702596309104e+18,75.60410392252605,-0.0833831131458282,6.884807745615642,-10.518386840820312,1.688702596291801e+18,75.58680102539063,0.0,0.0,3.600897312164306,7.479000091552734,2.730687379837036,339.3906555175781,43.400001525878906,-122.7525813,49.1887029,1.6887025963036562e+18,75.59865620117188,5.231359958648682,47.24083938598633,14.349639892578123,1.6887025963036562e+18,75.59865620117188,-249.30943908691407,142.7058349609375,-118.86215667724608,1.688702596300447e+18,75.595447265625,0.5825939873854319,-0.7391798297564188,-0.2940156459808349,0.1393905033667881,2.5485225518544516,1.24376384417216,1.2277470231056211
0.65,1.6887025963523556e+18,75.64735579427084,-14.27284320195516,-21.77597363789876,2.63116999467214,1.6887025963523556e+18,75.64735579427084,-20.546569506327312,-29.283562978108723,3.4217362403869624,1.6887025963523556e+18,75.64735579427084,-6.279572327931722,-7.490085601806641,0.7278785854578018,1.688702596360999e+18,75.6559990234375,-0.5231042653322219,3.233004331588745,-0.8298096060752869,1.688702596360999e+18,75.6559990234375,-0.5240205625693003,3.237687567869822,-0.8274679680665334,,,,,,,,,,,,1.6887025963536614e+18,75.64866157226564,27.76231918334961,41.0676383972168,7.710399913787842,1.6887025963536614e+18,75.64866157226564,-226.77847595214843,136.5326385498047,-125.50139770507812,1.6887025963523556e+18,75.64735579427084,0.3694085975488027,-0.81344074010849,-0.3952066799004872,0.2117058038711547,-3.0600146452585855,0.8771172563234965,0.8667142391204834
0.7,1.688702596404259e+18,75.69925919596353,30.91165105501811,3.527543226877848,-14.28941774368286,1.688702596404259e+18,75.69925919596353,24.293530702590942,-3.4949169158935547,-12.785449504852297,1.688702596404259e+18,75.69925919596353,-6.623966693878174,-7.004955291748047,1.4412813186645508,1.6887025964042573e+18,75.69925732421875,-3.1700087785720825,-1.805946707725525,-4.58904904127121,1.6887025964042573e+18,75.69925732421875,-3.1709251403808594,-1.801365226507187,-4.586758315563203,,,,,,,,,,,,1.6887025964036603e+18,75.69866044921875,29.44591903686523,40.686998748779295,3.794199895858765,1.6887025964036603e+18,75.69866044921875,-225.0948760986328,136.152001953125,-129.41759643554687,1.688702596404259e+18,75.69925919596353,0.331290324529012,-0.8343600630760193,-0.3731404940287272,0.2261429180701573,-2.9553343454996743,0.8098240693410238,0.7624757091204325
0.75,1.6887025964561572e+18,75.75115706380208,19.17676305770874,-7.621089458465576,-12.945569038391112,1.6887025964561572e+18,75.75115706380208,11.856835126876833,-13.757932662963867,-10.748559474945068,1.6887025964561572e+18,75.75115706380208,-7.325774192810059,-6.119338671366374,2.1343223253885903,1.6887025964475113e+18,75.74251106770834,-2.767525056997935,0.2544254064559936,1.091056187947591,1.6887025964475113e+18,75.74251106770834,-2.768441239992778,0.2591086228688558,1.093397855758667,,,,,,,,,,,,1.6887025964536602e+18,75.74866015625,36.45847930908203,35.741118621826175,-0.6026799976825714,1.6887025964536602e+18,75.74866015625,-218.0823181152344,131.20611572265625,-133.81448059082032,1.6887025964561572e+18,75.75115706380208,0.2843038936456044,-0.8838061690330505,-0.3030368785063426,0.2115674912929534,-2.8751371701558432,0.682718296845754,0.5631007750829061
0.8,1.68870259650807e+18,75.80306982421875,2.1647695700327554,4.793351332346599,-5.463440736134847,1.68870259650807e+18,75.80306982421875,-3.7242290576299033,-2.7651060223579407,-3.312464157740275,1.68870259650807e+18,75.80306982421875,-5.894844690958659,-7.540952682495117,2.0882891019185386,1.6887025964994107e+18,75.79441072591146,0.6345871786276499,-1.1981103618939717,3.825339953104655,1.6887025964994107e+18,75.79441072591146,0.6335181693236033,-1.1933761090040207,3.827681541442871,,,,,,,,,,,,1.688702596503656e+18,75.7986560546875,27.86968002319336,42.28275909423828,-2.2301599383354187,1.688702596503656e+18,75.7986560546875,-226.67111511230468,137.7477569580078,-135.44195556640625,1.68870259650807e+18,75.80306982421875,0.3742656906445821,-0.847101072470347,-0.2869924902915954,0.2432784090439478,-2.8248424530029297,0.8856848478317261,0.502703845500946
0.85,1.6887025965599716e+18,75.85497184244792,3.9733612537384033,3.960260391235352,-7.245251655578613,1.6887025965599716e+18,75.85497184244792,-0.8185447510331869,-4.492524613936742,-5.793222983678182,1.6887025965599716e+18,75.85497184244792,-4.797752062479655,-8.435280481974283,1.3893410762151082,1.6887025965513142e+18,75.84631420898437,-0.3529274066289266,-2.200794776280721,3.0170634587605796,1.6887025965513142e+18,75.84631420898437,-0.3538946012655894,-2.1961114406585693,3.0194051265716553,,,,,,,,,,,,1.6887025965536594e+18,75.84865947265625,19.9738395690918,46.23555908203125,0.9393999844789503,1.6887025965536594e+18,75.84865947265625,-234.56695251464845,141.7005584716797,-132.27239685058595,1.6887025965599716e+18,75.85497184244792,0.4576223989327748,-0.8247435887654623,-0.2509201516707738,0.2163135806719461,-2.884824832280477,1.0430213411649067,0.4422074158986409
0.9,1.688702596611872e+18,75.90687215169271,9.893454233805338,-15.781771659851074,-7.6243577003479,1.688702596611872e+18,75.90687215169271,6.140980084737142,-24.815364837646484,-6.788438002268474,1.688702596611872e+18,75.90687215169271,-3.758320172627767,-9.01608912150065,0.7732323706150055,1.688702596603221e+18,75.89822086588542,1.633606344461441,-0.1634064714113872,2.147242307662964,1.688702596603221e+18,75.89822086588542,1.6325883169968922,-0.1587231159210205,2.1495330333709717,,,,,,,,,,,,1.6887025966036585e+18,75.89865849609376,13.415119743347168,48.37543869018555,1.9837199449539185,1.6887025966036585e+18,75.89865849609376,-241.12567443847655,143.84043884277344,-131.228076171875,1.688702596611872e+18,75.90687215169271,0.5172883669535319,-0.7937938570976257,-0.2456761300563812,0.2024654299020767,-2.9755383332570395,1.1703194777170818,0.4925678968429565
0.95,1.6887025966551247e+18,75.95012475585938,12.31619417667389,-32.10093307495117,0.3045289516448974,1.6887025966551247e+18,75.95012475585938,9.055338263511658,-41.36741638183594,0.2246261835098266,1.6887025966551247e+18,75.95012475585938,-3.266701579093933,-9.248976707458496,-0.1425901688635349,1.688702596655119e+18,75.95011905924478,5.7736436525980634,14.98274294535319,0.5504913950959842,1.688702596655119e+18,75.95011905924478,5.7726766268412275,14.987426122029625,0.55278213818868,,,,,,,,,,,,1.6887025966536625e+18,75.94866240234376,12.04383964538574,47.723958587646486,9.911279678344728,1.6887025966536625e+18,75.94866240234376,-242.49695434570313,143.18895874023437,-123.30051879882812,1.6887025966551247e+18,75.95012475585938,0.4960297644138336,-0.6949799060821533,-0.4261735826730728,0.2869935557246208,3.0709378719329834,1.224820256233215,1.149734228849411
1.0,1.688702596698371e+18,75.99337109375,-1.5721597671508796,-8.672771771748861,4.002040465672811,1.688702596698371e+18,75.99337109375,-5.413761138916016,-17.690735816955566,4.510470589001973,1.688702596698371e+18,75.99337109375,-3.847447395324707,-9.000459671020508,0.4457426220178604,1.6887025967070257e+18,76.00202555338542,1.5324572920799255,2.2168808380762735,-2.857678532600403,1.6887025967070257e+18,76.00202555338542,1.5314900477727251,2.2215640544891357,-2.855387806892395,,,,,,,,,,,,1.6887025967036562e+18,75.99865620117188,22.208879470825195,44.26403961181641,9.757559776306152,1.6887025967036562e+18,75.99865620117188,-232.33191528320313,139.72903442382812,-123.45423736572266,1.688702596698371e+18,75.99337109375,0.3469431400299072,-0.5588409503300985,-0.6224100788434347,0.42166734735171,-3.038418928782145,1.1543287833531697,1.6095037460327148
1.05,1.6887025967502807e+18,76.04528068033854,3.6139440536499023,4.674358526865642,3.247257947921753,1.6887025967502807e+18,76.04528068033854,-0.7318049073219299,-4.091926157474518,2.509273370107015,1.6887025967502807e+18,76.04528068033854,-4.351594924926758,-8.748780250549316,-0.8006720244884491,1.688702596758928e+18,76.05392805989584,-1.0162252287069955,-7.266445636749268,0.0945313970247904,1.688702596758928e+18,76.05392805989584,-1.017243375380834,-7.261762460072835,0.0968730449676513,,,,,,,,,,,,1.688702596753661e+18,76.04866093749999,23.182439422607423,42.39743881225586,15.850239753723145,1.688702596753661e+18,76.04866093749999,-231.35835876464844,137.86244201660156,-117.36156005859377,1.6887025967502807e+18,76.04528068033854,0.4088431398073832,-0.6087508002916971,-0.5947828690210978,0.325415144364039,2.9442216555277505,1.0916568835576377,1.6677946249643962
1.1,1.6887025968021842e+18,76.09718416341146,1.7758602301279705,11.220768292744957,4.23637596766154,1.6887025968021842e+18,76.09718416341146,-2.045464555422465,2.28235399723053,2.8941190242767334,1.6887025968021842e+18,76.09718416341146,-3.827170769373576,-8.920909881591797,-1.40494438012441,1.688702596810834e+18,76.1058340657552,-2.0749056736628213,-6.023182233174642,0.652047723531723,1.688702596810834e+18,76.1058340657552,-2.075872778892517,-6.01849889755249,0.6543385088443756,1.6887025968108342e+18,76.10583422851562,0.0,0.0,3.600897312164306,7.60699987411499,2.7225794792175293,337.01171875,43.400001525878906,-122.7526036,49.1887177,1.6887025968036562e+18,76.09865634765625,15.40127944946289,44.18595886230469,18.846559524536133,1.6887025968036562e+18,76.09865634765625,-239.13951721191407,139.6509552001953,-114.36523895263672,1.6887025968021842e+18,76.09718416341146,0.4948007464408874,-0.6742539604504904,-0.489779641230901,0.2422708968321482,2.7582027117411294,1.134942928949992,1.5024607578913372
1.15,1.6887025968540795e+18,76.14907934570313,1.6352579593658447,11.459172884623207,4.046900590260823,1.6887025968540795e+18,76.14907934570313,-1.0825528353452682,2.1244277556737265,2.787040193875631,1.6887025968540795e+18,76.14907934570313,-2.7236568133036294,-9.317240397135416,-1.322547713915507,1.6887025968540856e+18,76.14908557128906,-1.6984344720840454,-3.7639989852905273,2.894126772880554,1.6887025968540856e+18,76.14908557128906,-1.69942706823349,-3.75934100151062,2.8964176177978516,,,,,,,,,,,,1.6887025968536545e+18,76.14865434570314,6.768559789657592,46.80895919799805,17.394759750366212,1.6887025968536545e+18,76.14865434570314,-247.77223510742184,142.27395629882812,-115.81703643798828,1.6887025968540795e+18,76.14907934570313,0.5698484579722086,-0.7019744515419006,-0.377430905898412,0.197198470433553,2.622601270675659,1.2531516949335737,1.3678980668385825
1.2,1.6887025969059853e+18,76.2009852701823,0.569545845190684,10.388720194498696,2.532610495885214,1.6887025969059853e+18,76.2009852701823,-0.1258225937684376,0.643270472685496,1.6917256116867063,1.6887025969059853e+18,76.2009852701823,-0.7012144774198532,-9.727945327758787,-0.9035723010698954,1.68870259689733e+18,76.19232958984375,-0.901331663131714,-1.073595662911733,4.088673830032349,1.68870259689733e+18,76.19232958984375,-0.9023497899373372,-1.068912347157796,4.0909645557403564,,,,,,,,,,,,1.688702596903655e+18,76.19865512695313,-4.640879824757576,48.09727783203125,14.63755989074707,1.688702596903655e+18,76.19865512695313,-259.1816711425781,143.5622802734375,-118.57423706054688,1.6887025969059853e+18,76.2009852701823,0.6483505566914877,-0.6597196857134501,-0.3089231550693511,0.2195250689983367,1.9956005016962688,1.435818870862325,1.9138836065928144
1.25,1.6887025969578885e+18,76.25288859049479,-0.2493781248728434,7.787033716837565,4.16112756729126,1.6887025969578885e+18,76.25288859049479,-0.1328016519546508,-1.9956140518188477,3.342972675959269,1.6887025969578885e+18,76.25288859049479,0.1107304493586222,-9.765143076578775,-0.8808423082033793,1.688702596949239e+18,76.24423893229168,0.4275038590033849,0.981915016969045,0.3804163734118144,1.688702596949239e+18,76.24423893229168,0.4264857533077399,0.9865473310152688,0.3827070991198222,,,,,,,,,,,,1.6887025969536517e+18,76.24865161132813,-10.794559860229493,47.20423889160156,14.915719604492187,1.6887025969536517e+18,76.24865161132813,-265.3353515625,142.6692352294922,-118.29607849121092,1.6887025969578885e+18,76.25288859049479,0.673895021279653,-0.6296999851862589,-0.3039944370587666,0.237714077035586,1.3717480103174846,1.454439401626587,2.557527462641398
1.3,1.688702597009788e+18,76.30478784179688,-2.1090126037597656,-13.86582644780477,12.148269971211752,1.688702597009788e+18,76.30478784179688,-5.192026307185491,-23.068006992340088,11.91506020228068,1.688702597009788e+18,76.30478784179688,-3.088859717051188,-9.18467617034912,-0.2958972851435343,1.6887025970011402e+18,76.29614021809896,-1.0109310873473685,4.272595087687175,-8.378169536590576,1.6887025970011402e+18,76.29614021809896,-1.011847388309737,4.277278343836467,-8.37582794825236,,,,,,,,,,,,1.6887025970036567e+18,76.29865659179687,3.179319953918457,47.24571914672852,14.27399959564209,1.6887025970036567e+18,76.29865659179687,-251.361474609375,142.7107177734375,-118.93779754638672,1.688702597009788e+18,76.30478784179688,0.5286222298940023,-0.7071275512377421,-0.3891197840372721,0.2498739312092463,0.7664167881011962,1.2409594456354778,1.235989689826965
1.35,1.6887025970616952e+18,76.35669506835937,-16.857385794321697,-28.1158504486084,2.779995083808899,1.6887025970616952e+18,76.35669506835937,-23.00579325358073,-35.70151138305664,3.8664026061693826,1.6887025970616952e+18,76.35669506835937,-6.154253959655762,-7.568156242370605,1.0237200657526653,1.6887025970530437e+18,76.34804378255208,-1.0861184000968933,1.8912386894226072,-4.649753510951996,1.6887025970530437e+18,76.34804378255208,-1.0870856046676636,1.895922025044759,-4.647462785243989,,,,,,,,,,,,1.6887025970536532e+18,76.34865317382813,26.710679626464845,41.75327911376953,8.069079971313476,1.6887025970536532e+18,76.34865317382813,-227.83011779785156,137.21828002929686,-125.14271850585938,1.6887025970616952e+18,76.35669506835937,0.3511472642421722,-0.7807314594586691,-0.4500667850176493,0.2535598476727803,-3.014582395553589,0.8895541429519653,0.9853608012199402
1.4,1.6887025971049482e+18,76.39994836425781,30.252354860305783,1.3807599544525146,-7.6465888023376465,1.6887025971049482e+18,76.39994836425781,23.82264375686646,-5.982654809951782,-6.818647027015686,1.6887025971049482e+18,76.39994836425781,-6.435558795928955,-7.34591007232666,0.7652543187141418,1.6887025971049472e+18,76.3999471842448,-3.96751872698466,-4.740925312042236,-4.621297240257263,1.6887025971049472e+18,76.3999471842448,-3.9684860706329346,-4.736241896947225,-4.619006514549255,,,,,,,,,,,,1.6887025971036544e+18,76.3986544921875,28.272279739379883,41.08715896606445,7.127239799499511,1.6887025971036544e+18,76.3986544921875,-226.26851501464844,136.55215759277343,-126.08455810546874,1.6887025971049482e+18,76.39994836425781,0.3655750751495361,-0.8265840113162994,-0.3756750226020813,0.201121762394905,-3.0547534227371216,0.8582805693149567,0.8138254582881927
1.45,1.6887025971482002e+18,76.44320011393229,35.742473125457764,-8.893478234608969,-12.932233492533364,1.6887025971482002e+18,76.44320011393229,28.047072410583496,-14.86640739440918,-11.839287916819254,1.6887025971482002e+18,76.44320011393229,-7.701248009999593,-5.955424785614014,1.030258039633433,1.6887025971568527e+18,76.45185278320312,-1.3634003748496373,0.7494298219680786,3.402213883896669,1.6887025971568527e+18,76.45185278320312,-1.3643166348338127,0.7541640599568685,3.4045046158134937,,,,,,,,,,,,1.6887025971536568e+18,76.44865673828124,36.38039932250977,35.96803970336914,4.660399866104126,1.6887025971536568e+18,76.44865673828124,-218.16039428710937,131.43303527832032,-128.55139617919923,1.6887025971482002e+18,76.44320011393229,0.2932198246320088,-0.8906521399815878,-0.3112131555875142,0.1511162718137104,-3.0291314919789634,0.6644577980041504,0.6319644451141357
1.5,1.688702597200101e+18,76.49510107421874,-0.1448395252227783,4.2218912442525225,-4.634032408396403,1.688702597200101e+18,76.49510107421874,-6.174878358840942,-3.4139597018559775,-3.404388507207235,1.688702597200101e+18,76.49510107421874,-6.035884857177734,-7.618346373240153,1.1669564644495647,1.688702597208754e+18,76.50375382486979,0.2224058465411265,-2.4230988025665283,4.462166945139567,1.688702597208754e+18,76.50375382486979,0.2213877383619546,-2.418517311414083,4.464508533477783,,,,,,,,,,,,1.688702597203653e+18,76.49865307617188,26.38371925354004,42.92203903198242,3.3110799312591555,1.688702597203653e+18,76.49865307617188,-228.15707397460935,138.3870391845703,-129.90072021484374,1.688702597200101e+18,76.49510107421874,0.3962508738040924,-0.8498645623524984,-0.2867704431215922,0.1930028150478998,-2.9788854916890464,0.9030101895332336,0.5726740558942159
1.55,1.688702597252008e+18,76.5470078125,1.9307932058970136,7.155574480692546,-4.907029628753662,1.688702597252008e+18,76.5470078125,-2.521038055419922,-1.5780664881070454,-4.490929285685222,1.688702597252008e+18,76.5470078125,-4.457677284876506,-8.71613629659017,0.3534129510323207,1.6887025972606623e+18,76.55566243489584,-1.217810789744059,-3.9776999950408936,3.7880262533823648,1.6887025972606623e+18,76.55566243489584,-1.2187270720799763,-3.9730166594187417,3.790317058563232,,,,,,,,,,,,1.688702597253657e+18,76.54865737304688,15.601359939575197,47.42627868652344,6.119519901275635,1.688702597253657e+18,76.54865737304688,-238.9394317626953,142.89127502441406,-127.09227752685548,1.688702597252008e+18,76.5470078125,0.504026840130488,-0.817308227221171,-0.2301177730162938,0.1532929042975107,-3.0987369219462075,1.110390305519104,0.5223328371842703
1.6,1.6887025973039155e+18,76.59891552734375,9.890647570292154,-15.46619447072347,-7.884776751200358,1.6887025973039155e+18,76.59891552734375,7.0558358033498125,-24.86242421468099,-7.782855192820231,1.6887025973039155e+18,76.59891552734375,-2.8406577905019126,-9.378725051879885,0.0392340843876202,1.688702597312562e+18,76.60756201171876,2.0321451226870217,3.0210341612497973,2.757852872212728,1.688702597312562e+18,76.60756201171876,2.031177838643392,3.025717377662659,2.7601436773935952,1.6887025973298552e+18,76.62485522460938,0.0,0.0,3.611234188079834,7.614999771118164,2.7139739990234375,335.0745544433594,43.400001525878906,-122.7526226,49.1887261,1.6887025973036595e+18,76.59865947265625,5.011759972572326,49.57835922241211,5.904799938201904,1.6887025973036595e+18,76.59865947265625,-249.52903442382816,145.043359375,-127.30699920654295,1.6887025973039155e+18,76.59891552734375,0.5875879923502604,-0.7794206142425537,-0.1748229463895161,0.1260847796996434,1.0046591758728027,1.28903595606486,0.4758226672808329
1.65,1.688702597355816e+18,76.65081591796876,9.239494323730469,-22.159617106119793,5.588968396186829,1.688702597355816e+18,76.65081591796876,6.528018951416016,-31.56352424621582,5.0149573882420855,1.688702597355816e+18,76.65081591796876,-2.717321236928304,-9.386402448018393,-0.6366983552773794,1.6887025973558124e+18,76.65081237792968,5.745645761489868,19.98033332824707,-1.5880968905985355,1.6887025973558124e+18,76.65081237792968,5.744652986526489,19.98491477966309,-1.585806155577302,,,,,,,,,,,,1.6887025973536627e+18,76.6486626953125,5.0776399850845335,48.01919937133789,12.456199836730956,1.6887025973536627e+18,76.6486626953125,-249.4631561279297,143.48420104980468,-120.75559692382812,1.688702597355816e+18,76.65081591796876,0.529104212919871,-0.6665624578793844,-0.4238590498765309,0.2703301111857096,2.8391470909118652,1.277240514755249,1.3558473587036133
1.7,1.688702597407715e+18,76.70271500651042,3.3431528409322104,-1.1218350728352864,0.6675199468930563,1.688702597407715e+18,76.70271500651042,-1.0348956783612568,-9.865208943684896,1.616750439008077,1.688702597407715e+18,76.70271500651042,-4.383894602457683,-8.725869178771973,0.8865430156389872,1.6887025973990687e+18,76.69406860351563,0.610305259625117,9.248398145039875,-2.952464481194814,1.6887025973990687e+18,76.69406860351563,0.6092871725559235,9.253081321716309,-2.950122793515523,,,,,,,,,,,,1.688702597403665e+18,76.69866484375,26.791199493408204,42.25835952758789,8.788879871368408,1.688702597403665e+18,76.69866484375,-227.74959716796872,137.72335815429688,-124.42291717529297,1.688702597407715e+18,76.70271500651042,0.2968798577785492,-0.5452824234962463,-0.6564179460207621,0.4277786115805308,-2.974858601888021,1.0885777870814006,1.6540571848551433
1.75,1.688702597459622e+18,76.75462231445313,4.326039473215739,6.6286881764729815,2.595388650894165,1.688702597459622e+18,76.75462231445313,-0.1082752247651418,-2.1290139481425285,2.4815565745035806,1.688702597459622e+18,76.75462231445313,-4.440160751342773,-8.740197817484537,-0.1765195528666178,1.6887025974509711e+18,76.74597111002605,-1.4021902481714883,-8.37195905049642,0.6217589974403381,1.6887025974509711e+18,76.74597111002605,-1.4031574527422588,-8.367326418558756,0.6240497529506683,,,,,,,,,,,,1.6887025974536576e+18,76.74865766601563,24.595199966430663,42.58043823242187,13.478559875488282,1.6887025974536576e+18,76.74865766601563,-229.94559631347656,138.04543762207032,-119.73323822021484,1.688702597459622e+18,76.75462231445313,0.3938349485397339,-0.6230246623357137,-0.5819753607114156,0.3385287920633952,0.9672163327534994,1.0933920939763386,1.551605184872945
1.8,1.6887025975115284e+18,76.80652864583334,3.4524914423624673,10.23858960469564,2.9205094973246255,1.6887025975115284e+18,76.80652864583334,-0.4741776809096336,1.2697912454605105,2.1946171124776206,1.6887025975115284e+18,76.80652864583334,-3.932515144348145,-8.9512939453125,-0.7885798017183939,1.688702597502878e+18,76.79787801106771,-2.1282545725504556,-7.127372105916341,0.5840380787849426,1.688702597502878e+18,76.79787801106771,-2.1292726198832193,-7.122790495554606,0.5863288044929504,,,,,,,,,,,,1.6887025975036595e+18,76.79865942382813,16.567599487304687,44.771558380126955,16.743279647827148,1.6887025975036595e+18,76.79865942382813,-237.973193359375,140.23655700683594,-116.46851654052736,1.6887025975115284e+18,76.80652864583334,0.4899208048979441,-0.698037842909495,-0.4572564363479614,0.2472455203533172,2.887728691101074,1.1494494279225669,1.3245846430460613
1.85,1.688702597554775e+18,76.84977490234375,2.7607298493385315,10.359566688537598,3.066454291343689,1.688702597554775e+18,76.84977490234375,-0.8569296300411224,1.2771690785884855,2.1643081307411194,1.688702597554775e+18,76.84977490234375,-3.623505473136902,-9.064892768859862,-0.9648336172103882,1.6887025975547784e+18,76.84977848307291,-2.245591481526693,-6.869026978810628,0.0035633835941553,1.6887025975547784e+18,76.84977848307291,-2.246609608332316,-6.864343643188477,0.0058541207884749,,,,,,,,,,,,1.6887025975536563e+18,76.84865610351562,10.22603988647461,46.513719177246095,15.779479598999025,1.6887025975536563e+18,76.84865610351562,-244.31475524902345,141.9787170410156,-117.43231811523438,1.688702597554775e+18,76.84977490234375,0.54197758436203,-0.7473812699317932,-0.3437592536211014,0.1688266173005103,2.814866065979004,1.186802864074707,1.0835501551628113
1.9,1.688702597598032e+18,76.89303165690104,8.02497168382009,6.724168300628662,0.9140555659929912,1.688702597598032e+18,76.89303165690104,4.780062047143777,-2.500499725341797,0.0494516690572102,1.688702597598032e+18,76.89303165690104,-3.250755707422892,-9.20716349283854,-0.9272913138071696,1.6887025976066772e+18,76.90167724609375,0.0679078499476115,1.4053973257541656,1.149648388226827,1.6887025976066772e+18,76.90167724609375,0.0669406503438949,1.410029689470927,1.1519391139348347,,,,,,,,,,,,1.6887025976036636e+18,76.898663671875,6.517239952087403,47.855718994140624,14.325239753723144,1.6887025976036636e+18,76.898663671875,-248.02355346679687,143.32071838378906,-118.88655853271484,1.688702597598032e+18,76.89303165690104,0.5688323974609375,-0.7595901886622111,-0.2834448913733164,0.137440616885821,2.7947808106740317,1.22938605149587,0.9604296882947286
1.95,1.6887025976499374e+18,76.9449375,-0.2708079814910888,4.574344793955485,2.8877414067586265,1.6887025976499374e+18,76.9449375,-3.342175006866455,-4.716054042180379,2.0727826356887817,1.6887025976499374e+18,76.9449375,-3.0772130489349365,-9.272894223531086,-0.8776461482048035,1.688702597658585e+18,76.9535850423177,1.328122893969218,3.748829046885173,-0.5510513385136923,1.688702597658585e+18,76.9535850423177,1.3272065321604412,3.753461440404256,-0.5487606128056844,,,,,,,,,,,,1.688702597653657e+18,76.94865737304687,6.941799831390381,47.69223861694336,15.254879760742188,1.688702597653657e+18,76.94865737304687,-247.5989990234375,143.15723876953126,-117.95691833496092,1.6887025976499374e+18,76.9449375,0.562478760878245,-0.7310822606086731,-0.3384398420651753,0.1838502983252207,2.7839794953664145,1.2457669576009114,1.125150442123413
2.0,1.6887025977018368e+18,76.99683683268229,-13.986197789510092,-25.301788330078125,5.603214104970296,1.6887025977018368e+18,76.99683683268229,-18.14477411905925,-34.1569455464681,4.936991373697917,1.6887025977018368e+18,76.99683683268229,-4.164422432581584,-8.837651888529459,-0.7289101282755533,1.688702597710491e+18,77.00549080403646,0.4578944245974223,2.9636635780334473,-3.2803972562154136,1.688702597710491e+18,77.00549080403646,0.4568762977917989,2.96829605102539,-3.2780555884043374,,,,,,,,,,,,1.688702597703662e+18,76.99866206054688,13.724999809265135,45.496238708496094,16.189399909973144,1.688702597703662e+18,76.99866206054688,-240.8157958984375,140.96123352050782,-117.02239685058592,1.6887025977018368e+18,76.99683683268229,0.4949154953161875,-0.7263482014338175,-0.4227382739384969,0.2182469516992568,2.8990237712860107,1.130250374476115,1.2094873189926147
2.05,1.6887025977537413e+18,77.04874137369792,-3.911912600199382,-10.126964886983236,-2.129859209060669,1.6887025977537413e+18,77.04874137369792,-9.51944621404012,-18.177476565043133,-2.2420748472213745,1.6887025977537413e+18,77.04874137369792,-5.6133796374003095,-8.033007939656576,-0.1749030575156211,1.6887025977623872e+18,77.05738720703125,-2.1405736605326333,-2.2278764148553214,-2.9764917691548667,1.6887025977623872e+18,77.05738720703125,-2.141540845235189,-2.223142236471176,-2.974201043446859,,,,,,,,,,,,1.68870259775366e+18,77.04865971679688,22.423599243164062,42.75367965698242,13.907999801635745,1.68870259775366e+18,77.04865971679688,-232.11719665527343,138.2186767578125,-119.30379638671874,1.6887025977537413e+18,77.04874137369792,0.417466660340627,-0.7684529821077982,-0.4365854660669963,0.2091383536656696,3.062535047531128,0.9697012702624004,1.076041340827942
2.1,1.6887025978056443e+18,77.10064428710938,36.81850735346476,-8.518446604410807,-2.55412228902181,1.6887025978056443e+18,77.10064428710938,29.498119235038757,-14.883556048075356,-3.127219835917155,1.6887025978056443e+18,77.10064428710938,-7.32623561223348,-6.347605069478353,-0.6357849538326263,1.6887025978056468e+18,77.10064697265625,-1.8405369520187376,-3.146490514278412,-9.514760851860046,1.6887025978056468e+18,77.10064697265625,-1.8414533138275144,-3.141832709312439,-9.512393832206726,,,,,,,,,,,,1.688702597803659e+18,77.09865893554687,29.719198989868165,38.66667861938477,13.100359916687012,1.688702597803659e+18,77.09865893554687,-224.82159729003905,134.13167724609374,-120.11143951416015,1.6887025978056443e+18,77.10064428710938,0.3404369552930196,-0.8513601223627726,-0.3777097264925639,0.1027018465101718,3.0287772019704184,0.7230874498685201,0.8765047192573547
2.15,1.6887025978575465e+18,77.15254654947917,24.28224229812622,-3.523290475209554,-1.2167876958847046,1.6887025978575465e+18,77.15254654947917,16.404992779095966,-8.974281311035156,-3.1688947677612305,1.6887025978575465e+18,77.15254654947917,-7.883095582326253,-5.433486143747966,-2.0147944688796997,1.6887025978488998e+18,77.14389990234375,-1.4729488492012024,-2.797508275757233,1.092278003692627,1.6887025978488998e+18,77.14389990234375,-1.4738651116689043,-2.7928250435118875,1.0945687294006348,1.6887025978489e+18,77.14390014648437,0.0,0.0,3.620741844177246,7.613999843597412,2.716604471206665,334.10943603515625,43.400001525878906,-122.7526356,49.1887312,1.688702597853662e+18,77.14866201171876,36.66587829589844,31.144159698486327,19.45655975341797,1.688702597853662e+18,77.14866201171876,-217.87491760253903,126.60915832519532,-113.75523681640624,1.6887025978575465e+18,77.15254654947917,-0.0901186565558115,0.3020966251691182,0.1090802351633707,0.0297867041081189,2.8696144421895347,0.5987103382746378,0.7796347935994467
2.2,1.6887025979094515e+18,77.20445133463541,0.0344889958699544,4.510776519775391,-0.3691617250442505,1.6887025979094515e+18,77.20445133463541,-6.439085801442464,-2.740978240966797,-1.5351951122283936,1.6887025979094515e+18,77.20445133463541,-6.479420820871989,-7.234250386555989,-1.228720784187317,1.6887025979008008e+18,77.19580061848957,-0.0949386283755302,0.752891461054484,4.820846716562907,1.6887025979008008e+18,77.19580061848957,-0.0959567533185084,0.7574729323387146,4.823137442270915,,,,,,,,,,,,1.6887025979036608e+18,77.19866079101563,29.45323944091797,38.556878662109376,15.850239753723145,1.6887025979036608e+18,77.19866079101563,-225.08755798339843,134.02187805175782,-117.36155700683594,1.6887025979094515e+18,77.20445133463541,0.4110434651374816,-0.8475990891456604,-0.3257013161977132,0.073644912491242,2.9227611223856607,0.8411489327748617,0.8332540194193522
2.25,1.688702597961352e+18,77.25635180664062,-1.1622774998346963,1.2387593587239585,-4.02898907661438,1.688702597961352e+18,77.25635180664062,-5.511867006619771,-7.287939707438151,-6.004389603932698,1.688702597961352e+18,77.25635180664062,-4.3554355303446455,-8.509194374084473,-2.0380879640579224,1.6887025979527025e+18,77.24770263671876,-0.4893030524253845,-4.732678492863973,4.499887943267822,1.6887025979527025e+18,77.24770263671876,-0.4903211841980616,-4.727995157241821,4.50217866897583,,,,,,,,,,,,1.6887025979536604e+18,77.2486603515625,17.604599380493163,43.819959259033205,17.353279876708985,1.6887025979536604e+18,77.2486603515625,-236.93619689941409,139.2849578857422,-115.8585189819336,1.688702597961352e+18,77.25635180664062,0.5316646496454874,-0.7973055044809977,-0.2774221003055572,0.0431928038597106,2.6456967194875083,1.0625348687171936,0.9699808359146118
2.3,1.68870259800461e+18,77.29960998535157,26.794763565063477,-31.154972076416016,-1.037582874298096,1.68870259800461e+18,77.29960998535157,24.634407997131348,-40.38695812225342,-3.5371899753808975,1.68870259800461e+18,77.29960998535157,-2.166201889514923,-9.214481830596924,-2.5622944831848145,1.6887025980046098e+18,77.29960961914063,1.3968452215194702,4.521319031715393,4.508389155069987,1.6887025980046098e+18,77.29960961914063,1.395928919315338,4.526053110758464,4.510679880777995,,,,,,,,,,,,1.6887025980036577e+18,77.29865747070312,-0.1951999902725219,46.27704010009766,19.722519302368163,1.6887025980036577e+18,77.29865747070312,-254.73599243164065,141.74203491210938,-113.48927764892578,1.68870259800461e+18,77.29960998535157,0.6304141879081726,-0.7357008159160614,-0.2441413328051567,0.0234572743065654,2.206543803215027,1.2214872241020205,1.321865439414978
2.35,1.6887025980478628e+18,77.34286287434897,3.086355209350586,-15.127598762512209,3.6179119348526,1.6887025980478628e+18,77.34286287434897,0.093918244043986,-24.280171076456707,1.8897316455841064,1.6887025980478628e+18,77.34286287434897,-2.9982829093933105,-9.135067303975424,-1.7908677260080974,1.6887025980565094e+18,77.35150927734374,2.146834969520569,18.501784642537434,0.4056145151456196,1.6887025980565094e+18,77.35150927734374,2.1458677848180137,18.50641695658366,0.4079052607218424,,,,,,,,,,,,1.6887025980536614e+18,77.3486615234375,12.705079746246335,43.217279052734376,21.635479354858397,1.6887025980536614e+18,77.3486615234375,-241.83571166992184,138.682275390625,-111.5763168334961,1.6887025980478628e+18,77.34286287434897,0.5202217300732931,-0.6217692295710245,-0.5050645073254904,0.2570681422948837,2.54593817392985,1.188576062520345,1.7728920777638753
2.4,1.6887025980997652e+18,77.39476513671876,-5.011580626169841,1.958038330078125,-2.931324521700541,1.6887025980997652e+18,77.39476513671876,-8.90010372797648,-6.997610410054524,-3.894518246253332,1.6887025980997652e+18,77.39476513671876,-3.894369204839071,-8.938144048055014,-1.025881250699361,1.6887025981084132e+18,77.40341341145833,0.6635523835817972,-4.080172618230184,-1.028289794921875,1.6887025981084132e+18,77.40341341145833,0.6625851616263391,-4.075438360373179,-1.025948166847229,,,,,,,,,,,,1.6887025981036595e+18,77.39865947265625,22.01123962402344,41.27015991210938,19.10763931274414,1.6887025981036595e+18,77.39865947265625,-232.5295562744141,136.73515930175782,-114.10415802001953,1.6887025980997652e+18,77.39476513671876,0.4035249253114064,-0.5379384160041809,-0.6418671210606893,0.3671639959017436,2.8477021853129068,1.1343960364659629,1.9338220755259197
2.45,1.6887025981516695e+18,77.44666951497396,2.4958109060923257,6.850870450337728,4.120978673299153,1.6887025981516695e+18,77.44666951497396,-1.2203395913044612,-1.9551354845364888,1.9298114776611328,1.6887025981516695e+18,77.44666951497396,-3.721996466318766,-8.788501739501953,-2.253854513168335,1.6887025981603192e+18,77.45531901041666,-1.1982630888621013,-6.993287086486816,-0.7095200022061666,1.6887025981603192e+18,77.45531901041666,-1.1992302934328716,-6.988654772440593,-0.7072292367617289,,,,,,,,,,,,1.68870259815366e+18,77.44865981445312,16.713999938964843,40.89195938110352,24.890439605712892,1.68870259815366e+18,77.44865981445312,-237.82679443359376,136.3569580078125,-108.32135620117188,1.6887025981516695e+18,77.44666951497396,0.4927265445391337,-0.6011468172073364,-0.5711268583933512,0.2591089457273483,2.55444614092509,1.099267601966858,1.8856274684270224
2.5,1.6887025982035722e+18,77.49857242838543,1.8551894028981528,10.105196634928385,4.708130836486816,1.6887025982035722e+18,77.49857242838543,-1.406979735319813,1.193619688351949,2.2333011627197266,1.6887025982035722e+18,77.49857242838543,-3.268015146255493,-8.89407221476237,-2.5375170707702637,1.6887025982122217e+18,77.5072216796875,-1.8662442366282144,-4.975395679473877,-0.3489567687114079,1.6887025982122217e+18,77.5072216796875,-1.867262323697408,-4.970763206481934,-0.346666036794583,,,,,,,,,,,,1.6887025982036616e+18,77.49866147460938,10.199199676513672,42.55848007202148,25.593159866333007,1.6887025982036616e+18,77.49866147460938,-244.34159240722656,138.0234802246094,-107.61863708496094,1.6887025982035722e+18,77.49857242838543,0.5543549259503683,-0.6644890705744425,-0.4672124683856964,0.177466923991839,2.4211745262145996,1.1287377675374348,1.6935623089472454
2.55,1.6887025982554757e+18,77.55047574869792,1.9333536624908447,10.061952908833822,3.903533776601156,1.6887025982554757e+18,77.55047574869792,-0.6875377222895622,0.8827521403630575,1.662612994511922,1.6887025982554757e+18,77.55047574869792,-2.626737435658773,-9.161696434020996,-2.3036080996195474,1.6887025982554752e+18,77.55047521972656,-1.786857187747955,-3.8486037254333496,1.0005972683429718,1.6887025982554752e+18,77.55047521972656,-1.7877734899520874,-3.8439459800720215,1.0028879940509796,,,,,,,,,,,,1.6887025982536617e+18,77.54866157226563,4.067479872703553,44.922838592529295,23.16291923522949,1.6887025982536617e+18,77.54866157226563,-250.4733154296875,140.38783569335936,-110.0488784790039,1.6887025982554757e+18,77.55047574869792,0.5988541841506958,-0.6976013978322347,-0.3694008489449819,0.1320306907097498,2.333279848098755,1.2051177024841309,1.5465536912282307
2.6,1.6887025983073743e+18,77.60237434895834,1.3717419107755024,9.185595989227297,3.1349027156829834,1.6887025983073743e+18,77.60237434895834,-0.2707877705494563,-0.3294119108468294,1.3972090085347493,1.6887025983073743e+18,77.60237434895834,-1.6483757495880127,-9.497503280639648,-1.8003811438878377,1.688702598298727e+18,77.59372680664063,-1.3898711601893108,-2.11339008808136,1.5391768217086792,1.688702598298727e+18,77.59372680664063,-1.390787402788798,-2.1088085969289145,1.541467547416687,,,,,,,,,,,,1.6887025983036667e+18,77.5986666015625,-2.4692799031734465,46.572278594970705,19.6224796295166,1.6887025983036667e+18,77.5986666015625,-257.01007385253905,142.0372772216797,-113.58931884765624,1.6887025983073743e+18,77.60237434895834,0.6420093973477682,-0.6950557827949524,-0.2971310516198476,0.1269229700167973,2.1764143308003745,1.3178187211354573,1.579454342524211
2.65,1.6887025983592824e+18,77.65428255208333,0.5315323670705159,-0.9895861943562826,5.023657162984212,1.6887025983592824e+18,77.65428255208333,-1.1649057865142822,-10.54496987660726,3.608177105585734,1.6887025983592824e+18,77.65428255208333,-1.7022841771443684,-9.53787930806478,-1.4781675338745115,1.68870259835063e+18,77.64563012695312,-0.21176661302646,0.8680395086606344,-1.0197886029879253,1.68870259835063e+18,77.64563012695312,-0.2126829152305921,0.872671882311503,-1.0174978574117024,1.688702598367934e+18,77.66293383789062,0.0,0.0,3.620741844177246,7.598000049591064,2.71846866607666,330.7896423339844,43.400001525878906,-122.7526485,49.1887368,1.6887025983536553e+18,77.64865522460937,-4.948319911956787,47.223759460449216,17.53628005981445,1.6887025983536553e+18,77.64865522460937,-259.48911743164064,142.68876037597656,-115.67551727294922,1.6887025983592824e+18,77.65428255208333,0.6381365060806274,-0.7015036344528198,-0.2854597767194112,0.1360600888729095,2.262211004892985,1.3384764591852825,1.4891184568405151
2.7,1.6887025984111782e+18,77.70617846679687,-15.167277018229166,-28.065366744995117,4.507580280303955,1.6887025984111782e+18,77.70617846679687,-19.926829020182293,-36.5497678120931,3.761916081110636,1.6887025984111782e+18,77.70617846679687,-4.765398740768433,-8.466895898183187,-0.8083515365918478,1.6887025984025344e+18,77.69753450520834,0.436565026640892,5.434358914693196,-7.251428604125977,1.6887025984025344e+18,77.69753450520834,0.4355978220701217,5.439093271891276,-7.249137719472249,,,,,,,,,,,,1.688702598403662e+18,77.69866196289063,9.279320004582406,45.708518981933594,16.923839569091797,1.688702598403662e+18,77.69866196289063,-245.261474609375,141.17351989746095,-116.28795928955078,1.6887025984111782e+18,77.70617846679687,0.4850714802742004,-0.7655341823895773,-0.3827066918214162,0.1684807737668354,2.8891173203786216,1.0641878247261047,1.083525538444519
2.75,1.6887025984544384e+18,77.74943823242188,-3.426854372024536,-11.670566082000732,-2.801535129547119,1.6887025984544384e+18,77.74943823242188,-9.618848085403442,-19.28615093231201,-3.0254251956939697,1.6887025984544384e+18,77.74943823242188,-6.197839736938477,-7.59808087348938,-0.2865775227546692,1.688702598454438e+18,77.74943790690104,-1.5772031545639038,-1.447903335094452,-1.966426134109497,1.688702598454438e+18,77.74943790690104,-1.5782212416330974,-1.443270981311798,-1.9641354084014893,,,,,,,,,,,,1.688702598453658e+18,77.74865815429688,24.22919921875,41.748399353027345,14.386239624023435,1.688702598453658e+18,77.74865815429688,-230.3115966796875,137.21339721679686,-118.82555847167968,1.6887025984544384e+18,77.74943823242188,0.4061572551727294,-0.8071352243423462,-0.3957152962684631,0.1636587306857109,3.0487319231033325,0.9032050371170044,0.9568083584308624
2.8,1.6887025984976914e+18,77.79269132486979,50.57181898752848,-6.408314863840739,-2.8890792628129325,1.6887025984976914e+18,77.79269132486979,43.27240161101023,-12.840484301249186,-3.467598839352528,1.6887025984976914e+18,77.79269132486979,-7.3052646319071455,-6.414665222167969,-0.6412069896856943,1.688702598506339e+18,77.80133911132812,-1.102051814397176,-3.415042201677958,-4.986340304215749,1.688702598506339e+18,77.80133911132812,-1.1029680967330933,-3.4103587865829468,-4.984049499034882,,,,,,,,,,,,1.6887025985036585e+18,77.79865849609375,29.93879928588867,38.00299911499023,14.354519844055176,1.6887025985036585e+18,77.79865849609375,-224.60199584960935,133.4679962158203,-118.8572769165039,1.6887025984976914e+18,77.79269132486979,0.3504539628823598,-0.8594391147295634,-0.3546778659025828,0.0939135005076725,3.021169821421305,0.7365938425064087,0.8291847308476766
2.85,1.6887025985495908e+18,77.84459049479166,13.226638317108154,-1.161112944285075,-4.599560022354126,1.6887025985495908e+18,77.84459049479166,5.968298276265462,-7.678168932596843,-5.24905522664388,1.6887025985495908e+18,77.84459049479166,-7.264186382293701,-6.499551296234131,-0.7121826708316803,1.6887025985582487e+18,77.85324869791667,-0.632550944884618,2.0014491081237793,5.40361213684082,1.6887025985582487e+18,77.85324869791667,-0.6335181693236033,2.006183276573817,5.405953725179036,,,,,,,,,,,,1.688702598553661e+18,77.848660546875,32.31292037963867,36.82691955566406,14.671719551086426,1.688702598553661e+18,77.848660546875,-222.2278778076172,132.2919158935547,-118.54007873535156,1.6887025985495908e+18,77.84459049479166,0.3573921819527944,-0.8677363991737366,-0.3321765263875325,0.083174946407477,3.015733242034912,0.7435585061709086,0.778843104839325
2.9,1.688702598601498e+18,77.89649780273437,0.1492311159769693,6.457172234853108,-1.132602830727895,1.688702598601498e+18,77.89649780273437,-5.230710347493489,-1.707079549630483,-1.7403796911239624,1.688702598601498e+18,77.89649780273437,-5.385787487030029,-8.146747271219889,-0.6704642673333486,1.6887025986101484e+18,77.90514843749999,0.3815362453460693,-2.542064825693766,4.337703227996826,1.6887025986101484e+18,77.90514843749999,0.3805690507094065,-2.537432392438253,4.339993953704834,,,,,,,,,,,,1.688702598603664e+18,77.89866376953125,19.0100399017334,44.72763900756836,14.249599838256836,1.688702598603664e+18,77.89866376953125,-235.53075561523437,140.19263916015626,-118.96219635009766,1.688702598601498e+18,77.89649780273437,0.4651918907960256,-0.8137200276056925,-0.3220979670683543,0.1285868262251217,2.9691227277119956,0.9984102249145508,0.8503096699714661
2.95,1.6887025986533985e+18,77.94839819335938,0.8369130293528241,2.578684171040853,-3.5561673243840537,1.6887025986533985e+18,77.94839819335938,-2.4967109858989716,-6.502296090126038,-5.064807891845703,1.6887025986533985e+18,77.94839819335938,-3.339470068613688,-9.063475608825684,-1.5713278849919636,1.68870259866205e+18,77.95705004882812,-0.2733622044324875,-4.19669508934021,4.080783526102702,1.68870259866205e+18,77.95705004882812,-0.2743293941020965,-4.19196097056071,4.083125114440918,,,,,,,,,,,,1.6887025986536607e+18,77.94866049804688,5.441199758648872,47.133479309082034,16.477319526672364,1.6887025986536607e+18,77.94866049804688,-249.0995971679687,142.59847717285157,-116.73447875976562,1.6887025986533985e+18,77.94839819335938,0.5776538451512655,-0.7665682236353556,-0.2645698289076487,0.082109197974205,2.612313032150269,1.195157766342163,1.0343907872835796
3.0,1.6887025987053074e+18,78.00030729166667,20.57805299758911,-31.75644810994466,0.8408037821451823,1.6887025987053074e+18,78.00030729166667,18.61097566286723,-41.177686055501304,-1.0430711706479396,1.6887025987053074e+18,78.00030729166667,-1.97292427221934,-9.403731981913248,-1.94656244913737,1.688702598705303e+18,78.00030310058594,2.967430591583252,12.383766174316406,2.091297134757042,1.688702598705303e+18,78.00030310058594,2.9663615226745605,12.388347625732422,2.093587875366211,,,,,,,,,,,,1.6887025987036603e+18,77.99866025390625,-2.0642399311065676,46.48687973022461,19.029560089111328,1.6887025987036603e+18,77.99866025390625,-256.60503845214845,141.95187683105468,-114.18224029541015,1.6887025987053074e+18,78.00030729166667,0.6227816740671793,-0.6935695211092631,-0.3180525749921798,0.1279254518449306,2.25734535853068,1.2821104129155476,1.538338541984558
3.05,1.6887025987572037e+18,78.05220361328125,-4.740119298299153,-5.512640794118245,-0.7570393085479736,1.6887025987572037e+18,78.05220361328125,-8.32044259707133,-14.615759372711182,-1.483549992243449,1.6887025987572037e+18,78.05220361328125,-3.586169481277466,-9.085614204406738,-0.7891981601715088,1.68870259874855e+18,78.04354964192709,2.408183534940084,17.273690859476726,-0.8632543881734213,1.68870259874855e+18,78.04354964192709,2.407216270764669,17.278374195098877,-0.8609127501646677,,,,,,,,,,,,1.6887025987536596e+18,78.04865961914064,17.960839462280273,42.43647842407226,19.88111991882324,1.6887025987536596e+18,78.04865961914064,-236.5799591064453,137.90147705078124,-113.33067932128908,1.6887025987572037e+18,78.05220361328125,0.4149181644121806,-0.5441015561421713,-0.6208612124125162,0.3733448386192322,2.853962500890096,1.1730573574701946,1.8946192264556885
3.1,1.6887025988091105e+18,78.10411075846353,1.1705334186553955,3.788303216298422,1.1293612321217854,1.6887025988091105e+18,78.10411075846353,-2.5920250415802,-5.182255585988362,-0.1324028372764588,1.6887025988091105e+18,78.10411075846353,-3.768404483795166,-8.953054110209147,-1.324451486269633,1.6887025988004524e+18,78.09545239257812,-0.0241291721661885,-5.9986967245737715,-0.4366668363412221,1.6887025988004524e+18,78.09545239257812,-0.0250963754951953,-5.9941151936848955,-0.4343760907649994,,,,,,,,,,,,1.6887025988036572e+18,78.09865727539062,20.805879592895508,41.143279266357425,20.50575942993164,1.6887025988036572e+18,78.09865727539062,-233.7349151611328,136.6082794189453,-112.70603790283204,1.6887025988091105e+18,78.10411075846353,0.4336153268814087,-0.5521770517031351,-0.622105081876119,0.3421991964181263,2.7458837827046714,1.137261986732483,1.944465160369873
3.15,1.6887025988610102e+18,78.15601025390625,3.6418259938557944,7.97000249226888,3.5549193223317466,1.6887025988610102e+18,78.15601025390625,0.379461795091629,-1.113858923316002,1.7896319230397542,1.6887025988610102e+18,78.15601025390625,-3.268210252126058,-9.066356976826986,-1.827974836031596,1.688702598852363e+18,78.14736279296875,-1.987704594930013,-6.680982271830241,-0.3275764832894007,1.688702598852363e+18,78.14736279296875,-1.9887227217356365,-6.676298936208089,-0.3252857426802317,,,,,,,,,,,,1.6887025988536614e+18,78.14866157226562,13.715239715576171,42.4023193359375,23.819279861450195,1.6887025988536614e+18,78.14866157226562,-240.82555541992187,137.86731872558593,-109.39251708984376,1.6887025988610102e+18,78.15601025390625,0.5224917332331339,-0.6317882736523946,-0.5114299853642782,0.253479649623235,2.558048168818156,1.171724001566569,1.7541404167811077
3.2,1.6887025989042662e+18,78.19926635742188,2.242630422115326,9.849324703216553,3.237778902053833,1.6887025989042662e+18,78.19926635742188,-0.8727820608764886,0.6699903607368468,1.7030915021896362,1.6887025989042662e+18,78.19926635742188,-3.121258497238159,-9.161829948425291,-1.597374677658081,1.688702598904266e+18,78.19926619466146,-2.28519598642985,-5.190114657084147,-0.7499389052391052,1.688702598904266e+18,78.19926619466146,-2.2862141132354736,-5.185380458831787,-0.7475972572962443,1.6887025988869652e+18,78.18196533203125,0.0,0.0,3.620741844177246,7.60099983215332,2.7344913482666016,323.1354064941406,43.400001525878906,-122.7526703,49.1887481,1.6887025989036572e+18,78.19865732421874,8.115439987182617,44.70567932128906,21.818479537963867,1.6887025989036572e+18,78.19865732421874,-246.42535705566405,140.1706756591797,-111.39331970214845,1.6887025989042662e+18,78.19926635742188,0.5563176870346069,-0.6891002058982849,-0.4185048639774322,0.1998920217156409,2.5779435634613037,1.2068488597869873,1.4854167699813845
3.25,1.6887025989475172e+18,78.24251717122395,2.72779381275177,10.176529248555502,2.585552215576172,1.6887025989475172e+18,78.24251717122395,-0.3924229194720586,0.9577272733052572,1.310269832611084,1.6887025989475172e+18,78.24251717122395,-3.126062790552775,-9.201297442118326,-1.3379697799682615,1.6887025989561692e+18,78.25116927083333,-2.138028303782145,-4.450204133987427,-0.4906266033649444,1.6887025989561692e+18,78.25116927083333,-2.139046430587769,-4.445571819941203,-0.4882849454879761,,,,,,,,,,,,1.6887025989536645e+18,78.2486642578125,4.9409997940063475,46.92607879638672,18.13895950317383,1.6887025989536645e+18,78.2486642578125,-249.5997985839844,142.39107360839844,-115.07283782958984,1.6887025989475172e+18,78.24251717122395,0.5760234196980795,-0.7339920202891032,-0.326560765504837,0.1466403206189473,2.6395277976989746,1.2299516995747883,1.1953874429066975
