seconds_elapsed_rounded,accelerometer_time,accelerometer_seconds_elapsed,accelerometer_z,accelerometer_y,accelerometer_x,accelerometeruncalibrated_time,accelerometeruncalibrated_seconds_elapsed,accelerometeruncalibrated_z,accelerometeruncalibrated_y,accelerometeruncalibrated_x,gravity_time,gravity_seconds_elapsed,gravity_z,gravity_y,gravity_x,gyroscope_time,gyroscope_seconds_elapsed,gyroscope_z,gyroscope_y,gyroscope_x,gyroscopeuncalibrated_time,gyroscopeuncalibrated_seconds_elapsed,gyroscopeuncalibrated_z,gyroscopeuncalibrated_y,gyroscopeuncalibrated_x,location_time,location_seconds_elapsed,location_bearingAccuracy,location_speedAccuracy,location_verticalAccuracy,location_horizontalAccuracy,location_speed,location_bearing,location_altitude,location_longitude,location_latitude,magnetometer_time,magnetometer_seconds_elapsed,magnetometer_z,magnetometer_y,magnetometer_x,magnetometeruncalibrated_time,magnetometeruncalibrated_seconds_elapsed,magnetometeruncalibrated_z,magnetometeruncalibrated_y,magnetometeruncalibrated_x,orientation_time,orientation_seconds_elapsed,orientation_qz,orientation_qy,orientation_qx,orientation_qw,orientation_roll,orientation_pitch,orientation_yaw
0.0,1.688702941245332e+18,120.00033190917968,2.684691309928894,11.364907264709473,-0.8447850346565247,1.6887029412453327e+18,120.0003330891927,-0.5814559099574884,2.3674986362457275,2.107279141743978,1.688702941245332e+18,120.00033190917968,-3.241484761238098,-8.829256057739258,2.782198190689087,1.6887029412453327e+18,120.0003330891927,-2.4685064951578775,-4.470820903778076,3.5710163911183677,1.6887029412453327e+18,120.0003330891927,-2.4694227377573648,-4.466392199198405,3.5733580589294434,,,,,,,,,,,,1.688702941246775e+18,120.00177514648438,-11.411879539489746,41.46291809082031,-27.303599548339843,1.688702941246775e+18,120.00177514648438,-268.8318725585938,136.08611755371095,-160.18599548339844,1.688702941245332e+18,120.00033190917968,-0.573455274105072,0.7312288880348206,-0.3584706932306289,0.0853211916983127,-2.4214894771575928,1.12005615234375,-1.3758174777030945
0.05,1.6887029412885852e+18,120.04358520507812,1.5858583450317385,11.694629987080893,-1.3145200808842976,1.688702941297234e+18,120.05223404947915,-0.6416752586762111,2.497508684794108,1.7932211955388386,1.6887029412885852e+18,120.04358520507812,-2.447138468424479,-8.956286748250326,3.151933272679647,1.688702941297234e+18,120.05223404947915,-1.704161286354065,-4.21059234937032,3.9619701703389487,1.688702941297234e+18,120.05223404947915,-1.7050776878992715,-4.20616356531779,3.964413563410441,,,,,,,,,,,,1.688702941296782e+18,120.05178217773437,-11.70955982208252,35.589839172363284,-34.87003936767578,1.688702941296782e+18,120.05178217773437,-269.1295532226562,130.21304016113282,-167.75244140625,1.6887029412885852e+18,120.04358520507812,-0.593849798043569,0.654894232749939,-0.4398875137170155,0.1520311509569485,-2.2195330460866294,1.1490449110666912,-1.807255784670512
0.1,1.6887029413404856e+18,120.09548567708332,2.1796634197235107,9.120073636372885,-3.014608939488729,1.6887029413491315e+18,120.10413142903646,1.54277241230011,-0.6315057774384817,0.6043871343135834,1.6887029413404856e+18,120.09548567708332,-1.1958778500556946,-9.107753753662108,3.4257003466288247,1.6887029413491315e+18,120.10413142903646,-0.4953099091847737,-2.3986133337020874,3.3873496055603027,1.6887029413491315e+18,120.10413142903646,-0.4962261915206909,-2.3942354122797647,3.3896912733713784,1.6887029413318354e+18,120.08683544921875,0.0,0.0,4.181253433227539,7.248000144958496,2.647915840148926,110.5863800048828,43.400001525878906,-122.7528533,49.1874012,1.6887029413467822e+18,120.10178217773436,-11.372839736938475,31.041679763793944,-39.61828002929688,1.6887029413467822e+18,120.10178217773436,-268.79283447265624,125.66487731933594,-172.50067443847655,1.6887029413404856e+18,120.09548567708332,-0.6188293298085531,0.558506429195404,-0.4978774189949035,0.2369660188754399,-1.8992961247762044,1.1871660550435383,-2.3582464853922525
0.15,1.6887029413923863e+18,120.14738647460938,2.6078577240308127,4.856073379516602,2.314522902170817,1.6887029414010386e+18,120.15603849283856,1.735195259253184,-6.032106399536133,7.740182956059773,1.6887029413923863e+18,120.14738647460938,-0.1157963176568349,-9.2597074508667,3.223191022872925,1.6887029414010386e+18,120.15603849283856,1.4313081701596575,4.545295675595601,-0.063122734427452,1.6887029414010386e+18,120.15603849283856,1.4305445949236553,4.549724340438843,-0.0607301940520603,,,,,,,,,,,,1.6887029413967846e+18,120.15178447265626,-15.65747947692871,30.448759460449217,-38.451959228515626,1.6887029413967846e+18,120.15178447265626,-273.0774719238281,125.07195739746092,-171.33435668945313,1.6887029413923863e+18,120.14738647460938,-0.6493810812632242,0.5286003947257996,-0.4747694830099742,0.2692609628041585,-1.6003999312718709,1.2316664059956868,-2.6679646968841553
0.2,1.6887029414442857e+18,120.19928572591148,-2.366234096388022,-16.402315457661945,19.706666310628258,1.688702941444284e+18,120.19928369140624,-3.3170503973960876,-27.41127872467041,24.610779762268063,1.6887029414442857e+18,120.19928572591148,-0.6685266271233559,-9.28288459777832,2.9889822006225586,1.688702941444284e+18,120.19928369140624,-1.1731666326522827,6.35910701751709,-6.3830835819244385,1.688702941444284e+18,120.19928369140624,-1.174083024263382,6.3635358810424805,-6.380640268325806,,,,,,,,,,,,1.6887029414467802e+18,120.20178007812498,-21.552519607543942,35.375119018554685,-31.405239486694335,1.6887029414467802e+18,120.20178007812498,-278.972509765625,129.99831848144532,-164.28763732910156,1.6887029414442857e+18,120.19928572591148,-0.6623199184735616,0.6241734226544698,-0.3774770100911458,0.1576916848619778,-1.7560877005259197,1.2442519664764404,-2.1735804080963135
0.25,1.688702941496191e+18,120.25119083658852,-2.6953652699788413,-13.553759256998696,7.421421368916828,1.6887029414875405e+18,120.24254060872396,-6.475975036621094,-25.148764928181965,15.491931438446043,1.688702941496191e+18,120.25119083658852,-3.788649241129557,-7.785675684611003,4.519087314605713,1.6887029414875405e+18,120.24254060872396,-3.564856847127279,-0.6104070742925009,-7.051064968109131,1.6887029414875405e+18,120.24254060872396,-3.565722187360128,-0.6059783498446146,-7.048723061879476,,,,,,,,,,,,1.6887029414967823e+18,120.25178232421874,-10.604239749908448,35.860679626464844,-35.91923904418945,1.6887029414967823e+18,120.25178232421874,-268.02423706054685,130.48387756347657,-168.8016387939453,1.688702941496191e+18,120.25119083658852,-0.2128817637761434,0.2248845696449279,-0.1276391843954722,0.0143880593047166,-2.2555123964945474,0.9201600154240926,-1.5510160525639851
0.3,1.6887029415480942e+18,120.30309391276042,33.006841580073036,-6.578535079956055,-2.2299182415008545,1.6887029415394424e+18,120.2944424641927,-6.3003019491831465,-9.266205628712973,0.4873382250467936,1.6887029415480942e+18,120.30309391276042,-6.139693419138591,-6.230287551879883,4.318777163823445,1.6887029415394424e+18,120.2944424641927,-3.3437236150105796,-6.205983718236287,-3.5445456504821777,1.6887029415394424e+18,120.2944424641927,-3.3446399370829263,-6.201555013656616,-3.542203982671102,,,,,,,,,,,,1.6887029415467807e+18,120.30178066406248,4.311480009555817,32.18359870910645,-40.25999908447265,1.6887029415467807e+18,120.30178066406248,-253.10851135253907,126.80680084228516,-173.14239501953125,1.6887029415480942e+18,120.30309391276042,0.1869118014971415,-0.2507091363271077,0.1328878800074259,0.0256100234886009,-2.5204047362009683,0.6891746719678243,-1.4832298358281453
0.35,1.688702941599993e+18,120.35499332682292,24.635745525360107,-4.731441338857015,-3.059652249018351,1.6887029415913375e+18,120.3463378092448,32.3802752494812,-12.260424296061196,1.5669000148773191,1.688702941599993e+18,120.35499332682292,-6.442980766296387,-6.245475927988688,3.899657249450683,1.6887029415913375e+18,120.3463378092448,-2.7083728313446045,-0.7933104435602824,3.2553009192148843,1.6887029415913375e+18,120.3463378092448,-2.7092891534169516,-0.7888816197713217,3.2576934496561685,,,,,,,,,,,,1.688702941596784e+18,120.35178432617188,15.923439979553224,26.234879302978516,-42.46819915771484,1.688702941596784e+18,120.35178432617188,-241.49655456542968,120.8580764770508,-175.35059509277343,1.688702941599993e+18,120.35499332682292,-0.4062626957893371,0.6676852504412333,-0.6180449525515238,0.0763776426513989,-2.592770258585612,0.6894767085711161,-1.6969440778096516
0.4,1.688702941651897e+18,120.40689729817709,0.0811687310536702,1.396836280822754,-5.311564922332764,1.6887029416432476e+18,120.39824763997396,-4.453641255696614,-6.513861338297526,0.3154537876447041,1.688702941651897e+18,120.40689729817709,-4.5059599081675215,-6.976342995961507,5.186863422393799,1.6887029416432476e+18,120.39824763997396,-0.6005314588546753,3.029993454615275,3.544240156809489,1.6887029416432476e+18,120.39824763997396,-0.6013968375821908,3.034422238667806,3.546632766723633,,,,,,,,,,,,1.688702941646778e+18,120.40177817382816,3.645359921455383,24.47807922363281,-45.59383926391602,1.688702941646778e+18,120.40177817382816,-253.7746368408203,119.10128021240234,-178.47623596191406,1.688702941651897e+18,120.40689729817709,-0.5159416000048319,0.6160563230514526,-0.5910134712855021,0.0635602797071138,-2.280122598012289,0.7901973923047384,-1.9101323286692304
0.45,1.6887029416951437e+18,120.45014367675782,-3.172325611114502,2.208696126937866,-8.49921464920044,1.688702941695148e+18,120.45014786783854,-5.627121210098267,-5.924030621846517,-3.0640093882878623,1.6887029416951437e+18,120.45014367675782,-3.2438924312591553,-7.6833176612854,5.15955662727356,1.688702941695148e+18,120.45014786783854,1.1675670941670735,0.0086029966672261,3.026175578435262,1.688702941695148e+18,120.45014786783854,1.1666507919629414,0.0130318105220794,3.0285680294036865,,,,,,,,,,,,1.688702941696782e+18,120.45178208007812,-4.043079853057861,24.99047966003418,-44.895999145507815,1.688702941696782e+18,120.45178208007812,-261.46307373046875,119.61367797851562,-177.7783966064453,1.6887029416951437e+18,120.45014367675782,-0.5703104734420776,0.5861025750637054,-0.5665766596794128,0.1000855974853038,-2.126983523368835,0.8979349136352539,-2.060468912124634
0.5,1.688702941738399e+18,120.49339908854166,-0.0229849020640055,-5.164919217427571,-7.150152524312337,1.6887029417470538e+18,120.50205379231772,4.745764970779419,-17.97009785970052,-0.0953141848246256,1.688702941738399e+18,120.49339908854166,-2.5685054461161294,-8.4237642288208,4.297434171040853,1.6887029417470538e+18,120.50205379231772,2.6412795384724936,1.087747395038605,1.249372166891893,1.6887029417470538e+18,120.50205379231772,2.6403632164001465,1.092176119486491,1.2517647072672844,,,,,,,,,,,,1.6887029417467796e+18,120.50177973632812,-5.738879871368408,28.508959197998045,-42.275439453125,1.6887029417467796e+18,120.50177973632812,-263.15886840820315,123.13215637207033,-175.1578369140625,1.688702941738399e+18,120.49339908854166,-0.5861154596010844,0.583538293838501,-0.5379026929537455,0.161440019806226,-2.1026119391123452,1.0317352215449016,-2.116716146469116
0.55,1.6887029417903045e+18,120.54530428059896,6.359023968378703,-30.849690755208332,17.171412467956543,1.688702941798947e+18,120.553947265625,-0.2502495447794596,-37.77628835042318,21.60539372762044,1.6887029417903045e+18,120.54530428059896,-2.154499133427938,-8.70211378733317,3.970696290334066,1.688702941798947e+18,120.553947265625,2.1222477356592813,11.612752278645834,-8.612131118774414,1.688702941798947e+18,120.553947265625,2.1213313341140747,11.617129484812418,-8.609738190968832,,,,,,,,,,,,1.6887029417967785e+18,120.55177836914064,-16.455359649658202,35.29215965270996,-33.82571907043457,1.6887029417967785e+18,120.55177836914064,-273.87535400390624,129.9153579711914,-166.70811767578124,1.6887029417903045e+18,120.54530428059896,-0.2097766796747843,0.1865468025207519,-0.1846236586570739,0.0835746166606743,-2.058225631713867,1.090428113937378,-1.738249142964681
0.6,1.6887029418421993e+18,120.59719913736978,16.707410017649334,-4.496194998423259,6.363824049631755,1.68870294185085e+18,120.6058497721354,11.218749205271402,-8.043672800064087,8.810572544733684,1.6887029418421993e+18,120.59719913736978,-4.599193255106608,-7.574840545654297,4.169903755187988,1.68870294185085e+18,120.6058497721354,1.9422969420750935,3.2508721947669983,-5.7710475126902265,1.68870294185085e+18,120.6058497721354,1.9414315223693848,3.2552499572436013,-5.768655002117157,1.6887029418508534e+18,120.60585327148438,0.0,0.0,4.181253433227539,7.284999847412109,2.6345152854919434,108.77232360839844,43.400001525878906,-122.7528318,49.1874038,1.6887029418467825e+18,120.6017822265625,-7.37611985206604,45.58407974243164,-22.604159545898437,1.6887029418467825e+18,120.6017822265625,-264.7961181640625,140.2072784423828,-155.48655700683594,1.6887029418421993e+18,120.59719913736978,0.4989051322142283,-0.828244666258494,0.2121508767207462,0.1274104540546734,-2.3977112770080566,0.8858821590741476,-0.8704766432444254
0.65,1.688702941894099e+18,120.6490987141927,3.185204029083252,6.85056749979655,-0.8374620278676351,1.6887029418941046e+18,120.6491046142578,-1.081555813550949,-0.7734798938035965,2.9952157735824585,1.688702941894099e+18,120.6490987141927,-5.046484629313151,-7.60255495707194,3.582353194554647,1.6887029418941046e+18,120.6491046142578,-0.1254564374685287,-4.67915153503418,2.9265027046203613,1.6887029418941046e+18,120.6491046142578,-0.1262963861227035,-4.674722671508789,2.9288697242736816,,,,,,,,,,,,1.6887029418967793e+18,120.65177944335936,-3.603879928588867,47.73371963500976,-19.268679809570312,1.6887029418967793e+18,120.65177944335936,-261.023876953125,142.35691528320314,-152.1510803222656,1.688702941894099e+18,120.6490987141927,0.4821542004744211,-0.8462968468666077,0.1973582158486048,0.1034511576096216,-2.5207834243774414,0.889546275138855,-0.7614910006523132
0.7,1.6887029419460065e+18,120.70100610351562,5.750075499216716,11.48627026875814,-2.556605100631714,1.6887029419373555e+18,120.6923553873698,1.2394821097453437,2.409173607826233,0.8713862399260203,1.6887029419460065e+18,120.70100610351562,-4.121025403340657,-8.318614641825357,3.1519439220428467,1.6887029419373555e+18,120.6923553873698,-1.5684983730316162,-3.996229569117228,4.1694099108378095,1.6887029419373555e+18,120.6923553873698,-1.5694146156311035,-3.991851568222046,4.171700636545817,,,,,,,,,,,,1.6887029419467802e+18,120.70178012695312,-8.735199928283691,44.817918395996095,-23.88515968322754,1.6887029419467802e+18,120.70178012695312,-266.1551940917969,139.4411163330078,-156.7675567626953,1.6887029419460065e+18,120.70100610351562,0.1679782271385193,-0.2791725993156433,0.0751147270202636,0.0210829138134916,-2.48105525970459,1.0139702161153157,-1.0731095274289448
0.75,1.688702941997911e+18,120.75291097005208,1.9648269812266033,11.477657000223797,-2.649704853693644,1.6887029419892585e+18,120.7442587890625,-1.044865866502126,3.368894934654236,0.698704202969869,1.688702941997911e+18,120.75291097005208,-3.2707733313242593,-8.67570432027181,3.19938063621521,1.6887029419892585e+18,120.7442587890625,-1.9737056096394856,-4.813261826833089,3.510846217473348,1.6887029419892585e+18,120.7442587890625,-1.974621852238973,-4.808832963307698,3.5132387479146323,,,,,,,,,,,,1.6887029419967762e+18,120.75177631835936,-10.596919631958007,40.125799560546874,-30.18279914855957,1.6887029419967762e+18,120.75177631835936,-268.0169189453125,134.74899597167968,-163.06519470214843,1.688702941997911e+18,120.75291097005208,-0.571969211101532,0.7170676986376444,-0.3873948752880096,0.0807933807373046,-2.3592374324798584,1.0851068099339802,-1.479000171025594
0.8,1.6887029420498092e+18,120.80480924479168,2.856511195500692,7.864432652791341,-3.472743113835653,1.6887029420411502e+18,120.79615014648436,0.2161516447861989,-0.4075774624943733,-0.1515454389154911,1.6887029420498092e+18,120.80480924479168,-2.616893450419108,-8.947427113850912,3.0469448566436768,1.6887029420411502e+18,120.79615014648436,-0.8140288492043813,-4.147265990575154,2.886134624481201,1.6887029420411502e+18,120.79615014648436,-0.8149451315402985,-4.142837206522624,2.888527154922486,,,,,,,,,,,,1.6887029420467845e+18,120.80178432617188,-8.608319759368896,36.30963897705078,-34.75047912597656,1.6887029420467845e+18,120.80178432617188,-266.0283142089844,130.9328399658203,-167.63287353515625,1.6887029420498092e+18,120.80480924479168,-0.5795084834098816,0.6444046099980673,-0.4656821191310882,0.1760320911804835,-2.271880308787028,1.1474016904830933,-1.8353938261667888
0.85,1.688702942101713e+18,120.856712890625,3.28549059232076,4.107089519500732,0.9334933757781982,1.688702942093058e+18,120.84805802408856,1.1523434941967328,-3.428715467453003,1.984048762669166,1.688702942101713e+18,120.856712890625,-2.078973134358724,-9.236347198486328,2.565336386362711,1.688702942093058e+18,120.84805802408856,0.9466375112533568,-0.2814052005608876,1.0292061269283297,1.688702942093058e+18,120.84805802408856,0.945772131284078,-0.2769765257835388,1.0316495696703594,,,,,,,,,,,,1.688702942096778e+18,120.85177807617188,-8.22279977798462,36.11443939208984,-35.66059951782226,1.688702942096778e+18,120.85177807617188,-265.6427917480469,130.73763732910157,-168.54299621582032,1.688702942101713e+18,120.856712890625,-0.5845228830973307,0.6196902791659037,-0.4702450037002563,0.2300245314836502,-2.242964029312134,1.2257296244303386,-1.9520962238311768
0.9,1.688702942144956e+18,120.8999560546875,-5.471982717514038,-26.86927795410156,21.951961517333984,1.688702942144963e+18,120.89996329752609,-7.382456223169963,-34.069009145100914,23.135205268859863,1.688702942144956e+18,120.8999560546875,-1.9294797778129575,-9.19279432296753,2.8210562467575073,1.688702942144963e+18,120.89996329752609,-0.3957897822062174,6.881753126780192,-2.4658084710439048,1.688702942144963e+18,120.89996329752609,-0.3967060645421346,6.886131127675374,-2.4634668827056885,,,,,,,,,,,,1.6887029421467822e+18,120.9017822265625,-14.7253999710083,37.91515960693359,-32.50079917907715,1.6887029421467822e+18,120.9017822265625,-272.1453918457031,132.5383514404297,-165.3832000732422,1.688702942144956e+18,120.8999560546875,-0.6152175068855286,0.6620728969573975,-0.3984129577875137,0.1516365483403205,-2.1642035245895386,1.213617920875549,-1.7905252575874329
0.95,1.6887029421882156e+18,120.9432158203125,-4.474401235580444,-16.641743342081707,11.454630613327026,1.688702942196871e+18,120.95187084960936,-5.053242723147075,-18.223537762959797,10.574082533518473,1.6887029421882156e+18,120.9432158203125,-2.8526843388875327,-8.60696538289388,3.7006351153055825,1.688702942196871e+18,120.95187084960936,-1.7026850779851277,-1.0287479559580486,-3.672470966974894,1.688702942196871e+18,120.95187084960936,-1.7036014000574748,-1.024420976638794,-3.670129378636678,,,,,,,,,,,,1.6887029421967803e+18,120.95178017578124,-13.54443950653076,38.59591979980469,-31.58823890686035,1.6887029421967803e+18,120.95178017578124,-270.9644409179688,133.2191192626953,-164.47063903808595,1.6887029421882156e+18,120.9432158203125,-0.5936241348584493,0.7067904273668925,-0.380256712436676,0.0509244973460832,-2.215972105662028,1.0720844268798828,-1.5659808317820232
1.0,1.6887029422401134e+18,120.99511328125,0.9022369384765624,5.102031389872233,-2.7768349647521973,1.6887029422487634e+18,121.00376342773438,-3.5124643643697104,-3.3487552404403687,3.0327033599217734,1.6887029422401134e+18,120.99511328125,-5.007785797119141,-7.454019387563069,3.859910806020101,1.6887029422487634e+18,121.00376342773438,-2.3231714566548667,-7.844069798787435,-4.760014692942302,1.6887029422487634e+18,121.00376342773438,-2.324087699254354,-7.839640935262044,-4.757622083028157,,,,,,,,,,,,1.6887029422467814e+18,121.0017812988281,-0.2269200563430782,36.482878875732425,-36.287679290771486,1.6887029422467814e+18,121.0017812988281,-257.64691772460935,131.1060760498047,-169.17007751464843,1.6887029422401134e+18,120.99511328125,-0.4924401839574178,0.7340428431828817,-0.463353157043457,0.0397790893912315,-2.4745165506998696,0.8654393951098124,-1.446495572725932
1.05,1.6887029422920138e+18,121.04701383463542,47.36947886149088,-1.727762222290039,8.047066688537598,1.688702942300669e+18,121.05566878255208,40.02673848470052,-7.591429392496745,6.721039891242981,1.6887029422920138e+18,121.04701383463542,-7.1344313621521,-6.636192639668782,0.7590434004863104,1.688702942300669e+18,121.05566878255208,-2.6626598040262857,-7.282124578952789,2.4573073188463845,1.688702942300669e+18,121.05566878255208,-2.663576046625773,-7.277746657530467,2.459699809551239,,,,,,,,,,,,1.6887029422967793e+18,121.05177905273436,26.43983917236328,32.271439743041995,-32.744799041748045,1.6887029422967793e+18,121.05177905273436,-230.98016052246095,126.89463806152344,-165.6271942138672,1.6887029422920138e+18,121.04701383463542,-0.2998031079769134,0.6983423829078674,-0.6116747260093689,0.2073379109303156,-3.036016305287679,0.7440170248349508,-1.4781752427419026
1.1,1.688702942343921e+18,121.09892106119791,7.262611945470174,0.2440911928812663,-0.5799476703008016,1.6887029423525704e+18,121.1075703125,-3.462813138961792,-7.089933395385742,1.645065585772196,1.688702942343921e+18,121.09892106119791,-6.491588274637858,-7.159191926320394,1.5597333113352458,1.6887029423525704e+18,121.1075703125,-1.899281879266103,3.982637723286947,0.888198047876358,1.6887029423525704e+18,121.1075703125,-1.9001472393671672,3.9870155652364097,0.8905906279881796,1.688702942369872e+18,121.1248720703125,0.0,0.0,3.8736801147460938,7.28000020980835,2.6282918453216553,107.01911926269533,43.400001525878906,-122.7528174,49.1874075,1.6887029423467822e+18,121.1017822265625,25.48823928833008,29.84119873046875,-35.16771926879883,1.6887029423467822e+18,121.1017822265625,-231.93175354003907,124.46439666748049,-168.05011596679688,1.688702942343921e+18,121.09892106119791,-0.3448191086451213,0.6420345703760783,-0.6469960411389669,0.2216032296419143,-2.9021209875742593,0.8173234462738037,-1.6830047766367595
1.15,1.6887029423958182e+18,121.1508182779948,2.0586283206939697,2.118760108947754,-2.688605467478434,1.688702942395822e+18,121.15082202148436,-3.3149566650390625,-4.771886587142944,-0.0200398862361907,1.6887029423958182e+18,121.1508182779948,-5.416420141855876,-7.637648900349935,2.886935075124105,1.688702942395822e+18,121.15082202148436,0.1372919576242566,2.46858286857605,2.5938864946365356,1.688702942395822e+18,121.15082202148436,0.1363756721839309,2.473011612892151,2.5962536334991455,,,,,,,,,,,,1.688702942396784e+18,121.15178398437502,15.818519592285156,29.484959411621094,-40.11847915649414,1.688702942396784e+18,121.15178398437502,-241.60147705078128,124.10815734863282,-173.00087280273436,1.6887029423958182e+18,121.1508182779948,-0.4329337775707244,0.6267616947491964,-0.6187556982040405,0.1902955770492553,-2.6457945505777993,0.8921978076299032,-1.8001150687535603
1.2,1.6887029424477238e+18,121.20272403971354,9.977821429570517,-13.207256635030111,0.9182040691375732,1.6887029424390735e+18,121.19407348632812,4.646462678909301,-16.426129182179768,1.968694818516572,1.6887029424477238e+18,121.20272403971354,-3.475389321645101,-8.51144027709961,3.34812331199646,1.6887029424390735e+18,121.19407348632812,0.6934338808059692,4.247855106989543,3.2659401893615723,1.6887029424390735e+18,121.19407348632812,0.6925175786018372,4.252283891042073,3.268281857172648,,,,,,,,,,,,1.6887029424467812e+18,121.20178115234376,3.8234798431396486,31.6419189453125,-40.416159057617186,1.6887029424467812e+18,121.20178115234376,-253.59651794433591,126.2651153564453,-173.29855651855468,1.6887029424477238e+18,121.20272403971354,-0.5327258507410685,0.6120943029721578,-0.5485307772954305,0.1946627348661422,-2.36173685391744,1.0503878792126973,-1.93187415599823
1.25,1.6887029424996252e+18,121.25462532552083,-5.023209730784099,-29.778247833251953,13.832138697306316,1.6887029424909714e+18,121.2459716796875,-4.367698907852173,-41.611584981282554,18.65903123219808,1.6887029424996252e+18,121.25462532552083,-1.9958001772562664,-8.837566057840982,3.740874608357747,1.6887029424909714e+18,121.2459716796875,2.0712403853734336,10.189791997273764,-2.830953220526377,1.6887029424909714e+18,121.2459716796875,2.070375084877014,10.194220860799154,-2.8285606702168784,,,,,,,,,,,,1.688702942496779e+18,121.25177915039062,-15.459839725494383,35.76551971435547,-33.3401596069336,1.688702942496779e+18,121.25177915039062,-272.879833984375,130.3887176513672,-166.22255859375,1.6887029424996252e+18,121.25462532552083,-0.6276803612709045,0.6804071466128031,-0.3668498098850249,0.0592160833378632,-2.0538779497146606,1.121061126391093,-1.7174774408340454
1.3,1.688702942551522e+18,121.30652197265624,5.307839393615723,-1.0235891342163086,1.3966797192891438,1.688702942542877e+18,121.297876953125,0.0869392355283101,-12.382059574127195,5.211966514587402,1.688702942551522e+18,121.30652197265624,-4.231132586797078,-8.268980344136557,3.1127187410990396,1.688702942542877e+18,121.297876953125,2.1743748585383096,1.8543323278427124,-6.253427346547444,1.688702942542877e+18,121.297876953125,2.1734584967295327,1.8587611317634585,-6.2510857582092285,,,,,,,,,,,,1.688702942546778e+18,121.30177802734374,-8.36187973022461,44.82279815673828,-24.40731887817383,1.688702942546778e+18,121.30177802734374,-265.78187255859376,139.44599609375,-157.2897155761719,1.688702942551522e+18,121.30652197265624,0.157788356145223,-0.2854560216267903,0.0752868751684824,0.0183746307156979,-2.4991707801818848,1.0046563545862834,-1.028435190518697
1.35,1.688702942594779e+18,121.34977880859375,5.709709405899048,9.155658721923828,4.219389319419861,1.6887029425947753e+18,121.349775390625,-0.5776671965916952,0.7156533400217692,6.310272216796875,1.688702942594779e+18,121.34977880859375,-4.8822548389434814,-8.079928398132324,2.6592026948928833,1.6887029425947753e+18,121.349775390625,0.2905173103014628,-2.635272681713104,1.4896458387374878,1.6887029425947753e+18,121.349775390625,0.2896519303321838,-2.630894790093104,1.4919365644454956,,,,,,,,,,,,1.6887029425967775e+18,121.35177749023435,-4.011359930038452,46.784558868408205,-21.706239700317383,1.6887029425967775e+18,121.35177749023435,-261.4313598632813,141.4077575683594,-154.58863525390626,1.688702942594779e+18,121.34977880859375,-0.0066026002168655,-0.0062863528728485,-0.0077080875635147,0.0139404910150915,-2.6400095224380493,0.9690290987491608,-0.873898059129715
1.4,1.68870294263803e+18,121.39303002929688,2.5284661451975503,11.556941986083984,1.8789717356363933,1.6887029426466798e+18,121.4016798502604,-0.4679962247610092,2.9082765579223633,3.5884363651275635,1.68870294263803e+18,121.39303002929688,-3.5071938832600913,-8.882008870442709,2.158243099848429,1.6887029426466798e+18,121.4016798502604,-1.4737633069356282,-5.9698333740234375,5.963266531626384,1.6887029426466798e+18,121.4016798502604,-1.4746796290079751,-5.965404510498047,5.965658982594808,,,,,,,,,,,,1.6887029426467796e+18,121.4017796875,-9.250039768218992,43.89803924560547,-25.693199920654298,1.6887029426467796e+18,121.4017796875,-266.67003173828124,138.5212371826172,-158.57559814453126,1.68870294263803e+18,121.39303002929688,-0.5568536321322123,0.7537133693695068,-0.3291885455449422,0.0987685111661751,-2.579259713490804,1.1363742351531982,-1.1929346323013306
1.45,1.6887029426899313e+18,121.44493115234376,0.8952064414819082,12.700037638346354,0.9056553840637208,1.6887029426985772e+18,121.45357706705732,-0.2885345220565796,3.2201410929361978,3.1555349032084146,1.6887029426899313e+18,121.44493115234376,-1.2426278988520305,-9.43547280629476,2.279714584350586,1.6887029426985772e+18,121.45357706705732,-1.1372783581415813,-4.514141480127971,6.232912540435791,1.6887029426985772e+18,121.45357706705732,-1.1381946603457134,-4.50971261660258,6.235254287719727,,,,,,,,,,,,1.6887029426967772e+18,121.45177709960936,-14.17639980316162,37.62967987060547,-31.937159729003906,1.6887029426967772e+18,121.45177709960936,-271.5963989257813,132.25287475585938,-164.8195556640625,1.6887029426899313e+18,121.44493115234376,-0.6190204421679179,0.6229347189267477,-0.4163458744684855,0.2288173685471216,-2.0476743380228677,1.2938132286071775,-2.0520056883494058
1.5,1.6887029427418348e+18,121.49683471679688,-3.1452936927477517,10.021931012471518,-0.3690958023071289,1.6887029427504814e+18,121.5054814453125,1.482552965482076,-0.4883352120717366,2.921835790077845,1.6887029427418348e+18,121.49683471679688,1.10275665918986,-9.378703435262045,2.6196696758270264,1.6887029427504814e+18,121.5054814453125,-0.0743219392995039,-6.37549885114034,2.57983660697937,1.6887029427504814e+18,121.5054814453125,-0.0751873316864172,-6.371120850245158,2.582280158996582,,,,,,,,,,,,1.6887029427467822e+18,121.50178232421874,-17.50456008911133,32.07868003845215,-36.06807861328125,1.6887029427467822e+18,121.50178232421874,-274.924560546875,126.7018783569336,-168.95047912597656,1.6887029427418348e+18,121.49683471679688,-0.6631888151168823,0.4891675313313802,-0.4511311252911885,0.3398689031600952,-1.18378480275472,1.2739073038101196,1.027753194173177
1.55,1.688702942793736e+18,121.54873575846354,6.856950283050537,4.984814325968425,1.6042806307474773,1.688702942802387e+18,121.55738696289065,4.9788657029469805,-3.8263227939605713,3.957728703816732,1.688702942793736e+18,121.54873575846354,-0.8017763098080953,-9.37329387664795,2.65008282661438,1.688702942802387e+18,121.55738696289065,1.7673349777857463,-3.9034798145294194,-4.168900807698567,1.688702942802387e+18,121.55738696289065,1.7664695183436077,-3.899050951004028,-4.166559060414632,,,,,,,,,,,,1.6887029427967854e+18,121.551785546875,3.3061999142169953,32.495918655395506,-39.58899841308594,1.6887029427967854e+18,121.551785546875,-254.1137939453125,127.1191192626953,-172.47139892578124,1.688702942793736e+18,121.54873575846354,-0.5337221721808115,0.4339224994182586,-0.593015193939209,0.4152132272720337,-1.868598182996114,1.2713038921356203,-0.7904325326283773
1.6,1.6887029428456374e+18,121.60063753255208,-5.3594473997751875,-0.9374860127766927,12.609151681264242,1.688702942845637e+18,121.60063720703124,-7.404888749122619,-9.433703422546388,14.30489206314087,1.6887029428456374e+18,121.60063753255208,-2.0296524365743003,-9.354486147562662,2.1469117800394693,1.688702942845637e+18,121.60063720703124,2.911536455154419,12.304734706878662,-2.89160692691803,1.688702942845637e+18,121.60063720703124,2.910696506500244,12.309163570404053,-2.889163613319397,,,,,,,,,,,,1.6887029428467822e+18,121.60178227539063,2.034959888458252,35.7947998046875,-36.692719268798825,1.6887029428467822e+18,121.60178227539063,-255.3850341796875,130.41799926757812,-169.5751159667969,1.6887029428456374e+18,121.60063753255208,-0.5363696217536926,0.5558368861675262,-0.5374038517475128,0.3240943352381388,-2.3303000926971436,1.2650689681371052,-2.1469939152399697
1.65,1.6887029428975337e+18,121.65253369140623,-11.007266203562418,-15.138815879821776,17.345896402994793,1.6887029428888804e+18,121.64388037109374,-14.684553146362305,-24.18505605061849,23.128026326497395,1.6887029428975337e+18,121.65253369140623,-2.7720657189687095,-8.860240936279297,3.0334998766581216,1.6887029428888804e+18,121.64388037109374,-0.7163922786712646,10.212038040161136,-4.916498025258382,1.6887029428888804e+18,121.64388037109374,-0.7173084616661072,10.216466585795084,-4.91405455271403,1.6887029428888758e+18,121.64387573242188,0.0,0.0,3.8736801147460938,7.276000022888184,2.629706621170044,106.10834503173828,43.400001525878906,-122.752802,49.1874093,1.688702942896776e+18,121.65177607421876,-11.363079643249511,40.67967910766602,-30.060799026489256,1.688702942896776e+18,121.65177607421876,-268.7830749511719,135.3028778076172,-162.94319763183594,1.6887029428975337e+18,121.65253369140623,-0.5870888431866964,0.7059984008471171,-0.3779228925704956,0.0972675302376349,-2.3245195547739663,1.1357814868291218,-1.5204439163208008
1.7,1.688702942949433e+18,121.7044335123698,-5.2117683092753095,-4.0519172350565595,-4.434159437815349,1.6887029429407836e+18,121.69578369140623,-6.955536683400472,-15.585650126139322,6.886144916216533,1.688702942949433e+18,121.7044335123698,-4.246923764546712,-7.197782039642334,5.073964913686116,1.6887029429407836e+18,121.69578369140623,-4.864829063415527,-1.3070989052454631,-2.4278330405553183,1.6887029429407836e+18,121.69578369140623,-4.865745385487874,-1.302670121192932,-2.425440470377604,,,,,,,,,,,,1.688702942946777e+18,121.70177705078125,-7.256559705734253,35.831399536132814,-36.346240234375,1.688702942946777e+18,121.70177705078125,-264.6765502929687,130.45459899902343,-169.2286376953125,1.688702942949433e+18,121.7044335123698,0.530699739853541,-0.7139074603716532,0.4532972971598307,0.026555610820651,-2.265050252278646,0.8267618417739868,-1.538190205891927
1.75,1.6887029430013366e+18,121.75633650716146,57.65744590759277,-17.231601397196453,-4.958265781402588,1.6887029429926925e+18,121.7476923828125,33.602207819620766,-19.339391072591145,-1.1270194152990978,1.6887029430013366e+18,121.75633650716146,-6.750806172688802,-5.903446992238362,3.950612942377726,1.6887029429926925e+18,121.7476923828125,-4.407290856043498,-7.98792839050293,0.254934549331665,1.6887029429926925e+18,121.7476923828125,-4.408156394958496,-7.983550469080606,0.2573270003000895,,,,,,,,,,,,1.6887029429967798e+18,121.7517796875,14.979159927368164,26.11531982421875,-42.66095886230469,1.6887029429967798e+18,121.7517796875,-242.44083557128903,120.73851928710936,-175.543359375,1.6887029430013366e+18,121.75633650716146,-0.3887027104695638,0.6697709957758585,-0.6284065246582031,0.0650855377316474,-2.611916939417521,0.6465518871943156,-1.689399520556132
1.8,1.6887029430445952e+18,121.79959533691404,-1.538198471069336,-2.791594982147217,-4.800808668136597,1.6887029430445916e+18,121.79959155273438,-6.860023021697998,-9.32163937886556,-0.0719840774933497,1.6887029430445952e+18,121.79959533691404,-5.741230249404907,-6.379040002822876,4.7444024085998535,1.6887029430445916e+18,121.79959155273438,-0.5508477211308976,1.9262108008066816,2.3952026764551797,1.6887029430445916e+18,121.79959155273438,-0.5517640416510403,1.9305887420972188,2.397646109263102,,,,,,,,,,,,1.6887029430467804e+18,121.80178041992188,12.81487979888916,23.52891960144043,-44.800839233398435,1.6887029430467804e+18,121.80178041992188,-244.60511779785156,118.15211791992188,-177.68323669433593,1.6887029430445952e+18,121.79959533691404,-0.450782909989357,0.6327293217182159,-0.6262100338935852,0.064131723716855,-2.450650215148926,0.7085188329219818,-1.825516164302826
1.85,1.688702943087842e+18,121.84284212239584,-0.2027910550435384,2.7029409408569336,-6.743455410003662,1.6887029430964895e+18,121.85148950195314,-4.809972445170085,-4.957330385843913,-2.358525514602661,1.688702943087842e+18,121.84284212239584,-4.814821879069011,-7.1687882741292315,4.636699199676514,1.6887029430964895e+18,121.85148950195314,0.442826380332311,-1.4013248284657795,3.487785975138346,1.6887029430964895e+18,121.85148950195314,0.4419610202312469,-1.3968961238861084,3.49017866452535,,,,,,,,,,,,1.6887029430967793e+18,121.85177934570314,7.842159938812256,24.77331962585449,-44.98139953613281,1.6887029430967793e+18,121.85177934570314,-249.57784118652344,119.39651794433594,-177.86380004882812,1.688702943087842e+18,121.84284212239584,-0.4917670687039693,0.6026886105537415,-0.6178370714187622,0.1118533934156099,-2.37325668334961,0.8203823367754618,-1.9441645940144856
1.9,1.688702943139747e+18,121.89474723307292,8.599279562632242,-7.019717534383138,-2.629111925760905,1.6887029431483994e+18,121.90339900716144,8.157331784566244,-18.02632935841878,3.253042380015055,1.688702943139747e+18,121.89474723307292,-3.83164381980896,-8.089803695678711,3.992746194203695,1.6887029431483994e+18,121.90339900716144,2.0905844271183014,1.6875152786572774,1.6062192916870115,1.6887029431483994e+18,121.90339900716144,2.089719146490097,1.6919441223144531,1.6086117426554365,,,,,,,,,,,,1.6887029431467827e+18,121.90178266601563,5.677879881858826,27.674479675292968,-43.02451858520508,1.6887029431467827e+18,121.90178266601563,-251.7421142578125,122.29767761230468,-175.90691833496095,1.688702943139747e+18,121.89474723307292,-0.515550951162974,0.5648728609085083,-0.6128044923146566,0.1975398461023966,-2.3314611117045083,0.9701688090960184,-2.0971508820851645
1.95,1.6887029431916454e+18,121.94664558919273,2.402823011080424,-28.053089777628585,13.92721939086914,1.6887029432002952e+18,121.95529532877605,-3.3519455393155417,-36.71108373006185,18.27139441172282,1.6887029431916454e+18,121.94664558919273,-2.6308027108510337,-8.60120709737142,3.886871417363485,1.6887029432002952e+18,121.95529532877605,2.805653174718221,12.590746879577637,-4.685641845067342,1.6887029432002952e+18,121.95529532877605,2.804736932118734,12.595175743103027,-4.683249394098918,,,,,,,,,,,,1.6887029431967803e+18,121.95178051757811,-10.565199947357176,34.77975921630859,-36.133959197998045,1.6887029431967803e+18,121.95178051757811,-267.9851989746094,129.4029571533203,-169.016357421875,1.6887029431916454e+18,121.94664558919273,-0.5919397274653116,0.6515171329180399,-0.4501868883768717,0.1042554024606943,-2.1609676678975425,1.0690761009852092,-1.8196439345677693
2.0,1.688702943243551e+18,121.9985510253906,12.715945641199747,-6.197866280873616,5.201747417449951,1.6887029432521992e+18,122.00719897460937,9.26520840326945,-10.153544267018637,7.883752346038818,1.688702943243551e+18,121.9985510253906,-4.057181199391683,-7.921226183573405,4.062787691752116,1.6887029432521992e+18,122.00719897460937,2.308001677195231,3.96079937616984,-6.809213161468506,1.6887029432521992e+18,122.00719897460937,2.3070852756500244,3.965228160222371,-6.80687157313029,,,,,,,,,,,,1.6887029432467817e+18,122.00178168945313,-7.324879837036133,43.66136016845703,-25.62975959777832,1.6887029432467817e+18,122.00178168945313,-264.744873046875,138.28455810546876,-158.51215515136718,1.688702943243551e+18,121.9985510253906,0.5336814423402151,-0.7962520718574524,0.2645678222179412,0.079862846682469,-2.347832520802816,0.9429548581441244,-1.0688014030456543
2.05,1.6887029432954524e+18,122.05045263671876,-0.122866153717041,6.93254550298055,0.5872172514597576,1.688702943295453e+18,122.05045288085935,-5.013561725616455,-0.8805586993694305,4.036691784858704,1.6887029432954524e+18,122.05045263671876,-4.669023831685384,-7.96190087000529,3.273726304372152,1.688702943295453e+18,122.05045288085935,1.4849370121955872,-5.01054584980011,2.7502681016921997,1.688702943295453e+18,122.05045288085935,1.4840207695961,-5.006116986274719,2.7527114748954773,,,,,,,,,,,,1.688702943296784e+18,122.05178408203123,-3.786879873275757,47.22863922119141,-20.761959838867188,1.688702943296784e+18,122.05178408203123,-261.2068786621094,141.85183715820312,-153.64435729980468,1.6887029432954524e+18,122.05045263671876,0.5059337814648946,-0.830680767695109,0.2173826793829599,0.0678436712672312,-2.533304770787557,0.9492961565653484,-0.8305051128069559
2.1,1.688702943347355e+18,122.10235489908854,2.9073687394460044,11.168451309204102,0.1929625670115153,1.6887029433387036e+18,122.09370361328124,-0.7337989211082458,1.8161523938179016,2.5694926579793296,1.688702943347355e+18,122.10235489908854,-3.48370353380839,-8.91425609588623,2.0857269763946533,1.6887029433387036e+18,122.09370361328124,-0.3761402890086174,-5.564524173736572,4.895626862843831,1.6887029433387036e+18,122.09370361328124,-0.3770565589269002,-5.560146331787109,4.898070176442464,,,,,,,,,,,,1.6887029433467786e+18,122.101778515625,-7.937319755554199,45.484039306640625,-22.296719360351563,1.6887029433467786e+18,122.101778515625,-265.35731811523436,140.10723571777345,-155.17911682128906,1.688702943347355e+18,122.10235489908854,-0.5615878701210022,0.7679003675778707,-0.2938694159189859,0.0779447716971238,-2.597240368525187,1.1440285046895344,-1.089280128479004
2.15,1.6887029433992563e+18,122.15425642903648,-0.5644174019495646,12.06200377146403,0.2009723583857218,1.6887029433906066e+18,122.14560660807292,-1.8269200722376504,2.7038896083831787,2.40678071975708,1.6887029433992563e+18,122.15425642903648,-1.4418283502260845,-9.479393323262531,1.9576773246129353,1.6887029433906066e+18,122.14560660807292,-0.7521278361479441,-3.644829273223877,5.441587766011556,1.6887029433906066e+18,122.14560660807292,-0.7530441383520762,-3.6405022939046225,5.4439802169799805,1.6887029434079086e+18,122.16290869140624,0.0,0.0,3.8760602474212646,7.258999824523926,2.6224524974823,103.46246337890624,43.400001525878906,-122.7527738,49.1874148,1.6887029433967795e+18,122.1517794921875,-14.644879722595215,41.523919677734376,-26.217799758911134,1.6887029433967795e+18,122.1517794921875,-272.0648681640625,136.147119140625,-159.1001983642578,1.6887029433992563e+18,122.15425642903648,-0.6257827877998352,0.6675817767779032,-0.3554274936517079,0.1850994179646173,-2.1679312785466514,1.3135789235432942,-1.7652491331100464
2.2,1.6887029434511506e+18,122.20615063476562,-3.933658361434937,8.825377782185873,-3.1292430559794107,1.6887029434425037e+18,122.1975038248698,-3.063411275545756,0.0428714156150817,-0.660219649473826,1.6887029434511506e+18,122.20615063476562,0.7347899973392487,-9.591123580932615,1.889486312866211,1.6887029434425037e+18,122.1975038248698,0.3672318160533905,-1.893275022506714,4.421391725540161,1.6887029434425037e+18,122.1975038248698,0.366315521299839,-1.8888462384541829,4.423784255981445,,,,,,,,,,,,1.6887029434467766e+18,122.20177651367187,-21.48907928466797,36.29256057739258,-29.19703941345215,1.6887029434467766e+18,122.20177651367187,-278.90907592773436,130.91576232910157,-162.07943725585938,1.6887029434511506e+18,122.20615063476562,-0.6819647351900736,0.5717562437057495,-0.3671675125757853,0.2693972438573837,-1.1988661686579387,1.358128825823466,-2.8823713461558023
2.25,1.6887029434944108e+18,122.24941076660156,2.1523151993751526,8.528935432434082,-0.6719668507575989,1.688702943494404e+18,122.24940397135416,2.2087746957937875,-1.2197413643201191,0.7611169914404553,1.6887029434944108e+18,122.24941076660156,0.939048558473587,-9.680026054382324,1.2676047682762146,1.688702943494404e+18,122.24940397135416,1.9358319441477456,0.0339030375083287,-1.181057055791219,1.688702943494404e+18,122.24940397135416,1.9349665244420369,0.0382808496554692,-1.1787154177824657,,,,,,,,,,,,1.6887029434967803e+18,122.2517802734375,-21.496399688720704,36.87083969116211,-28.2210391998291,1.6887029434967803e+18,122.2517802734375,-278.91639404296876,131.4940399169922,-161.1034362792969,1.6887029434944108e+18,122.24941076660156,-0.6700969040393829,0.5652695298194885,-0.3631471991539001,0.3153427690267563,-0.9293906390666962,1.4076683521270752,3.066487669944763
2.3,1.6887029435376548e+18,122.29265462239584,-1.886278788248698,2.903326988220215,8.509652137756348,1.6887029435463114e+18,122.30131119791668,-5.1744788736104965,-13.198011875152588,14.48255936304728,1.6887029435376548e+18,122.29265462239584,-0.4729083875815074,-9.715736389160156,1.0212838053703308,1.6887029435463114e+18,122.30131119791668,-2.5914940436681113,5.543449401855469,-5.580203056335449,1.6887029435463114e+18,122.30131119791668,-2.5924102663993835,5.54787810643514,-5.577810605367024,,,,,,,,,,,,1.6887029435467802e+18,122.301780078125,-18.52935943603516,41.69227981567383,-24.21211967468262,1.6887029435467802e+18,122.301780078125,-275.94935302734376,136.3154754638672,-157.09451904296876,1.6887029435376548e+18,122.29265462239584,-0.6425521373748779,0.6449485222498575,-0.3265389502048492,0.2470599661270777,-1.8392419815063477,1.4426489273707073,-2.1404311656951904
2.35,1.6887029435895514e+18,122.34455143229168,-8.316862424214682,-30.88193130493164,25.25234254201253,1.6887029435982062e+18,122.3532061360677,-10.108878294626871,-35.93002700805664,25.030519485473633,1.6887029435895514e+18,122.34455143229168,-3.0076330502827964,-8.67685317993164,3.3479953606923423,1.6887029435982062e+18,122.3532061360677,-3.833484927813212,-1.7234545548756917,-4.306752761205037,1.6887029435982062e+18,122.3532061360677,-3.8344011306762695,-1.7190766334533691,-4.304411172866821,,,,,,,,,,,,1.6887029435967757e+18,122.35177563476564,-10.792119789123536,40.05016021728515,-30.85624008178711,1.6887029435967757e+18,122.35177563476564,-268.2121154785156,134.67335510253906,-163.73863830566407,1.6887029435895514e+18,122.34455143229168,-0.583963930606842,0.7139894763628641,-0.3775605956713359,0.0694346502423285,-2.294536908467611,1.092383623123169,-1.5105100472768147
2.4,1.6887029436414587e+18,122.39645849609376,1.869810501734416,-3.176252524058024,2.192490021387736,1.688702943650106e+18,122.40510587565105,-4.602594534556071,-9.392626444498696,4.56610369682312,1.6887029436414587e+18,122.39645849609376,-5.031191507975261,-7.577334562937419,3.630368709564209,1.688702943650106e+18,122.40510587565105,-4.500244379043579,-7.001482963562012,-1.8497508366902669,1.688702943650106e+18,122.40510587565105,-4.501160462697347,-6.997054258982341,-1.8473074038823445,,,,,,,,,,,,1.6887029436467758e+18,122.40177573242188,3.189079931378364,35.88751907348633,-37.29295883178711,1.6887029436467758e+18,122.40177573242188,-254.23091735839844,130.5107177734375,-170.17535400390625,1.6887029436414587e+18,122.39645849609376,-0.4865856568018595,0.7120771010716757,-0.4971432487169901,0.0787354186177253,-2.5138563315073648,0.885016401608785,-1.52439550558726
2.45,1.688702943693357e+18,122.44835693359374,38.970365365346275,-10.04042148590088,7.1781589190165205,1.6887029437020111e+18,122.45701106770832,53.3451894124349,-17.46959924697876,9.59442130724589,1.688702943693357e+18,122.44835693359374,-7.123156706492106,-6.159030914306641,2.7280511061350503,1.6887029437020111e+18,122.45701106770832,-2.250783840815226,-2.864805360635122,-0.9521862169106802,1.6887029437020111e+18,122.45701106770832,-2.2517002125581107,-2.860427429278692,-0.9498445391654968,,,,,,,,,,,,1.6887029436967736e+18,122.45177377929689,23.116559410095213,25.2564395904541,-40.28927841186523,1.6887029436967736e+18,122.45177377929689,-234.30343933105468,119.879638671875,-173.1716766357422,1.688702943693357e+18,122.44835693359374,-0.3438789347807566,0.6510840853055319,-0.6620145241419474,0.1359119340777397,-2.775336265563965,0.6799051364262899,-1.7184362014134724
2.5,1.6887029437452595e+18,122.5002596842448,2.9957900047302246,-0.9425090154012044,-3.92537268002828,1.688702943745258e+18,122.50025793457031,-5.651547908782959,-7.378866672515869,-0.1887338869273662,1.6887029437452595e+18,122.5002596842448,-6.63513724009196,-6.113768259684245,3.812436103820801,1.688702943745258e+18,122.50025793457031,-0.7920631468296051,4.143040895462036,0.8226827532052994,1.688702943745258e+18,122.50025793457031,-0.7929794490337372,4.147469520568848,0.8250498473644257,,,,,,,,,,,,1.6887029437467745e+18,122.50177465820312,19.52487964630127,22.262559509277345,-43.49299926757813,1.6887029437467745e+18,122.50177465820312,-237.89511413574215,116.88575744628906,-176.37539672851562,1.6887029437452595e+18,122.5002596842448,-0.3896897931893666,0.6368066271146139,-0.6574962735176086,0.0970352763930955,-2.61954919497172,0.6738538146018982,-1.7898815075556438
2.55,1.688702943797164e+18,122.5521639811198,1.047159751256307,3.48433248202006,-6.665477911631267,1.6887029437885094e+18,122.54350968424478,-4.311268170674642,-3.4506496588389077,-1.322832107543945,1.688702943797164e+18,122.5521639811198,-5.316417535146077,-6.681784629821777,4.812161445617676,1.6887029437885094e+18,122.54350968424478,-0.120696797966957,2.4284947315851846,2.4089980125427246,1.6887029437885094e+18,122.54350968424478,-0.1216130827864011,2.4329235553741455,2.4114415645599365,,,,,,,,,,,,1.6887029437967764e+18,122.55177641601564,10.328519821166992,22.87011947631836,-45.379119110107425,1.6887029437967764e+18,122.55177641601564,-247.0914794921875,117.49331665039062,-178.2615173339844,1.688702943797164e+18,122.5521639811198,-0.4719124933083851,0.6150632500648499,-0.6261040767033895,0.0809028993050257,-2.403120517730713,0.750201960404714,-1.8919137318929036
2.6,1.6887029438490637e+18,122.60406363932292,3.894454956054687,-2.281665802001953,-7.063128153483073,1.688702943840415e+18,122.5954149576823,-3.238087217013041,-7.195616563161214,-3.06999135017395,1.6887029438490637e+18,122.60406363932292,-4.181656837463379,-7.442209720611572,4.817987124125163,1.688702943840415e+18,122.5954149576823,0.1682933742801347,-0.0216348047057787,2.9960394700368247,1.688702943840415e+18,122.5954149576823,0.1673770770430565,-0.0172060318291187,2.9984320799509683,,,,,,,,,,,,1.688702943846778e+18,122.60177802734374,5.306999969482422,24.063279342651366,-45.24735794067383,1.688702943846778e+18,122.60177802734374,-252.11299743652344,118.6864776611328,-178.12975463867187,1.6887029438490637e+18,122.60406363932292,-0.5220086971918741,0.5844543178876241,-0.6086894671122233,0.1220606863498687,-2.2802325089772544,0.8615063627560934,-2.028627872467041
2.65,1.688702943900969e+18,122.65596907552084,8.658718744913736,-22.817845980326336,5.893272320429484,1.6887029438923182e+18,122.64731819661456,7.640881061553955,-26.88715171813965,7.291329463322957,1.688702943900969e+18,122.65596907552084,-2.867353836695353,-8.263965924580893,4.4129384358723955,1.6887029438923182e+18,122.64731819661456,3.597538113594055,6.427167654037476,-0.3388266364733378,1.6887029438923182e+18,122.64731819661456,3.596621831258138,6.431596517562866,-0.3364849487940469,,,,,,,,,,,,1.688702943896774e+18,122.65177426757812,-3.2671600341796876,28.40891914367676,-42.32911987304688,1.688702943896774e+18,122.65177426757812,-260.68715209960936,123.03211822509766,-175.21151123046874,1.688702943900969e+18,122.65596907552084,-0.5841560363769531,0.6208312312761942,-0.5047507385412852,0.1105912799636522,-2.138456424077352,1.0029777487119038,-1.9483713308970136
2.7,1.6887029439442222e+18,122.69922216796874,-7.451328039169312,-26.4222354888916,15.97070598602295,1.6887029439442194e+18,122.69921940104166,-2.557927370071411,-32.906895319620766,18.739789326985676,1.6887029439442222e+18,122.69922216796874,-2.6845327615737915,-8.53136157989502,3.989746332168579,1.6887029439442194e+18,122.69921940104166,3.4609588781992593,8.00879979133606,-7.80018933614095,1.6887029439442194e+18,122.69921940104166,3.4600424766540527,8.013177593549093,-7.797847747802734,1.6887029439269184e+18,122.68191845703124,0.0,0.0,3.624218463897705,7.285999774932861,2.61372709274292,102.25352478027344,43.400001525878906,-122.7527555,49.187418,1.6887029439467807e+18,122.70178081054686,-13.951919555664062,39.764678955078125,-29.15067939758301,1.6887029439467807e+18,122.70178081054686,-271.3719116210938,134.38787536621095,-162.0330780029297,1.6887029439442222e+18,122.69922216796874,0.6021090447902679,-0.7383137941360474,0.298344999551773,0.0307854651473462,-2.153940916061402,1.0562574863433838,-1.3814964890480042
2.75,1.6887029439874757e+18,122.74247542317708,13.03817351659139,2.5019283294677734,4.954808870951335,1.6887029439961272e+18,122.75112744140624,5.789434194564819,-3.021337389945984,7.686942895253499,1.6887029439874757e+18,122.74247542317708,-4.876119613647461,-7.634974638621013,3.7474127610524497,1.6887029439961272e+18,122.75112744140624,1.5699745814005537,1.167058030764262,-3.218954344590505,1.6887029439961272e+18,122.75112744140624,1.5691092014312744,1.1714868545532229,-3.216561804215113,,,,,,,,,,,,1.68870294399678e+18,122.751780078125,-2.852359914779663,46.49175872802734,-22.52607955932617,1.68870294399678e+18,122.751780078125,-260.27235717773436,141.11495361328124,-155.40848083496093,1.6887029439874757e+18,122.74247542317708,0.4916974902153015,-0.8362477421760559,0.2186781366666157,0.0988667507966358,-2.484377861022949,0.8942957520484924,-0.8368546565373739
2.8,1.688702944039379e+18,122.79437915039064,4.281961838404338,9.030605951944986,-0.7020631631215414,1.6887029440480284e+18,122.8030282389323,-0.5022933557629585,1.9050855835278828,1.7762719790140789,1.688702944039379e+18,122.79437915039064,-5.004657745361328,-7.918185869852702,2.882048765818278,1.6887029440480284e+18,122.8030282389323,-0.1462004135052362,-4.463999589284261,3.637753486633301,1.6887029440480284e+18,122.8030282389323,-0.1470658133427302,-4.45957072575887,3.640145937601725,,,,,,,,,,,,1.6887029440467802e+18,122.80178022460936,-2.5302799701690675,47.12615966796875,-20.705839920043942,1.6887029440467802e+18,122.80178022460936,-259.9502746582031,141.74935913085938,-153.58823852539064,1.688702944039379e+18,122.79437915039064,0.4926689565181732,-0.8386093378067017,0.2251942108074823,0.0419922657310962,-2.619760513305664,0.9421513279279072,-0.7948760588963827
2.85,1.6887029440912742e+18,122.84627425130208,2.0590760707855225,13.208751996358236,-0.7361043691635132,1.688702944099929e+18,122.85492919921876,-1.597209135691325,4.348955154418945,1.848056713740031,1.6887029440912742e+18,122.84627425130208,-3.763427416483561,-8.772900263468424,2.2116031646728516,1.688702944099929e+18,122.85492919921876,-1.499979575475057,-5.323334217071533,4.827922503153483,1.688702944099929e+18,122.85492919921876,-1.500895897547404,-5.318905671437581,4.830264091491699,,,,,,,,,,,,1.6887029440967844e+18,122.85178442382812,-7.241919803619385,44.7520393371582,-24.10231971740723,1.6887029440967844e+18,122.85178442382812,-264.6619140625,139.37523803710937,-156.9847198486328,1.6887029440912742e+18,122.84627425130208,-0.5498991012573242,0.7715303301811218,-0.3070331712563832,0.0740635705490906,-2.604427417119344,1.1105795701344807,-1.0982617735862732
2.9,1.6887029441431818e+18,122.89818172200522,1.729342699050903,11.929864883422852,-0.279476245244344,1.6887029441518316e+18,122.90683154296876,-0.3601198097070058,2.0289141734441123,1.8079769213994343,1.6887029441431818e+18,122.89818172200522,-2.0424670775731406,-9.3135560353597,2.242712020874023,1.6887029441518316e+18,122.90683154296876,-1.5909985303878784,-4.59075403213501,5.024366696675618,1.6887029441518316e+18,122.90683154296876,-1.5918639500935872,-4.586376190185547,5.026708443959554,,,,,,,,,,,,1.6887029441467776e+18,122.90177778320312,-10.648159790039063,40.01599884033203,-30.190119171142577,1.6887029441467776e+18,122.90177778320312,-268.0681640625,134.63919982910156,-163.07251892089843,1.6887029441431818e+18,122.89818172200522,-0.599704384803772,0.6646347641944885,-0.3999273578325907,0.1901772717634836,-2.2903048992156982,1.2533953189849854,-1.724463701248169
2.95,1.6887029441950833e+18,122.95008325195312,1.943863312403361,7.341637929280599,-0.4699352184931437,1.6887029441950746e+18,122.95007434082032,2.604288339614868,-2.4445674419403076,1.9773687720298767,1.6887029441950833e+18,122.95008325195312,-0.40434473316418,-9.429617881774902,2.652313629786174,1.6887029441950746e+18,122.95007434082032,-0.656527429819107,-1.1479684859514236,2.868241310119629,1.6887029441950746e+18,122.95007434082032,-0.6573673784732819,-1.1436160951852798,2.870684862136841,,,,,,,,,,,,1.6887029441967846e+18,122.95178442382812,-13.334599876403807,35.089639282226564,-34.68703994750977,1.6887029441967846e+18,122.95178442382812,-270.7546020507813,129.71283569335938,-167.5694366455078,1.6887029441950833e+18,122.95008325195312,-0.6398187875747681,0.5662710666656494,-0.4462091227372487,0.2654536565144856,-1.718095064163208,1.2914554278055828,-2.489652792612711
3.0,1.6887029442469898e+18,123.00198982747396,-3.927489757537842,-2.3704589207967124,9.192099889119469,1.6887029442383347e+18,122.99333479817707,-2.082952161629995,-7.777072509129842,8.370891253153482,1.6887029442469898e+18,123.00198982747396,-0.0125555346409479,-9.450925509134928,2.614809592564901,1.6887029442383347e+18,122.99333479817707,0.4113159328699112,4.408258120218913,-1.381369908650716,1.6887029442383347e+18,122.99333479817707,0.4105014503002167,4.412585179011027,-1.37902828057607,,,,,,,,,,,,1.6887029442467822e+18,123.00178217773436,-18.895359802246094,34.79439926147461,-33.09615974426269,1.6887029442467822e+18,123.00178217773436,-276.3153564453125,129.41759643554687,-165.9785583496094,1.6887029442469898e+18,123.00198982747396,-0.670054574807485,0.5869757731755575,-0.3931277493635813,0.2234801451365152,-1.5745351711908977,1.3000211715698242,-2.4791690508524575
3.05,1.688702944298883e+18,123.05388297526042,-5.98164947827657,-24.18699773152669,17.273784001668293,1.6887029442902364e+18,123.04523657226564,-8.466404914855957,-33.77170054117838,22.51227378845215,1.688702944298883e+18,123.05388297526042,-2.6216078201929727,-8.871683756510416,3.076099952061971,1.6887029442902364e+18,123.04523657226564,-1.8978565349631633,0.6513859989742438,-7.045108795166016,1.6887029442902364e+18,123.04523657226564,-1.8987727959950764,0.6558147529140115,-7.042716344197591,,,,,,,,,,,,1.6887029442967803e+18,123.051780078125,-13.978759574890136,38.74963989257813,-30.96603889465332,1.6887029442967803e+18,123.051780078125,-271.3987548828125,133.37283935546876,-163.8484375,1.688702944298883e+18,123.05388297526042,-0.5934868653615316,0.6904427806536356,-0.3942913810412089,0.1115849539637564,-2.247112274169922,1.1408076286315918,-1.645328680674235
3.1,1.6887029443507845e+18,123.10578417968752,1.6183194319407146,-5.2922814687093105,1.9045008023579917,1.6887029443421356e+18,123.09713525390625,-4.483352104822795,-15.479568163553871,7.270591576894124,1.6887029443507845e+18,123.10578417968752,-5.298344612121582,-7.307169437408447,3.786154349644979,1.6887029443421356e+18,123.09713525390625,-3.829157829284668,-4.207385301589966,-3.628997643788656,1.6887029443421356e+18,123.09713525390625,-3.830074151357015,-4.202956517537435,-3.626656055450439,,,,,,,,,,,,1.6887029443467817e+18,123.10178159179686,2.5473600387573243,35.2823989868164,-37.827318572998045,1.6887029443467817e+18,123.10178159179686,-254.8726348876953,129.9055953979492,-170.70972290039063,1.6887029443507845e+18,123.10578417968752,-0.4732827544212341,0.7069557905197144,-0.5183691183725992,0.0732676188151041,-2.5192185242970786,0.8435874581336975,-1.5525928338368733
3.15,1.6887029444026888e+18,123.15768888346356,46.29340489705404,-5.5438971519470215,8.632706006368002,1.6887029443940403e+18,123.14904028320314,44.44349034627279,-12.59083350499471,10.368499040603638,1.6887029444026888e+18,123.15768888346356,-7.174206892649333,-6.4360114733378095,1.5757975578308103,1.6887029443940403e+18,123.14904028320314,-3.1583769718805947,-10.844334284464518,0.7581855654716492,1.6887029443940403e+18,123.14904028320314,-3.159293293952942,-10.839905420939129,0.7605780959129333,,,,,,,,,,,,1.6887029443967772e+18,123.15177724609376,27.230399322509765,26.954679489135746,-36.665879821777345,1.6887029443967772e+18,123.15177724609376,-230.1895965576172,121.5778793334961,-169.54827575683595,1.6887029444026888e+18,123.15768888346356,-0.3024842341740926,0.6372459133466085,-0.6765177051226298,0.1970400437712669,-2.929563283920288,0.7174925605456034,-1.708393096923828
3.2,1.6887029444459402e+18,123.2009403076172,4.429783940315247,-1.37880539894104,-0.4856068193912506,1.6887029444459397e+18,123.20093969726564,3.418147087097168,-7.008976459503174,1.2241281891862552,1.6887029444459402e+18,123.2009403076172,-6.6017327308654785,-6.990832328796387,1.8948044180870056,1.6887029444459397e+18,123.20093969726564,-1.5884023507436116,4.194608132044475,1.4381803671518962,1.6887029444459397e+18,123.20093969726564,-1.5893186330795288,4.198934872945149,1.44057297706604,1.6887029444459402e+18,123.20094018554688,0.0,0.0,3.624218463897705,7.293000221252441,2.5918211936950684,99.9045867919922,43.400001525878906,-122.7527368,49.1874256,1.6887029444467802e+18,123.20178027343748,28.206399154663085,25.888399505615233,-36.56339950561524,1.6887029444467802e+18,123.20178027343748,-229.2135986328125,120.5115966796875,-169.4457977294922,1.6887029444459402e+18,123.2009403076172,-0.3341130167245865,0.5959089994430542,-0.6935596764087677,0.2272377461194992,-2.8623697757720947,0.7944247126579285,-1.840114414691925
