seconds_elapsed_rounded,accelerometer_time,accelerometer_seconds_elapsed,accelerometer_z,accelerometer_y,accelerometer_x,accelerometeruncalibrated_time,accelerometeruncalibrated_seconds_elapsed,accelerometeruncalibrated_z,accelerometeruncalibrated_y,accelerometeruncalibrated_x,gravity_time,gravity_seconds_elapsed,gravity_z,gravity_y,gravity_x,gyroscope_time,gyroscope_seconds_elapsed,gyroscope_z,gyroscope_y,gyroscope_x,gyroscopeuncalibrated_time,gyroscopeuncalibrated_seconds_elapsed,gyroscopeuncalibrated_z,gyroscopeuncalibrated_y,gyroscopeuncalibrated_x,location_time,location_seconds_elapsed,location_bearingAccuracy,location_speedAccuracy,location_verticalAccuracy,location_horizontalAccuracy,location_speed,location_bearing,location_altitude,location_longitude,location_latitude,magnetometer_time,magnetometer_seconds_elapsed,magnetometer_z,magnetometer_y,magnetometer_x,magnetometeruncalibrated_time,magnetometeruncalibrated_seconds_elapsed,magnetometeruncalibrated_z,magnetometeruncalibrated_y,magnetometeruncalibrated_x,orientation_time,orientation_seconds_elapsed,orientation_qz,orientation_qy,orientation_qx,orientation_qw,orientation_roll,orientation_pitch,orientation_yaw
0.0,1.6887028662379128e+18,44.99291284179687,4.056657950083415,-10.652836481730144,6.925151586532593,1.6887028662465692e+18,45.001569498697926,-0.3986044228076935,-14.858631134033203,6.570292234420776,1.6887028662379128e+18,44.99291284179687,-3.183540423711141,-8.980516115824381,2.280959447224935,1.6887028662465692e+18,45.001569498697926,3.4115296999613443,5.997831424077352,-4.746168414751689,1.6887028662465692e+18,45.001569498697926,3.410511573155721,6.002259969711304,-4.743877689043681,,,,,,,,,,,,1.6887028662467794e+18,45.00177939453125,11.177639722824097,49.44903945922851,7.07599983215332,1.6887028662467794e+18,45.00177939453125,-246.2423522949219,144.07223815917968,-125.80639953613282,1.6887028662379128e+18,44.99291284179687,0.4422150055567423,-0.7042608261108398,-0.3931512335936228,0.3866228759288788,-2.5526207288106284,1.192263921101888,0.6059455871582031
0.05,1.68870286628982e+18,45.04482006835937,-3.534590244293213,4.521097183227539,1.884380618731181,1.6887028662984645e+18,45.05346419270833,-6.270790537198384,-3.569692532221476,3.4261232217152915,1.68870286628982e+18,45.04482006835937,-3.7067525386810303,-8.971789995829264,1.3751668135325117,1.6887028662984645e+18,45.05346419270833,0.6017023126284281,-3.525048851966858,1.6426166494687398,1.6887028662984645e+18,45.05346419270833,0.6007350484530131,-3.5206199884414673,1.644907385110855,,,,,,,,,,,,1.6887028662967803e+18,45.05178032226563,16.530999755859376,47.40187911987304,12.561119651794431,1.6887028662967803e+18,45.05178032226563,-240.8889953613281,142.02507629394532,-120.32127685546877,1.68870286628982e+18,45.04482006835937,0.4230380356311798,-0.6773220499356588,-0.472365806500117,0.3719860116640727,-2.8654154936472573,1.1813246806462605,1.032949169476827
0.1,1.688702866341729e+18,45.096729085286455,2.2672886848449707,9.427032470703123,1.7142643928527832,1.6887028663503706e+18,45.105370524088535,-0.6334997713565826,0.7182455857594808,2.698904593785604,1.688702866341729e+18,45.096729085286455,-2.882706244786581,-9.304044405619305,1.1273367802302043,1.6887028663503706e+18,45.105370524088535,-2.042020678520202,-3.859803040822347,2.4582744439442954,1.6887028663503706e+18,45.105370524088535,-2.042987902959188,-3.855374177296957,2.4606160322825112,,,,,,,,,,,,1.6887028663467804e+18,45.101780371093746,8.069079685211182,48.83415908813477,13.16867961883545,1.6887028663467804e+18,45.101780371093746,-249.35091552734377,143.45736083984374,-119.7137176513672,1.688702866341729e+18,45.096729085286455,0.5007626911004385,-0.6956162452697754,-0.3879278302192688,0.3372215628623962,-2.842200756072998,1.2833682696024578,0.7905216813087463
0.15,1.688702866396504e+18,45.15150423177083,0.3025391101837159,11.356595993041992,0.7949937184651693,1.6887028664022705e+18,45.157270507812505,-1.6546368598937988,1.925424615542094,2.7220351696014404,1.688702866396504e+18,45.15150423177083,-1.975185473759969,-9.449559211730955,1.723576307296753,1.6887028664022705e+18,45.157270507812505,-1.5742506583531697,-3.567300319671631,3.3874005476633706,1.6887028664022705e+18,45.157270507812505,-1.5752178033192952,-3.5628715356191,3.3896912733713784,,,,,,,,,,,,1.6887028663967729e+18,45.15177294921875,-2.954840016365051,50.12979888916016,7.656719875335693,1.6887028663967729e+18,45.15177294921875,-260.3748291015625,144.75299682617188,-125.22567749023438,1.688702866396504e+18,45.15150423177083,0.5559965968132019,-0.7088764309883118,-0.285190592209498,0.3259659012158711,-2.424140453338623,1.344221830368042,0.1827728684778169
0.2,1.688702866454171e+18,45.2091708984375,-0.4184762835502624,11.567003726959229,-1.5647708177566528,1.6887028664455217e+18,45.200521728515625,0.1435693651437759,2.0303099751472473,1.2388839572668076,1.688702866454171e+18,45.2091708984375,0.0722512155771255,-9.5969557762146,1.992612063884735,1.6887028664455217e+18,45.200521728515625,-0.1898263748735189,-1.9475911855697632,4.443892002105713,1.6887028664455217e+18,45.200521728515625,-0.1908953879028559,-1.9431623220443728,4.446182727813721,,,,,,,,,,,,1.6887028664467756e+18,45.201775585937504,-14.2227596282959,48.29003982543945,3.977199935913086,1.6887028664467756e+18,45.201775585937504,-271.6427490234375,142.91323547363282,-128.9051971435547,1.688702866454171e+18,45.2091708984375,0.653535932302475,-0.6657258570194244,-0.1806013509631157,0.310736134648323,-1.3198583126068115,1.3810212016105652,-1.1087050437927246
0.25,1.6887028664974236e+18,45.25242366536458,-0.380746324857076,8.641553084055582,-0.9509259064992268,1.6887028664887708e+18,45.243770833333336,0.1142572760581969,-0.352542536954085,0.4388835430145263,1.6887028664974236e+18,45.25242366536458,1.3236544926961262,-9.535913467407228,1.8603227138519287,1.6887028664887708e+18,45.243770833333336,0.5402594010035197,-1.2586369514465332,2.8232664267222085,1.6887028664887708e+18,45.243770833333336,0.53924127916495,-1.2542081673940022,2.8255571524302163,,,,,,,,,,,,1.6887028664967736e+18,45.2517736328125,-22.38943977355957,45.21808013916016,3.123199939727783,1.6887028664967736e+18,45.2517736328125,-279.80943603515624,139.84127807617188,-129.7591979980469,1.6887028664974236e+18,45.25242366536458,0.7069280942281088,-0.6246401866277059,-0.1453086684147516,0.2976628939310709,-0.7622824112574259,1.3236932754516602,-1.7370255788167317
0.3,1.6887028665493286e+18,45.30432861328125,-1.2175122499465942,2.804213523864746,4.841974337895711,1.688702866540678e+18,45.295678059895835,0.2857428789138794,-4.083551247914632,4.069593191146851,1.6887028665493286e+18,45.30432861328125,1.036192536354065,-9.621009508768717,1.4867666165033977,1.688702866540678e+18,45.295678059895835,0.8303695122400919,0.4733696480592091,-2.133599599202474,1.688702866540678e+18,45.295678059895835,0.8294022878011068,0.4777984321117401,-2.1313088734944663,,,,,,,,,,,,1.6887028665467745e+18,45.301774267578125,-21.977079772949217,45.000919342041016,4.760439920425415,1.6887028665467745e+18,45.301774267578125,-279.3970703125,139.62411804199218,-128.12195739746093,1.6887028665493286e+18,45.30432861328125,0.7031069795290629,-0.6317970554033915,-0.1618943214416503,0.2813375294208526,-0.7683985431989034,1.368952473004659,-1.7320703268051147
0.35,1.688702866601232e+18,45.35623209635417,-1.73379385471344,-25.64691098531087,22.565935134887695,1.6887028665925765e+18,45.34757641601562,-2.765704164902369,-32.92982546488444,24.96272341410319,1.688702866601232e+18,45.35623209635417,-2.77873424688975,-8.931811968485514,2.5963149865468345,1.6887028665925765e+18,45.34757641601562,-2.5484280586242676,4.051665465037028,-10.146624565124512,1.6887028665925765e+18,45.34757641601562,-2.5494461059570312,4.056094328562419,-10.144333839416504,1.688702866592576e+18,45.347575927734376,0.0,0.0,3.6440627574920654,7.127999782562256,2.621577262878418,292.7281188964844,43.400001525878906,-122.7531244,49.188816,1.6887028665967729e+18,45.35177275390625,-3.145159816741943,49.958998107910155,1.8129199624061585,1.6887028665967729e+18,45.35177275390625,-260.5651550292969,144.5821960449219,-131.06947631835936,1.688702866601232e+18,45.35623209635417,0.5183615386486053,-0.7518666585286459,-0.2391854077577591,0.3185576101144154,-2.3182188669840493,1.2131974299748738,0.0051256964604059
0.4,1.6887028666444823e+18,45.399482421875,-6.037205934524536,-10.925368785858154,3.313977003097534,1.6887028666444762e+18,45.39947623697916,-10.071190992991127,-18.779669443766277,8.178069512049357,1.6887028666444823e+18,45.399482421875,-4.984896421432495,-7.359228610992432,4.133508324623108,1.6887028666444762e+18,45.39947623697916,-2.4547619422276816,2.9060895840326944,-4.669453978538513,1.6887028666444762e+18,45.39947623697916,-2.455780108769735,2.910518447558085,-4.667163213094075,,,,,,,,,,,,1.688702866646773e+18,45.4017728515625,17.78027973175049,48.009439086914064,-5.3021199941635135,1.688702866646773e+18,45.4017728515625,-239.63971252441405,142.6326416015625,-138.18451538085938,1.6887028666444823e+18,45.399482421875,0.3477274626493454,-0.8099090158939362,-0.295739471912384,0.3677224963903427,-2.4668946266174316,0.8964639008045197,0.3662778735160827
0.45,1.6887028666877327e+18,45.44273282877604,27.694269339243572,-7.188230276107788,-9.4901704788208,1.6887028666963853e+18,45.45138500976562,29.898916880289715,-16.88555145263672,-2.085344870885214,1.6887028666877327e+18,45.44273282877604,-6.142179012298584,-5.972337404886882,4.631069978078206,1.6887028666963853e+18,45.45138500976562,-6.216571807861328,-7.110827604929606,-0.5737043476353089,1.6887028666963853e+18,45.45138500976562,-6.2174882888793945,-7.106398781140645,-0.5714136157184839,,,,,,,,,,,,1.6887028666967736e+18,45.45177358398438,25.659039306640626,43.954159545898435,-12.822199821472168,1.6887028666967736e+18,45.45177358398438,-231.76095275878907,138.57735290527344,-145.7045928955078,1.6887028666877327e+18,45.44273282877604,0.2877856492996216,-0.8681217630704244,-0.2107673585414886,0.3329569697380066,-2.4949658711751304,0.7043511867523193,0.2292623619238535
0.5,1.688702866739638e+18,45.49463793945313,12.54432694117228,-10.65658473968506,-4.553464253743489,1.688702866748284e+18,45.50328401692709,-2.3515464464823403,-13.22453244527181,0.2105683982372284,1.688702866739638e+18,45.49463793945313,-6.47778844833374,-5.409468173980713,4.973130067189534,1.688702866748284e+18,45.50328401692709,-1.5810719728469849,2.1377229491869607,2.691370447476705,1.688702866748284e+18,45.50328401692709,-1.581988275051117,2.142151713371277,2.693661173184713,,,,,,,,,,,,1.6887028667467738e+18,45.50177377929688,24.414639282226563,42.77075881958008,-18.78799934387207,1.6887028667467738e+18,45.50177377929688,-233.0053527832031,137.39395751953126,-151.67039489746094,1.688702866739638e+18,45.49463793945313,0.2998620669047038,-0.9005731145540873,-0.0799296100934345,0.3031478623549143,-2.476271867752075,0.6285916169484457,-0.0475611730168262
0.55,1.6887028667915397e+18,45.54653946940104,2.2139853636423745,1.4865238666534424,-7.324206193288167,1.6887028668001907e+18,45.55519091796875,-2.833102067311605,-3.965106646219889,-2.397010087966919,1.6887028667915397e+18,45.54653946940104,-5.236383120218913,-6.350975513458252,5.31774918238322,1.6887028668001907e+18,45.55519091796875,0.7736608187357584,-0.0193440687532226,3.3490687211354575,1.6887028668001907e+18,45.55519091796875,0.77264271179835,-0.01491529494524,3.351410388946533,,,,,,,,,,,,1.6887028667967729e+18,45.551772900390624,15.742879676818848,45.16927947998047,-20.730239486694337,1.6887028667967729e+18,45.551772900390624,-241.67711791992187,139.79247436523437,-153.61264038085938,1.6887028667915397e+18,45.54653946940104,0.3702859580516815,-0.8653754989306132,-0.0565651531020799,0.331966608762741,-2.327844619750977,0.7458833853403727,-0.2043527017037073
0.6,1.6887028668434432e+18,45.59844303385416,2.4191600481669107,0.5616683959960936,-10.393250465393066,1.68870286685209e+18,45.60708992513021,-1.4526427388191223,-8.007182280222574,-5.405785163243611,1.6887028668434432e+18,45.59844303385416,-4.224009911219279,-7.432501951853435,4.7921756108601885,1.68870286685209e+18,45.60708992513021,1.7374535004297893,0.3209587931632995,2.5382468700408936,1.68870286685209e+18,45.60708992513021,1.7365371386210124,0.3253875573476155,2.540537595748902,,,,,,,,,,,,1.6887028668467707e+18,45.60177080078125,8.086159801483154,48.09971923828125,-18.52203941345215,1.6887028668467707e+18,45.60177080078125,-249.3338348388672,142.72291870117186,-151.40443420410156,1.6887028668434432e+18,45.59844303385416,0.4480788509051005,-0.8339819312095642,-0.0549942863484223,0.316514899333318,-2.262788931528727,0.8986849188804626,-0.3146775464216868
0.65,1.6887028668953498e+18,45.65034993489584,9.998511473337809,-8.390233357747396,-1.8434735933939617,1.688702866895349e+18,45.65034899902344,7.728518217802048,-16.013965129852295,1.6432709097862244,1.6887028668953498e+18,45.65034993489584,-3.087105671564738,-8.446507136027018,3.8878657023111978,1.688702866895349e+18,45.65034899902344,3.6409095525741577,3.26530385017395,1.1727085560560224,1.688702866895349e+18,45.65034899902344,3.639916777610779,3.269732654094696,1.1749992817640305,,,,,,,,,,,,1.6887028668967777e+18,45.651777685546875,0.8198400147259235,50.33475952148437,-12.66359977722168,1.6887028668967777e+18,45.651777685546875,-256.60016174316405,144.957958984375,-145.54599304199218,1.6887028668953498e+18,45.65034993489584,0.5067677597204844,-0.7904145320256551,-0.1208070491751034,0.3192377388477325,-2.206652800242106,1.0758779843648274,-0.2812664409478504
0.7,1.6887028669472504e+18,45.70225065104166,-3.669263998667399,-29.685471216837566,13.42159652709961,1.688702866938599e+18,45.693598551432295,-3.515056530634562,-38.21676762898763,16.677973747253418,1.6887028669472504e+18,45.70225065104166,-2.7766648133595786,-8.689066569010416,3.575943390528361,1.688702866938599e+18,45.693598551432295,3.4719034830729165,12.147411664326986,-5.527210474014282,1.688702866938599e+18,45.693598551432295,3.4708853562672934,12.151840527852375,-5.524919748306274,,,,,,,,,,,,1.6887028669467784e+18,45.70177836914063,2.6717999815940856,52.11839904785156,-2.9206799030303956,1.6887028669467784e+18,45.70177836914063,-254.74819946289065,146.7415985107422,-135.803076171875,1.6887028669472504e+18,45.70225065104166,0.4129969477653503,-0.7089266578356425,-0.3553296228249867,0.4384430348873138,-2.2394779523213706,1.1265254418055215,0.3298824268082778
0.75,1.688702866999158e+18,45.754157877604165,15.465933163960775,0.6447968482971191,5.602936267852783,1.6887028669905068e+18,45.74550675455729,10.647063573201496,-11.185648520787558,10.185049374898275,1.688702866999158e+18,45.754157877604165,-5.195403575897217,-7.541553020477295,3.49529759089152,1.6887028669905068e+18,45.74550675455729,1.152295470237732,1.5583173036575315,-6.575557152430217,1.6887028669905068e+18,45.74550675455729,1.1513282656669617,1.5627459784348805,-6.573266426722209,,,,,,,,,,,,1.688702866996779e+18,45.75177900390625,26.249519729614256,46.83823928833008,1.817799937725067,1.688702866996779e+18,45.75177900390625,-231.17047424316405,141.46143493652343,-131.064599609375,1.688702866999158e+18,45.754157877604165,0.264924998084704,-0.7172170480092367,-0.4985012312730153,0.4073940714200337,-2.5932396252950034,0.9056421319643656,0.9420127073923746
0.8,1.68870286705106e+18,45.80605981445313,5.470199505488078,8.37635596593221,-0.5264231363932291,1.6887028670424074e+18,45.79740730794271,-0.5373880664507548,-0.3168496092160542,3.074777126312256,1.68870286705106e+18,45.80605981445313,-5.230382442474365,-7.77958885828654,2.860347032546997,1.6887028670424074e+18,45.79740730794271,-0.1244637966156005,-4.2642466227213545,2.518597404162089,1.6887028670424074e+18,45.79740730794271,-0.1254818961024284,-4.259817997614543,2.5208881298700967,,,,,,,,,,,,1.6887028670467784e+18,45.80177832031249,27.176719665527344,46.223358917236325,5.392400026321411,1.6887028670467784e+18,45.80177832031249,-230.24327697753907,140.8465576171875,-127.48999633789064,1.68870286705106e+18,45.80605981445313,0.3103660841782887,-0.7324850757916769,-0.4746589660644531,0.3741181095441182,-2.691378911336263,0.9469006856282552,0.9166293342908224
0.85,1.6887028670943122e+18,45.84931213378906,4.233434557914734,11.529617309570312,-1.3087047934532166,1.68870286709431e+18,45.84930981445313,-0.2380858461062113,3.1377880573272705,0.9988040725390116,1.6887028670943122e+18,45.84931213378906,-4.450148105621338,-8.46425485610962,2.175030827522278,1.68870286709431e+18,45.84930981445313,-1.2133310834566753,-4.983438809712728,3.931223313013712,1.68870286709431e+18,45.84930981445313,-1.2143492301305134,-4.979009946187337,3.93351403872172,1.6887028671116024e+18,45.8666025390625,0.0,0.0,3.6544759273529057,7.126999855041504,2.6099512577056885,291.3638916015625,43.400001525878906,-122.753151,49.1888138,1.688702867096778e+18,45.85177797851562,15.945399856567382,49.48075866699219,8.320399856567382,1.688702867096778e+18,45.85177797851562,-241.4745910644531,144.103955078125,-124.56199645996094,1.6887028670943122e+18,45.84931213378906,0.4103012084960937,-0.750518798828125,-0.3916421234607696,0.3379743546247482,-2.735474705696106,1.0785446166992188,0.7163163125514984
0.9,1.688702867137564e+18,45.892564208984375,3.0803791681925454,11.822972297668455,-0.89151664574941,1.6887028671462093e+18,45.90120930989584,0.032303104797999,2.4632115364074707,1.0699904958407085,1.688702867137564e+18,45.892564208984375,-3.4642911752065024,-8.964788436889648,1.9319205284118652,1.6887028671462093e+18,45.90120930989584,-1.5546520551045735,-4.763221740722656,3.7391570409139,1.6887028671462093e+18,45.90120930989584,-1.555670181910197,-4.758792877197266,3.741447766621908,,,,,,,,,,,,1.688702867146778e+18,45.901778271484375,3.825920033454895,51.08871917724609,6.941799926757812,1.688702867146778e+18,45.901778271484375,-253.5940734863281,145.71192016601563,-125.9405960083008,1.688702867137564e+18,45.892564208984375,0.4979094366232554,-0.7584494352340698,-0.2912771801153818,0.3000234067440032,-2.659691333770752,1.1985761324564617,0.3981418510278066
0.95,1.6887028671894671e+18,45.94446695963541,3.478524128595988,9.216673851013184,-1.4836946328481038,1.688702867198117e+18,45.95311743164063,1.129811058441798,-0.7128617763519287,0.7347959280014038,1.6887028671894671e+18,45.94446695963541,-2.291149298350016,-9.316218376159668,2.03037941455841,1.688702867198117e+18,45.95311743164063,-1.0436123708883922,-3.002657175064087,2.3448062340418496,1.688702867198117e+18,45.95311743164063,-1.0445286333560944,-2.998228351275126,2.3470969597498574,,,,,,,,,,,,1.6887028671967803e+18,45.95178022460938,-5.026399803161621,50.734918212890626,3.350119972229004,1.6887028671967803e+18,45.95178022460938,-262.44639282226564,145.35811462402344,-129.532275390625,1.6887028671894671e+18,45.94446695963541,0.5792248845100403,-0.7514946262041727,-0.1774044930934905,0.2592717657486597,-2.3740901947021484,1.2983141740163169,-0.1332838870584964
1.0,1.6887028672413734e+18,45.99637329101563,2.1160119771957397,1.6741730372111003,4.024927218755086,1.688702867250019e+18,46.00501904296875,-0.8059824705123901,-12.191830158233644,9.865607659022013,1.6887028672413734e+18,45.99637329101563,-1.8387072483698528,-9.375714937845864,2.222856601079305,1.688702867250019e+18,46.00501904296875,0.2658281922340393,4.4638978242874146,-1.7159713407357533,1.688702867250019e+18,46.00501904296875,0.264810082813104,4.468326489130656,-1.713680607577165,,,,,,,,,,,,1.6887028672467776e+18,46.00177744140625,-7.405399894714355,50.18103790283203,2.1325599193572997,1.6887028672467776e+18,46.00177744140625,-264.825390625,144.80423889160156,-130.74983825683594,1.6887028672413734e+18,45.99637329101563,0.5956873695055643,-0.7406618793805441,-0.1581409275531768,0.2660081386566161,-2.1934756437937417,1.3143850564956665,-0.3334094583988189
1.05,1.6887028672932723e+18,46.04827237955729,-8.602464358011881,-26.11006800333659,21.505828857421875,1.6887028673019249e+18,46.05692504882813,-12.386645952860514,-33.903106689453125,22.604197820027668,1.6887028672932723e+18,46.04827237955729,-2.875769933064779,-8.87084706624349,2.965294281641642,1.6887028673019249e+18,46.05692504882813,-1.2880093952020009,4.878624399503072,-5.473199844360352,1.6887028673019249e+18,46.05692504882813,-1.2890784045060475,4.883053223292033,-5.470909118652344,,,,,,,,,,,,1.6887028672967785e+18,46.05177832031249,3.952799774706364,50.15419921875,3.603880000114441,1.6887028672967785e+18,46.05177832031249,-253.46719665527343,144.77739868164062,-129.2785186767578,1.6887028672932723e+18,46.04827237955729,0.4825587471326192,-0.743126372496287,-0.2821485449870427,0.3629866739114125,-2.34049654006958,1.180792490641276,0.1685081298152606
1.1,1.6887028673451745e+18,46.1001747233073,-0.2268664836883545,-4.678221543629964,1.39676300684611,1.688702867345176e+18,46.10017614746094,-4.394717812538147,-11.478370189666748,4.977370262145996,1.6887028673451745e+18,46.1001747233073,-4.555452346801758,-7.633492151896159,4.1110405921936035,1.688702867345176e+18,46.10017614746094,-3.1077768802642822,-1.7575356364250183,-2.704682230949402,1.688702867345176e+18,46.10017614746094,-3.108693242073059,-1.7531068921089172,-2.702391505241394,,,,,,,,,,,,1.6887028673467776e+18,46.101777783203126,16.235759735107422,48.28759994506836,-2.039839971065521,1.6887028673467776e+18,46.101777783203126,-241.18423461914065,142.91079406738282,-134.9222381591797,1.6887028673451745e+18,46.1001747233073,0.3667504787445068,-0.7975444197654724,-0.2920085887114206,0.3782775600751241,-2.4218780199686685,0.9387509028116862,0.3246959348519643
1.15,1.688702867397072e+18,46.15207185872396,36.43477121988932,-6.309547106424968,6.759698232014974,1.688702867388431e+18,46.143430826822915,17.819151242574055,-10.330015023549398,8.796414931615194,1.688702867397072e+18,46.15207185872396,-6.955058892567952,-6.259195327758789,2.2240790327390036,1.688702867388431e+18,46.143430826822915,-4.281707286834717,-14.347748756408691,-1.6733126242955525,1.688702867388431e+18,46.143430826822915,-4.282725254694621,-14.34331997235616,-1.671021898587545,,,,,,,,,,,,1.6887028673967803e+18,46.15178041992188,24.79283905029297,44.94967803955078,-3.3525598526000975,1.6887028673967803e+18,46.15178041992188,-232.6271545410156,139.57288208007813,-136.2349609375,1.688702867397072e+18,46.15207185872396,0.3338936368624369,-0.9023310740788778,-0.1468658310671647,0.176009519646565,-2.8326154549916587,0.7379335363705953,0.2010051732261975
1.2,1.6887028674489772e+18,46.20397705078125,18.227359692255657,-3.3588663736979165,0.8242161671320597,1.6887028674403297e+18,46.195329833984374,27.66521644592285,-11.793824195861816,3.268795073032379,1.6887028674489772e+18,46.20397705078125,-6.464307467142741,-7.219047546386719,1.2708242237567902,1.6887028674403297e+18,46.195329833984374,-2.3312145471572876,2.273080666859945,3.316081960995992,1.6887028674403297e+18,46.195329833984374,-2.3322325944900513,2.2775092124938965,3.318372686704,,,,,,,,,,,,1.68870286744678e+18,46.20177978515625,19.927479934692386,47.26279907226562,0.1659200191497802,1.68870286744678e+18,46.20177978515625,-237.49251708984377,141.88599853515626,-132.7164764404297,1.6887028674489772e+18,46.20397705078125,0.4194418589274089,-0.9007787307103476,-0.0420329719781875,0.0912225972861051,-2.9369166692097983,0.8698386549949646,-0.0038227547580997
1.25,1.6887028675008786e+18,46.255878662109374,0.008951981862386,3.6415205796559658,-2.549684166908264,1.6887028674922324e+18,46.24723250325521,-5.366303602854411,-4.9962137540181475,0.8488538240393003,1.6887028675008786e+18,46.255878662109374,-5.127462387084961,-7.804476737976074,2.968552271525065,1.6887028674922324e+18,46.24723250325521,0.3622430860996246,4.548451582590739,2.0221676031748452,1.6887028674922324e+18,46.24723250325521,0.3612758815288543,4.55288044611613,2.024458328882853,,,,,,,,,,,,1.688702867496777e+18,46.25177680664062,13.971439743041993,48.9439582824707,-5.968239974975586,1.688702867496777e+18,46.25177680664062,-243.44855346679688,143.5671600341797,-138.85064086914062,1.6887028675008786e+18,46.255878662109374,0.4541951318581899,-0.8577273488044739,-0.0926215946674346,0.2200528780619303,-2.600137233734131,0.9625778198242188,-0.0737863282362619
1.3,1.6887028675441352e+18,46.29913500976562,-2.996314525604248,1.592886209487915,-3.850358724594116,1.6887028675441316e+18,46.299131510416665,-6.53021224339803,-7.23310391108195,-0.7304091254870096,1.6887028675441352e+18,46.29913500976562,-3.79109001159668,-8.502902030944824,3.0698245763778687,1.6887028675441316e+18,46.299131510416665,1.1199196577072144,1.1088222588102024,3.973882039388021,1.6887028675441316e+18,46.299131510416665,1.1189014911651611,1.113250973323981,3.976172765096029,,,,,,,,,,,,1.688702867546775e+18,46.30177495117188,5.604679870605469,50.154198455810544,-5.265519809722901,1.688702867546775e+18,46.30177495117188,-251.8153106689453,144.77739868164062,-138.14791564941407,1.6887028675441352e+18,46.29913500976562,0.5074240118265152,-0.812941700220108,-0.1201643161475658,0.2585333734750747,-2.434528946876526,1.0915446281433103,-0.1484416723251342
1.35,1.688702867587386e+18,46.34238614908855,8.742197672526041,-19.799134890238445,4.16001836458842,1.6887028675960384e+18,46.351038330078126,11.99561889966329,-34.29353586832682,10.439286748568216,1.688702867587386e+18,46.34238614908855,-1.859705130259196,-9.208499272664389,2.758354584376017,1.6887028675960384e+18,46.351038330078126,1.0861184398333232,6.398660510778427,0.929685910542806,1.6887028675960384e+18,46.351038330078126,1.0851002931594849,6.403089344501495,0.9319766362508138,,,,,,,,,,,,1.6887028675967803e+18,46.35178032226562,-6.365959882736206,50.19811935424805,-1.4688799977302551,1.6887028675967803e+18,46.35178032226562,-263.78594970703125,144.82132263183593,-134.3512756347656,1.688702867587386e+18,46.34238614908855,0.5851432085037231,-0.746271034081777,-0.1350886449217796,0.2834374805291493,-2.0784164667129517,1.257124702135722,-0.4541880389054616
1.4,1.68870286763929e+18,46.39429012044271,6.31914758682251,-16.43335247039795,7.090756098429362,1.6887028676479406e+18,46.4029404296875,3.3224343061447144,-20.61297098795573,7.284749110539754,1.68870286763929e+18,46.39429012044271,-2.9564974308013916,-8.85882600148519,2.845365047454834,1.6887028676479406e+18,46.4029404296875,2.3991732597351074,8.31540314356486,-9.013673146565756,1.6887028676479406e+18,46.4029404296875,2.398155132929484,8.31983200709025,-9.011382420857748,1.6887028676306396e+18,46.3856396484375,0.0,0.0,3.469614028930664,7.150000095367432,2.5992584228515625,289.21429443359375,43.400001525878906,-122.7531799,49.1888107,1.688702867646771e+18,46.401770947265625,11.809599901735783,49.36119842529297,4.265119934082032,1.688702867646771e+18,46.401770947265625,-245.6103973388672,143.9843994140625,-128.61727905273438,1.68870286763929e+18,46.39429012044271,0.451332022746404,-0.7193885644276937,-0.3442019919554392,0.3890410860379537,-2.365703821182251,1.1719547510147097,0.3443826735019684
1.45,1.6887028676911877e+18,46.4461875,-1.362308104832967,1.5046432813008626,-0.2965622742970784,1.688702867699842e+18,46.454841878255216,-6.095715522766113,-5.055835088094075,2.6915266116460166,1.6887028676911877e+18,46.4461875,-4.550619443257649,-8.293522516886393,2.5648829142252603,1.688702867699842e+18,46.454841878255216,1.4353297352790833,-3.1722233295440674,0.91619610786438,1.688702867699842e+18,46.454841878255216,1.434362490971883,-3.1677945057551065,0.9184868335723876,,,,,,,,,,,,1.6887028676967826e+18,46.45178247070312,23.467919540405273,46.26483917236328,7.917799949645996,1.6887028676967826e+18,46.45178247070312,-233.9520751953125,140.888037109375,-124.9645980834961,1.6887028676911877e+18,46.4461875,0.3416778047879537,-0.7034360965092977,-0.4824378689130147,0.3937306106090545,-2.6860926946004233,1.0368820428848269,0.9399844805399576
1.5,1.688702867743095e+18,46.49809521484375,2.711653153101603,9.042797724405924,2.374367356300354,1.6887028677517463e+18,46.50674625651042,-0.7838488022486368,0.8073781927426656,3.5224343140920005,1.688702867743095e+18,46.49809521484375,-3.7521955966949463,-8.943737983703613,1.4034255743026731,1.6887028677517463e+18,46.50674625651042,-1.5434019565582275,-6.079738140106201,4.0010654131571455,1.6887028677517463e+18,46.50674625651042,-1.5444709658622742,-6.07530943552653,4.003356138865153,,,,,,,,,,,,1.688702867746778e+18,46.50177788085937,11.880359745025634,48.45595932006836,12.029199600219728,1.688702867746778e+18,46.50177788085937,-245.53963623046872,143.07915344238282,-120.8531967163086,1.688702867743095e+18,46.49809521484375,0.458976944287618,-0.720631996790568,-0.3995973865191142,0.3281323115030923,-2.8485778172810874,1.1841276089350383,0.8129599690437317
1.55,1.688702867794992e+18,46.54999226888021,1.8849327166875205,11.6129732131958,1.3942774136861165,1.688702867794992e+18,46.54999194335937,-0.2294118776917457,2.268994152545929,2.986840844154358,1.688702867794992e+18,46.54999226888021,-2.2251757780710855,-9.409027099609377,1.5815211137135825,1.688702867794992e+18,46.54999194335937,-2.1296290159225464,-4.441982984542847,4.113948464393616,1.688702867794992e+18,46.54999194335937,-2.130697965621948,-4.437554121017456,4.1162391901016235,,,,,,,,,,,,1.6887028677967798e+18,46.551779931640624,-1.402999997138977,50.100518798828126,8.276479721069336,1.6887028677967798e+18,46.551779931640624,-258.822998046875,144.72372131347657,-124.60591735839844,1.688702867794992e+18,46.54999226888021,0.562599778175354,-0.7247852484385172,-0.2632801383733749,0.2948763072490691,-2.5109353065490723,1.330691655476888,0.1876560747623443
1.6,1.6887028678469023e+18,46.60190250651041,0.5738135784243544,10.757308959960938,0.0378424326578775,1.6887028678382502e+18,46.59325016276042,0.3968097468217214,1.4049856662750244,2.6705894470214844,1.6887028678469023e+18,46.60190250651041,-0.0125606516376138,-9.561738014221191,2.0845160484313965,1.6887028678382502e+18,46.59325016276042,-0.816268672545751,-0.7534513473510742,4.988529205322266,1.6887028678382502e+18,46.59325016276042,-0.8171849946180979,-0.7490226229031881,4.990819931030273,,,,,,,,,,,,1.6887028678467784e+18,46.601778320312505,-14.344759750366212,48.39251861572266,5.05079984664917,1.6887028678467784e+18,46.601778320312505,-271.76475219726564,143.01571960449218,-127.83159790039062,1.6887028678469023e+18,46.60190250651041,0.6506931384404501,-0.6698362429936727,-0.1752473364273706,0.3097955187161763,-1.3929048379262288,1.3668980995814006,-1.0446612238883972
1.65,1.6887028678987994e+18,46.65379956054687,-3.5995845794677734,7.961997032165527,-1.2232212622960408,1.6887028678901527e+18,46.64515283203125,-1.8602202832698824,-1.202193985382716,0.2989034454027812,1.6887028678987994e+18,46.65379956054687,1.4320228099822998,-9.518770535786947,1.8831663131713867,1.6887028678901527e+18,46.64515283203125,0.6533203721046448,1.5632041692733765,1.5689055398106575,1.6887028678901527e+18,46.64515283203125,0.6524040922522545,1.5676329731941223,1.571196270485719,,,,,,,,,,,,1.6887028678967782e+18,46.65177817382813,-22.038079071044923,45.120479583740234,6.54651985168457,1.6887028678967782e+18,46.65177817382813,-279.45806884765625,139.7436737060547,-126.33587799072264,1.6887028678987994e+18,46.65379956054687,0.6912715435028076,-0.6108729243278503,-0.1827013889948526,0.3398149907588959,-0.7144503990809122,1.32010817527771,-1.6639421780904131
1.7,1.688702867950708e+18,46.70570808919271,-1.6999255617459614,5.2390205065409345,6.3840077718098955,1.6887028679420557e+18,46.69705550130209,-1.243470162153244,-2.9453653494517007,6.058626810709636,1.688702867950708e+18,46.70570808919271,0.2378474871317545,-9.674758275349935,1.4205066760381062,1.6887028679420557e+18,46.69705550130209,0.6354016661643982,2.60350771745046,-4.072842081387837,1.6887028679420557e+18,46.69705550130209,0.6344344814618429,2.607936382293701,-4.07055135567983,,,,,,,,,,,,1.688702867946778e+18,46.70177797851562,-17.32643985748291,46.4039192199707,10.3943998336792,1.688702867946778e+18,46.70177797851562,-274.746435546875,141.02711486816406,-122.48799896240234,1.688702867950708e+18,46.70570808919271,0.64271346728007,-0.6346072554588318,-0.2543436785538991,0.3424537281195323,-1.1443713704744976,1.4250887632369995,-1.1230981945991516
1.75,1.6887028680026112e+18,46.75761116536458,-3.8242629369099936,-27.070044199625652,22.510807037353516,1.688702867993958e+18,46.74895817057291,-5.343970537185669,-31.948570251464844,24.54457728068034,1.6887028680026112e+18,46.75761116536458,-3.306013027826945,-8.723434448242188,2.7609143257141113,1.688702867993958e+18,46.74895817057291,-3.413158655166626,1.848580072323481,-8.51815923055013,1.688702867993958e+18,46.74895817057291,-3.414125839869181,1.85300878683726,-8.515868504842123,,,,,,,,,,,,1.6887028679967782e+18,46.751778320312496,2.4790400028228765,50.085879516601565,7.700639915466309,1.6887028679967782e+18,46.751778320312496,-254.94095458984376,144.70907592773438,-125.18175811767578,1.6887028680026112e+18,46.75761116536458,0.4625526070594787,-0.743477483590444,-0.3157554765542348,0.3595827718575795,-2.4501299063364663,1.163891355196635,0.3296641161044438
1.8,1.6887028680458609e+18,46.80086083984375,-2.956704616546631,-11.732826948165894,4.137216329574585,1.6887028680458568e+18,46.80085677083333,-8.333403587341309,-19.966908137003585,8.933603207270304,1.6887028680458609e+18,46.80086083984375,-5.341767072677612,-7.2824790477752686,3.818145632743835,1.6887028680458568e+18,46.80085677083333,-3.7420586744944258,-1.6583973169326782,-2.7341310679912567,1.6887028680458568e+18,46.80085677083333,-3.743076801300049,-1.6539685527483623,-2.7318403323491416,,,,,,,,,,,,1.6887028680467814e+18,46.80178139648437,19.39311981201172,48.48523864746094,-0.697840005159378,1.6887028680467814e+18,46.80178139648437,-238.0268737792969,143.10843505859376,-133.58023681640626,1.6887028680458609e+18,46.80086083984375,0.3500194996595382,-0.8205651044845581,-0.2942112386226654,0.3423586040735245,-2.542365074157715,0.8885340392589569,0.3967932015657424
1.85,1.6887028680891092e+18,46.84410913085937,40.67870362599691,-12.25984557469686,-4.110542853673299,1.6887028680977633e+18,46.85276334635417,25.361926873524983,-18.650058428446453,2.3032912810643515,1.6887028680891092e+18,46.84410913085937,-6.490711530049642,-6.0389095942179365,4.047855456670125,1.6887028680977633e+18,46.85276334635417,-6.059630552927653,-7.152213891347249,-1.319774369398753,1.6887028680977633e+18,46.85276334635417,-6.060648759206136,-7.147785027821858,-1.31748362382253,,,,,,,,,,,,1.688702868096781e+18,46.85178115234375,24.22919960021973,45.70119857788086,-8.552199745178223,1.688702868096781e+18,46.85178115234375,-233.1907958984375,140.32439880371095,-141.4345947265625,1.6887028680891092e+18,46.84410913085937,0.3136990467707316,-0.8861021796862284,-0.1660579790671666,0.2843867490688959,-2.5799697240193686,0.717571755250295,0.1532670979698498
1.9,1.6887028681410158e+18,46.8960155436198,15.683995723724363,-10.500205993652342,-3.707641363143921,1.6887028681496604e+18,46.90466040039062,-0.3517446517944336,-12.58245817820231,0.3258226911226908,1.6887028681410158e+18,46.8960155436198,-6.675880114237468,-5.453782876332601,4.626410007476807,1.6887028681496604e+18,46.90466040039062,0.1057305932044982,4.89567772547404,1.9360865155855815,1.6887028681496604e+18,46.90466040039062,0.104763388633728,4.90010650952657,1.938377261161804,1.6887028681496568e+18,46.90465673828125,0.0,0.0,3.747222423553467,7.168000221252441,2.605232954025269,288.2662353515625,43.400001525878906,-122.7531863,49.1888071,1.6887028681467817e+18,46.901781640625,24.3463191986084,43.92731857299805,-14.72295970916748,1.6887028681467817e+18,46.901781640625,-233.07367553710935,138.5505157470703,-147.60535888671876,1.6887028681410158e+18,46.8960155436198,0.3037418524424234,-0.9054588874181112,-0.0796988084912299,0.2825722346703211,-2.5245707035064697,0.6382328470547994,-0.0352060478180646
1.95,1.6887028681929185e+18,46.94791845703125,-0.3275066216786702,2.3562984466552734,-6.8571798006693525,1.6887028682015654e+18,46.95656559244792,-4.575874487559001,-3.162115216255188,-1.5036896069844563,1.6887028681929185e+18,46.94791845703125,-4.894094467163086,-6.5405904452006025,5.400473753611247,1.6887028682015654e+18,46.95656559244792,1.3539828062057495,1.6198110580444336,3.642284075419108,1.6887028682015654e+18,46.95656559244792,1.352964719136556,1.6242397626241047,3.644574801127116,,,,,,,,,,,,1.6887028681967772e+18,46.951777246093755,14.27643985748291,46.799198913574216,-16.23575954437256,1.6887028681967772e+18,46.951777246093755,-243.1435516357422,141.42239685058593,-149.11815795898437,1.6887028681929185e+18,46.94791845703125,0.367384801308314,-0.850125253200531,-0.106221983830134,0.3607618510723114,-2.287837266921997,0.7775196035703024,-0.121400125324726
2.0,1.6887028682448207e+18,46.99982088216146,-1.300862153371175,3.890620549519857,-8.84422779083252,1.688702868244821e+18,46.99982104492187,-4.738386869430542,-3.035594552755356,-3.736392617225647,1.6887028682448207e+18,46.99982088216146,-3.3416759173075357,-7.689468542734782,5.068078994750977,1.688702868244821e+18,46.99982104492187,0.7793113589286804,-0.2000583689659834,4.158846974372864,1.688702868244821e+18,46.99982104492187,0.778395026922226,-0.1956295948475599,4.161137700080872,,,,,,,,,,,,1.6887028682467776e+18,47.00177773437501,2.4839199066162108,49.4319580078125,-13.117439651489258,1.6887028682467776e+18,47.00177773437501,-254.93607177734376,144.05515747070314,-145.9998352050781,1.6887028682448207e+18,46.99982088216146,0.4583784441153208,-0.8007215857505798,-0.1037522579232851,0.3702276448408763,-2.11596949895223,0.9456726908683776,-0.3054262846708298
2.05,1.6887028682967237e+18,47.05172371419271,3.1743057568868003,-9.761710484822592,-6.086828072865804,1.688702868288067e+18,47.04306713867188,-2.025923252105713,-15.05982748667399,-3.1070801417032876,1.6887028682967237e+18,47.05172371419271,-1.7259137630462646,-8.474433263142904,4.605196952819824,1.688702868288067e+18,47.04306713867188,1.23812202612559,0.7537059094756843,3.3707034587860107,1.688702868288067e+18,47.04306713867188,1.2371548612912495,0.7581346733495593,3.3730451265970864,,,,,,,,,,,,1.6887028682967772e+18,47.05177719726562,-7.132119846343994,49.21723937988281,-10.22115993499756,1.6887028682967772e+18,47.05177719726562,-264.5521179199219,143.84043579101564,-143.1035583496094,1.6887028682967237e+18,47.05172371419271,0.5422151883443197,-0.7474570473035177,-0.0958607643842696,0.3707618216673532,-1.8606332937876384,1.079698125521342,-0.5867165128389994
2.1,1.6887028683486308e+18,47.103630777994795,3.40596071879069,-26.841292063395183,11.41161600748698,1.688702868339975e+18,47.09497501627604,6.651847283045451,-35.31387456258138,14.624932289123535,1.6887028683486308e+18,47.103630777994795,-1.935235818227132,-8.753184954325357,3.909751892089844,1.688702868339975e+18,47.09497501627604,2.9898289839426675,10.143264452616371,-7.238753159840901,1.688702868339975e+18,47.09497501627604,2.9888108571370444,10.147693316141764,-7.236462434132894,,,,,,,,,,,,1.6887028683467784e+18,47.1017783203125,-0.6807599782943725,50.1956787109375,-1.378600001335144,1.6887028683467784e+18,47.1017783203125,-258.1007537841797,144.81887512207032,-134.26099548339843,1.6887028683486308e+18,47.103630777994795,0.4562908013661702,-0.7008815010388693,-0.2987451354662577,0.4478373229503631,-2.005579868952433,1.145740230878194,0.010294921696186
2.15,1.6887028684005256e+18,47.15552555338542,15.31513786315918,-3.006155490875244,3.894715944925944,1.6887028683918794e+18,47.146879475911454,13.09851078192393,-15.770296255747477,9.667801062266031,1.6887028684005256e+18,47.15552555338542,-4.71001132329305,-7.685418128967285,3.8525699774424234,1.6887028683918794e+18,47.146879475911454,1.9785925149917605,4.364174127578735,-7.976220369338989,1.6887028683918794e+18,47.146879475911454,1.9776253302892048,4.368602832158406,-7.973929643630981,,,,,,,,,,,,1.6887028683967816e+18,47.151781445312494,25.480920028686523,45.606039428710936,2.4570799350738524,1.6887028683967816e+18,47.151781445312494,-231.93907470703124,140.22923583984374,-130.4253143310547,1.6887028684005256e+18,47.15552555338542,0.2572976599136988,-0.6940656701723734,-0.506579210360845,0.4400637249151866,-2.5063339869181314,0.9342018167177836,0.9309892654418944
2.2,1.688702868452431e+18,47.207431396484374,3.992542028427124,8.030258178710938,-1.0223204294840496,1.688702868443781e+18,47.19878100585938,-1.3483555614948273,-0.5447659293810526,2.3435703913370767,1.688702868452431e+18,47.207431396484374,-4.773263772328694,-7.984638055165608,3.084858258565267,1.688702868443781e+18,47.19878100585938,-0.4380412995815277,-5.184973398844401,3.192839821179708,1.688702868443781e+18,47.19878100585938,-0.4390593866507211,-5.180544535319011,3.1951816082000732,,,,,,,,,,,,1.6887028684467784e+18,47.2017783203125,26.29099922180176,45.34007873535156,5.2411199569702145,1.6887028684467784e+18,47.2017783203125,-231.12899169921872,139.9632781982422,-127.6412796020508,1.688702868452431e+18,47.207431396484374,0.3147290746370951,-0.7131169637044271,-0.4787606100241343,0.4009126921494801,-2.623571793238322,0.9879795710245768,0.8983465830485026
2.25,1.688702868495682e+18,47.25068212890625,4.221373438835144,11.19572925567627,-1.8683831095695496,1.6887028684956836e+18,47.25068383789063,0.1228315706054369,2.4791636864344277,1.0464611053466797,1.688702868495682e+18,47.25068212890625,-3.703789472579956,-8.642131805419922,2.7864538431167603,1.6887028684956836e+18,47.25068383789063,-2.065539002418518,-4.945106824239095,4.787096341451009,1.6887028684956836e+18,47.25068383789063,-2.0665062268575034,-4.940678119659424,4.789438088734944,,,,,,,,,,,,1.6887028684967803e+18,47.25178041992187,13.327279758453368,49.510039520263675,6.905199909210205,1.6887028684967803e+18,47.25178041992187,-244.09271545410155,144.13323669433595,-125.97719879150392,1.688702868495682e+18,47.25068212890625,0.4213899821043014,-0.7332103550434113,-0.3728461116552353,0.3806115239858627,-2.5350773334503174,1.1249899864196775,0.5499756187200546
2.3,1.688702868538932e+18,47.29393180338542,1.2880355914433796,11.252976099650065,-1.9818952878316245,1.6887028685475863e+18,47.30258642578125,-1.235892911752065,1.9276180068651836,1.0189436276753745,1.688702868538932e+18,47.29393180338542,-2.7730448246002197,-8.926198323567709,2.9678624471028647,1.6887028685475863e+18,47.30258642578125,-1.8423186143239336,-5.246670722961426,3.7039814790089927,1.6887028685475863e+18,47.30258642578125,-1.843336780865987,-5.242241859436035,3.706272204717001,,,,,,,,,,,,1.6887028685467794e+18,47.301779296875,0.766160011291504,51.086279296875,2.4985599517822266,1.6887028685467794e+18,47.301779296875,-256.6538330078125,145.70947875976563,-130.383837890625,1.688702868538932e+18,47.29393180338542,0.5021913051605225,-0.7459113200505575,-0.2556261767943699,0.3519176244735718,-2.3080879847208657,1.1955666542053225,0.072628137965997
2.35,1.6887028685908396e+18,47.34583943684896,3.0991729895273843,9.000752449035645,-2.7255740960439048,1.6887028685994885e+18,47.35448803710938,1.323430319627126,-0.61655060450236,0.2879363298416137,1.6887028685908396e+18,47.34583943684896,-2.0224661429723105,-9.106278737386068,3.0305838584899902,1.6887028685994885e+18,47.35448803710938,-0.5303837458292643,-3.4991379976272583,2.394846240679423,1.6887028685994885e+18,47.35448803710938,-0.5313000666598479,-3.4947091738382974,2.3971369663874307,,,,,,,,,,,,1.6887028685967852e+18,47.35178515625,-8.339919662475586,50.383558654785155,-2.1398799419403076,1.6887028685967852e+18,47.35178515625,-265.7599182128906,145.0067596435547,-135.02227783203125,1.6887028685908396e+18,47.34583943684896,0.5776530106862386,-0.7489967544873556,-0.1332650383313496,0.2938950558503468,-2.0743993123372397,1.235874096552531,-0.4441352486610412
2.4,1.6887028686427374e+18,47.39773738606771,1.651233434677124,2.113298257191976,3.152812441190084,1.6887028686513838e+18,47.40638378906251,-0.6123631596565247,-10.683155536651611,9.4446702003479,1.6887028686427374e+18,47.39773738606771,-1.4995520114898682,-9.254720052083334,2.8853999773661294,1.6887028686513838e+18,47.40638378906251,1.0810787479082744,4.001778244972229,-0.7400632599989573,1.6887028686513838e+18,47.40638378906251,1.080111563205719,4.00620698928833,-0.737772524356842,1.688702868668682e+18,47.42368188476563,0.0,0.0,3.747222423553467,7.165999889373779,2.5771548748016357,286.9358825683594,43.400001525878906,-122.7532099,49.1888053,1.688702868646781e+18,47.40178100585938,-11.248399925231933,49.79552001953125,-2.7767199516296386,1.688702868646781e+18,47.40178100585938,-268.66838989257815,144.41871948242186,-135.65912170410155,1.6887028686427374e+18,47.39773738606771,0.6063528060913086,-0.7343407869338989,-0.1145169561107952,0.2816979388395945,-1.9369521538416543,1.2719029188156128,-0.6299711465835571
2.45,1.688702868694644e+18,47.44964379882813,-7.681010564168294,-21.95132827758789,21.144983927408855,1.688702868694634e+18,47.449633911132814,-10.695319175720217,-33.96581840515137,26.79961395263672,1.688702868694644e+18,47.44964379882813,-2.0959267218907676,-9.127492904663086,2.8551520506540933,1.688702868694634e+18,47.449633911132814,0.9259189367294312,7.906734228134155,-5.955478191375732,1.688702868694634e+18,47.449633911132814,0.924926370382309,7.911163091659547,-5.9531872272491455,,,,,,,,,,,,1.6887028686967818e+18,47.45178178710937,-4.760440015792847,50.615359497070315,3.1109999120235443,1.6887028686967818e+18,47.45178178710937,-262.18043518066406,145.23855895996093,-129.77139434814453,1.688702868694644e+18,47.44964379882813,0.5234476228555044,-0.7196887334187826,-0.2630278915166855,0.3665437499682109,-2.160226027170817,1.2499256531397502,-0.0433959428143377
2.5,1.688702868746547e+18,47.50154671223959,-1.9328607718149824,-6.045380751291911,2.203089475631714,1.6887028687378916e+18,47.49289176432291,-7.823732376098633,-17.47797425587972,8.612965106964111,1.688702868746547e+18,47.50154671223959,-4.239688078562419,-7.817280769348144,4.076000452041626,1.6887028687378916e+18,47.49289176432291,-3.511049826939901,-0.3817907571792602,-4.636365254720052,1.6887028687378916e+18,47.49289176432291,-3.5121188163757324,-0.3773619333902995,-4.634074529012044,,,,,,,,,,,,1.688702868746777e+18,47.50177724609375,10.584719848632812,50.20543899536133,-0.6758799314498901,1.688702868746777e+18,47.50177724609375,-246.83527526855468,144.82864074707032,-133.5582763671875,1.688702868746547e+18,47.50154671223959,0.3825769821802775,-0.7848414381345113,-0.2942341069380442,0.386664221684138,-2.3867714405059814,0.978025237719218,0.3008626302083333
2.55,1.6887028687984456e+18,47.5534453938802,25.37583231925964,-7.132445176442464,10.183976968129477,1.688702868789799e+18,47.5447989095052,-4.8179482618967695,-12.280564149220783,8.165706872940063,1.6887028687984456e+18,47.5534453938802,-6.746774514516194,-6.177673816680908,2.7381870752821365,1.688702868789799e+18,47.5447989095052,-4.7623054186503095,-14.218754053115845,-2.925739129384359,1.688702868789799e+18,47.5447989095052,-4.763323624928792,-14.214325269063314,-2.923448403676351,,,,,,,,,,,,1.6887028687967803e+18,47.55178041992187,21.047439575195312,47.26523895263672,-5.770599746704102,1.6887028687967803e+18,47.55178041992187,-236.37255249023437,141.8884307861328,-138.6529998779297,1.6887028687984456e+18,47.5534453938802,0.3259050150712331,-0.8936524589856466,-0.1526934355497359,0.209269277130564,-2.7507786750793457,0.7341956496238708,0.1825341532627741
2.6,1.688702868850352e+18,47.60535180664062,40.06472889582316,-5.47335418065389,9.041098594665527,1.6887028688417034e+18,47.596703694661464,51.34498864412308,-14.38684622446696,13.854841709136965,1.688702868850352e+18,47.60535180664062,-6.3618855476379395,-7.400872707366943,-0.1023858686288197,1.6887028688417034e+18,47.596703694661464,-3.0629800160725913,-2.3357959191004434,5.024671991666158,1.6887028688417034e+18,47.596703694661464,-3.0640490849812827,-2.331367095311483,5.026962757110596,,,,,,,,,,,,1.688702868846781e+18,47.60178056640625,17.47527961730957,48.736559295654295,0.0951600074768066,1.688702868846781e+18,47.60178056640625,-239.94471435546876,143.35975646972656,-132.78723754882813,1.688702868850352e+18,47.60535180664062,-0.132644921541214,0.3057909806569417,-0.0185824170087774,0.0522258641819158,1.051164706548055,0.9042688409487406,-0.0365469381213187
2.65,1.6887028689022546e+18,47.65725455729167,-2.906226476033529,2.8525285720825195,0.4805467526117961,1.688702868893603e+18,47.648603352864576,-7.744968414306641,-6.226523240407308,3.971487363179525,1.6887028689022546e+18,47.65725455729167,-4.838606198628743,-8.10003137588501,2.5907653172810874,1.688702868893603e+18,47.648603352864576,0.2330451110998789,8.16446844736735,2.3265820344289145,1.688702868893603e+18,47.648603352864576,0.2320778866608936,8.16889731089274,2.3288728396097818,,,,,,,,,,,,1.6887028688967823e+18,47.65178227539063,8.642479801177979,50.715399169921874,-5.238679981231689,1.6887028688967823e+18,47.65178227539063,-248.7775146484375,145.33859558105468,-138.12107543945314,1.6887028689022546e+18,47.65725455729167,0.4849087099234263,-0.8487260341644287,-0.070118357737859,0.1921392182509104,-2.619600534439087,1.0199554761250813,-0.1341708600521087
2.7,1.6887028689455048e+18,47.700504882812496,-7.969855070114136,-0.4549157619476318,-1.290359914302826,1.6887028689455104e+18,47.70051025390625,-10.11047331492106,-9.528419017791748,1.7224334875742595,1.6887028689455048e+18,47.700504882812496,-2.9239323139190674,-8.936756610870361,2.7480121850967407,1.6887028689455104e+18,47.70051025390625,2.267989913622538,1.9366973058786243,5.12933365503947,1.6887028689455104e+18,47.70051025390625,2.2670227686564126,1.9411260994772117,5.1316243807474775,,,,,,,,,,,,1.6887028689467804e+18,47.701780371093754,-3.001199901103973,50.97159957885742,-1.8690399289131163,1.6887028689467804e+18,47.701780371093754,-260.42119750976565,145.5947998046875,-134.75143737792968,1.6887028689455048e+18,47.700504882812496,0.5537945032119751,-0.7819670140743256,-0.1243949383497237,0.2562382221221924,-2.3330209255218506,1.1952544450759888,-0.2534013763070106
2.75,1.6887028689887562e+18,47.74375626627605,-2.0088734229405723,-17.184582074483234,7.196792364120483,1.688702868997406e+18,47.75240616861979,-0.196211556593577,-30.250462849934895,12.143575032552084,1.6887028689887562e+18,47.74375626627605,-0.4504134654998779,-9.540496826171877,2.103037118911743,1.688702868997406e+18,47.75240616861979,-0.0262672106424967,1.1911363104979198,4.461149017016093,1.688702868997406e+18,47.75240616861979,-0.02728533744812,1.195565104484558,4.463439742724101,,,,,,,,,,,,1.6887028689967782e+18,47.75177817382813,-18.02915954589844,47.64587936401367,2.044719934463501,1.6887028689967782e+18,47.75177817382813,-275.44915771484375,142.26907958984376,-130.83767700195312,1.6887028689887562e+18,47.74375626627605,0.657760500907898,-0.6951854825019836,-0.1250339299440383,0.2586338222026824,-1.5622321367263794,1.3600021998087566,-1.0267068942387898
2.8,1.6887028690406543e+18,47.795654459635415,24.91074879964193,-11.873039563496908,7.993188699086507,1.688702869049312e+18,47.80431201171874,19.281166076660156,-17.818154017130535,8.768099625905355,1.6887028690406543e+18,47.795654459635415,-1.0091068347295125,-9.447053909301758,2.2155141830444336,1.688702869049312e+18,47.80431201171874,1.777821456392606,5.913888255755107,-7.759210427602132,1.688702869049312e+18,47.80431201171874,1.7768542965253191,5.9183171192804975,-7.756919701894124,,,,,,,,,,,,1.6887028690467794e+18,47.80177924804688,-11.67783989906311,48.98543930053711,3.6355999231338503,1.6887028690467794e+18,47.80177924804688,-269.09783325195315,143.60863647460937,-129.24679870605468,1.6887028690406543e+18,47.795654459635415,0.6207660635312399,-0.7066740194956461,-0.166717621187369,0.2864547371864319,-1.8239754835764568,1.3323322931925456,-0.6595079209655522
2.85,1.6887028690925668e+18,47.84756673177083,-4.701890071233113,1.1855529149373372,3.506890296936035,1.6887028691012147e+18,47.856214762369795,-8.91565720240275,-5.958726644515991,4.4755752881368,1.6887028690925668e+18,47.84756673177083,-2.9376580715179443,-9.205938339233398,1.6421894232432048,1.6887028691012147e+18,47.856214762369795,3.2551990350087485,2.360688805580139,-1.7607681900262837,1.6887028691012147e+18,47.856214762369795,3.254282712936402,2.365117390950521,-1.7584264775117238,,,,,,,,,,,,1.6887028690967803e+18,47.85178046875,6.1805198192596436,49.01715927124023,12.997879791259766,1.6887028690967803e+18,47.85178046875,-251.23947448730468,143.6403564453125,-119.88451690673828,1.6887028690925668e+18,47.84756673177083,0.4930720130602519,-0.7067101995150248,-0.3679290513197581,0.3472286959489186,-2.697099447250366,1.261598030726115,0.6305848856767019
2.9,1.6887028691444672e+18,47.89946704101562,-0.0283993085225423,8.969810485839844,2.165638248125712,1.688702869144467e+18,47.899466918945315,-2.4003002643585205,-0.5371886566281319,2.844168782234192,1.6887028691444672e+18,47.89946704101562,-2.944746176401774,-9.33635393778483,0.5774582823117574,1.688702869144467e+18,47.899466918945315,0.4928155317902565,-3.477197766304016,1.5456417798995972,1.688702869144467e+18,47.899466918945315,0.4917465187609195,-3.4727689027786255,1.547932505607605,,,,,,,,,,,,1.688702869146778e+18,47.901778271484375,4.853159856796265,47.71175918579102,17.836399841308594,1.688702869146778e+18,47.901778271484375,-252.56683349609375,142.3349578857422,-115.0459991455078,1.6887028691444672e+18,47.89946704101562,0.5235780080159506,-0.697584331035614,-0.384141206741333,0.301596979300181,-3.075007677078247,1.2974469264348347,0.9568193753560384
2.95,1.6887028691963717e+18,47.95137150065104,0.6864672899246216,11.513412475585938,0.2599497338136037,1.6887028691877158e+18,47.94271557617188,-1.01096756507953,1.669193168481191,0.886341373125712,1.6887028691963717e+18,47.95137150065104,-2.092912197113037,-9.572278022766112,0.3888287941614787,1.6887028691877158e+18,47.94271557617188,-0.5710062781969706,-2.9833131631215415,2.120975057284037,1.6887028691877158e+18,47.94271557617188,-0.572024385134379,-2.978884299596151,2.123265782992045,1.6887028691877164e+18,47.94271630859375,0.0,0.0,3.785223960876465,7.302000045776367,2.527681827545166,284.6192626953125,43.400001525878906,-122.7532247,49.1887992,1.688702869196784e+18,47.95178383789062,-2.932879936695099,47.92159881591797,17.450879669189455,1.688702869196784e+18,47.95178383789062,-260.3528747558594,142.5447967529297,-115.4315170288086,1.6887028691963717e+18,47.95137150065104,0.5834934512774149,-0.6958597699801127,-0.3191515405972798,0.2696897089481353,-3.1171480814615884,1.3967714707056682,0.8383279840151469
3.0,1.688702869248269e+18,48.003269124348954,-0.405053714911143,11.555763244628906,0.3078289131323496,1.688702869239622e+18,47.994621988932295,-1.7180466254552205,1.9473588466644287,0.8693922559420267,1.688702869248269e+18,48.003269124348954,-0.9660970171292624,-9.74224599202474,0.5271909733613332,1.688702869239622e+18,47.994621988932295,-0.8442666530609131,-4.40164049466451,2.7137688795725503,1.688702869239622e+18,47.994621988932295,-0.8452338576316833,-4.3972117106119795,2.716059605280558,,,,,,,,,,,,1.6887028692467786e+18,48.001778613281246,-11.899879741668702,47.509239959716794,14.020239639282227,1.6887028692467786e+18,48.001778613281246,-269.319873046875,142.13243713378907,-118.862158203125,1.688702869248269e+18,48.003269124348954,0.649559756120046,-0.6872381567955017,-0.2255646884441375,0.2310367673635482,-2.442782481511434,1.5087215105692546,-0.040507639447848
3.05,1.688702869300175e+18,48.055175048828126,1.5916602214177449,9.53111171722412,0.0435454845428466,1.6887028692915228e+18,48.04652286783854,1.2660025705893834,0.0229312280813852,0.8648059765497843,1.688702869300175e+18,48.055175048828126,-0.0752722459534804,-9.771034876505531,0.8572770357131958,1.6887028692915228e+18,48.04652286783854,-0.7514151533444723,-4.767395973205566,1.6267340977986653,1.6887028692915228e+18,48.04652286783854,-0.7523823579152426,-4.7629672686258955,1.6290249228477478,,,,,,,,,,,,1.6887028692967803e+18,48.05178041992187,-20.049479675292968,45.65483932495117,7.510319900512696,1.6887028692967803e+18,48.05178041992187,-277.4694763183594,140.27803955078124,-125.37207489013672,1.688702869300175e+18,48.055175048828126,0.7027832667032877,-0.6795036395390829,-0.1158022731542586,0.1727308134237924,-0.9880487521489462,1.4836451609929402,-1.742007811864217
3.1,1.688702869352074e+18,48.10707373046875,1.5255658626556396,3.9755897521972656,2.1920566956202188,1.688702869343427e+18,48.09842700195313,1.446461300055186,-2.7551358540852866,2.008575161298116,1.688702869352074e+18,48.10707373046875,-0.2847512885928154,-9.726981163024902,1.2102625370025637,1.688702869343427e+18,48.09842700195313,-0.5782857537269592,-2.114968180656433,-0.8541932615141073,1.688702869343427e+18,48.09842700195313,-0.5792529582977295,-2.110539436340332,-0.8519024699926376,,,,,,,,,,,,1.6887028693467786e+18,48.101778710937495,-21.9648796081543,45.954959869384766,1.890999925136566,1.6887028693467786e+18,48.101778710937495,-279.38486938476564,140.57815551757812,-130.99139709472655,1.688702869352074e+18,48.10707373046875,0.7034911712010702,-0.6959462563196818,-0.0497241479655106,0.1343238602081934,-1.3388659556706746,1.4475531578063965,-1.541199247042338
3.15,1.6887028693953295e+18,48.15032971191407,-2.506891131401062,-37.1118221282959,26.84195613861084,1.6887028693953298e+18,48.15032983398438,-4.845864474773408,-40.03371810913086,24.457040786743164,1.6887028693953295e+18,48.15032971191407,-2.100651979446411,-9.346466541290283,1.9958696365356443,1.6887028693953298e+18,48.15032983398438,-1.2336932818094888,5.407989978790283,-7.59529463450114,1.6887028693953298e+18,48.15032983398438,-1.2347113887468972,5.412418762842814,-7.593003908793132,,,,,,,,,,,,1.6887028693967772e+18,48.151777099609376,-13.068639755249023,48.95615921020508,-0.961359977722168,1.6887028693967772e+18,48.151777099609376,-270.48862915039064,143.57935485839843,-133.84375610351563,1.6887028693953295e+18,48.15032971191407,0.6163969933986664,-0.7572936713695526,-0.0836020130664109,0.1925603002309799,-2.242017388343811,1.3141669631004331,-0.5025325566530228
3.2,1.6887028694385797e+18,48.19357934570312,-2.9950108528137207,-10.302645047505695,6.805336157480876,1.6887028694472348e+18,48.202234863281255,-6.3647087415059405,-13.450255711873371,6.574678897857666,1.6887028694385797e+18,48.19357934570312,-4.575943390528361,-8.037585894266764,3.159498453140259,1.6887028694472348e+18,48.202234863281255,-1.3480778336524963,4.394309997558594,-6.258975982666016,1.6887028694472348e+18,48.202234863281255,-1.3490958611170452,4.398738781611125,-6.256685256958008,,,,,,,,,,,,1.6887028694467804e+18,48.201780468749995,7.920239734649658,50.35671844482422,-2.0178800225257874,1.6887028694467804e+18,48.201780468749995,-249.49974975585937,144.97991333007812,-134.90027770996093,1.6887028694385797e+18,48.19357934570312,0.4525679250558217,-0.8243086338043213,-0.1838743487993875,0.2802979648113251,-2.5323856671651206,1.0197697679201765,0.0890471618622541
3.25,1.6887028694904842e+18,48.24548429361979,14.79276418685913,0.3207004865010579,-5.78989839553833,1.6887028694991347e+18,48.2541346842448,20.243081251780193,-8.671389738718668,1.093121071656545,1.6887028694904842e+18,48.24548429361979,-6.505487442016602,-6.2417826652526855,3.5387752453486123,1.6887028694991347e+18,48.2541346842448,-3.457242727279663,-11.540873765945436,-1.0953323046366374,1.6887028694991347e+18,48.2541346842448,-3.4581590493520102,-11.536444981892904,-1.0930415789286296,,,,,,,,,,,,1.6887028694967828e+18,48.25178271484375,22.745679473876955,46.61131896972656,-5.4216797828674315,1.6887028694967828e+18,48.25178271484375,-234.67431640625,141.2345184326172,-138.3040771484375,1.6887028694904842e+18,48.24548429361979,0.3292224407196045,-0.886674682299296,-0.1657415131727854,0.2583967000246047,-2.6376117865244546,0.7451898058255514,0.1645129571358362
