seconds_elapsed_rounded,accelerometer_time,accelerometer_seconds_elapsed,accelerometer_z,accelerometer_y,accelerometer_x,accelerometeruncalibrated_time,accelerometeruncalibrated_seconds_elapsed,accelerometeruncalibrated_z,accelerometeruncalibrated_y,accelerometeruncalibrated_x,gravity_time,gravity_seconds_elapsed,gravity_z,gravity_y,gravity_x,gyroscope_time,gyroscope_seconds_elapsed,gyroscope_z,gyroscope_y,gyroscope_x,gyroscopeuncalibrated_time,gyroscopeuncalibrated_seconds_elapsed,gyroscopeuncalibrated_z,gyroscopeuncalibrated_y,gyroscopeuncalibrated_x,location_time,location_seconds_elapsed,location_bearingAccuracy,location_speedAccuracy,location_verticalAccuracy,location_horizontalAccuracy,location_speed,location_bearing,location_altitude,location_longitude,location_latitude,magnetometer_time,magnetometer_seconds_elapsed,magnetometer_z,magnetometer_y,magnetometer_x,magnetometeruncalibrated_time,magnetometeruncalibrated_seconds_elapsed,magnetometeruncalibrated_z,magnetometeruncalibrated_y,magnetometeruncalibrated_x,orientation_time,orientation_seconds_elapsed,orientation_qz,orientation_qy,orientation_qx,orientation_qw,orientation_roll,orientation_pitch,orientation_yaw
0.0,,,,,,,,,,,,,,,,1.6888760904927176e+18,0.065717529296875,0.9666942358016968,1.5995506048202517,0.418595403432846,,,,,,,,,,,,,,,,,,,,,,,,,,,,,,,,,,,
0.05,,,,,,1.6888760905273262e+18,0.1003262939453125,10.055837154388428,1.291825145483017,-1.3911272883415222,,,,,,1.688876090527319e+18,0.100319091796875,0.4945972363154093,1.4268794059753418,-0.1066977977752685,1.6888760905316488e+18,0.1046488444010416,0.3730350445645551,1.4315627018610635,-0.1411098743168015,,,,,,,,,,,,1.6888760905264358e+18,0.099435888671875,-45.92811889648438,-2.698639965057373,24.61227951049805,1.6888760905314363e+18,0.1044365844726562,-301.28509521484375,92.05814743041992,-108.11334609985352,,,,,,,,,
0.1,1.688876090570576e+18,0.1435763346354166,-1.3266040484110515,0.4936211109161377,-4.4938234488169355,1.688876090570576e+18,0.1435763346354166,7.907282034556071,3.572683493296305,-5.765506188074748,1.688876090570576e+18,0.1435763346354166,9.211084683736166,3.0948075453440347,-1.336396098136902,1.6888760905792315e+18,0.1522315266927083,-0.294131625443697,1.1835004885991414,0.2472986131906509,1.6888760905835548e+18,0.1565546061197916,-0.2511674322692367,1.1591167847315471,0.2855285952488581,,,,,,,,,,,,1.6888760905764416e+18,0.1494416015625,-44.13471908569336,-2.6717999935150147,27.679359436035156,1.6888760905764416e+18,0.1494416015625,-299.7613159179688,92.18319702148438,-105.44703674316406,1.688876090570576e+18,0.1435763346354166,0.5352777043978373,0.1529199828704198,0.0854678476850191,0.8262651364008585,0.1701148202021916,-0.3098546365896861,-1.1230382521947224
0.15,1.6888760906224845e+18,0.1954844563802083,-1.6177770296732583,-1.2972047328948977,-0.6586282253265381,1.6888760906224845e+18,0.1954844563802083,7.405985355377197,2.0562322537104287,-2.5435704390207925,1.6888760906224845e+18,0.1954844563802083,9.000960985819498,3.3691821893056235,-1.9496557315190632,1.6888760906311268e+18,0.2041267903645833,0.4521930093566577,1.6202182372411091,1.128980815410614,1.68887609062681e+18,0.1998099365234375,0.2341904677450657,1.486693263053894,1.1659127175807953,,,,,,,,,,,,1.6888760906264417e+18,0.19944169921875,-42.22907943725586,-3.747840023040771,30.324319458007817,1.6888760906264417e+18,0.19944169921875,-297.8556823730469,91.10715789794922,-102.80207824707033,1.6888760906224845e+18,0.1954844563802083,0.5345848997433981,0.1886005947987238,0.0799888397256533,0.8197956482569376,0.2396297653516133,-0.3393250405788421,-1.1142702500025432
0.2,1.6888760906743862e+18,0.247386474609375,-5.506305694580078,-1.521544297536214,0.9130441745122274,1.6888760906743862e+18,0.247386474609375,3.1824541091918945,2.3503500620524087,-1.4749757846196492,1.6888760906743862e+18,0.247386474609375,8.665958404541016,3.8876395225524902,-2.452733357747396,1.688876090683037e+18,0.2560367838541666,1.3330097595850627,0.6487898031870524,-0.5293656488259634,1.6888760906700623e+18,0.2430623372395833,1.2310970624287922,1.293761670589447,0.4208861589431762,,,,,,,,,,,,1.6888760906764378e+18,0.24943779296875,-39.63291854858399,-7.232159900665283,33.45239944458008,1.6888760906764378e+18,0.24943779296875,-295.2595153808594,87.62283782958984,-99.6739990234375,1.6888760906743862e+18,0.247386474609375,0.5524481137593588,0.2302655378977457,0.0830014968911806,0.7967194517453512,0.3030495047569274,-0.3971202472845713,-1.1511337757110596
0.25,1.6888760907262892e+18,0.2992888997395833,-4.775363286336263,-5.308191696802775,5.339440027872722,1.6888760907262892e+18,0.2992888997395833,4.450251340866089,-2.554537574450175,3.6007993618647256,1.6888760907262892e+18,0.2992888997395833,9.202813148498535,2.769399404525757,-1.8033541440963743,1.6888760907262843e+18,0.2992845458984374,1.414229393005371,-2.287461280822754,-4.922352075576782,1.6888760907219653e+18,0.2949652506510417,1.364876568317413,-1.841860552628835,-4.408003568649292,,,,,,,,,,,,1.6888760907264422e+18,0.29944228515625,-41.19451904296875,-4.653080022335052,31.5052791595459,1.6888760907264422e+18,0.29944228515625,-296.82111206054685,90.20192108154296,-101.6211181640625,1.6888760907262892e+18,0.2992888997395833,0.5942066311836243,0.1695555001497268,0.0475154841939607,0.7837023536364237,0.2215502758820851,-0.2793874939282735,-1.264470100402832
0.3,1.6888760907781916e+18,0.351191650390625,-1.3392634391784668,-5.390480597813924,2.1986035903294883,1.6888760907781916e+18,0.351191650390625,8.41974433263143,-5.033900737762451,1.2368899285793304,1.6888760907781916e+18,0.351191650390625,9.73620637257894,0.3723249236742655,-1.026427149772644,1.6888760907695337e+18,0.34253369140625,-1.2451979021231334,-1.0112873961528142,-4.409734487533569,1.6888760907738642e+18,0.3468639322916667,-1.4928528865178423,-0.7722864051659902,-4.136372248331706,,,,,,,,,,,,1.6888760907764383e+18,0.349438232421875,-43.336839294433595,7.193119859695434,27.271879196166992,1.6888760907764383e+18,0.349438232421875,-298.963427734375,102.04811706542968,-105.8545166015625,1.6888760907781916e+18,0.351191650390625,0.5982378125190735,0.061937669912974,-0.0270732726591328,0.7979688048362732,0.1312426428000132,-0.0309487854441006,-1.2845227718353271
0.35,1.6888760908300905e+18,0.403090576171875,-5.468406995137532,-6.82910172144572,-3.8204667568206783,1.6888760908300905e+18,0.403090576171875,4.200002034505208,-7.97268549601237,-5.072983264923096,1.6888760908300905e+18,0.403090576171875,9.645607630411783,-1.1278386513392131,-1.3172300656636555,1.6888760908214413e+18,0.3944413248697917,-2.804736773173014,1.051757236321767,-2.4376577536265054,1.6888760908257708e+18,0.3987705891927083,-2.811303695042928,1.098742922147115,-2.5072454611460366,,,,,,,,,,,,1.6888760908264417e+18,0.399441748046875,-41.65323944091797,16.296760177612306,26.566719436645503,1.6888760908264417e+18,0.399441748046875,-297.279833984375,111.1517578125,-106.55967712402344,1.6888760908300905e+18,0.403090576171875,0.5452271898587545,0.0327831916511058,-0.0964843407273291,0.8315771619478861,0.161132663488388,0.125356209774812,-1.1710213820139568
0.4,1.688876090881997e+18,0.454997314453125,-4.7776780128479,-6.687364419301351,-8.855234464009603,1.688876090881997e+18,0.454997314453125,4.358127673467,-9.969895044962565,-10.197412490844728,1.688876090881997e+18,0.454997314453125,9.113004366556805,-3.2667853832244873,-1.4068915446599324,1.6888760908733422e+18,0.4463424479166666,-1.8777488470077517,0.2429716388384501,-4.677089691162109,1.6888760908776732e+18,0.4506731770833334,-1.7299195130666096,-0.0144571363925933,-4.79681936899821,,,,,,,,,,,,1.6888760908764362e+18,0.449436279296875,-36.06075897216797,26.45691909790039,25.998199462890625,1.6888760908764362e+18,0.449436279296875,-291.6873474121094,121.3119171142578,-107.1281967163086,1.688876090881997e+18,0.454997314453125,0.4965909123420715,-0.0156565411016345,-0.1948174138863881,0.8448589245478312,0.1787798504034677,0.3524531622727712,-1.094290057818095
0.45,1.6888760909338924e+18,0.5068924967447916,7.507638931274414,-2.6264575322469077,-12.539891242980955,1.6888760909338924e+18,0.5068924967447916,15.62273915608724,-8.112665812174479,-13.112667719523111,1.6888760909338924e+18,0.5068924967447916,8.092298030853271,-5.470463116963704,-0.6374901930491129,1.6888760909252485e+18,0.4982486979166666,-0.5006040732065836,-1.4567100008328755,-4.679533163706462,1.6888760909295706e+18,0.502570556640625,-0.5180137356122335,-1.1319333513577778,-4.642117818196614,,,,,,,,,,,,1.6888760909264415e+18,0.4994416992187499,-29.314159774780272,35.802119445800784,22.745679473876955,1.6888760909264415e+18,0.4994416992187499,-284.9407470703125,130.65711517333983,-110.38071899414062,1.6888760909338924e+18,0.5068924967447916,0.4811990161736806,-0.1105212196707725,-0.2808096607526143,0.822360118230184,0.1076955844958622,0.6051063537597656,-1.0922699371973674
0.5,1.6888760909771464e+18,0.5501463623046875,8.408894538879395,-2.2772600650787354,-13.154412746429443,1.6888760909771464e+18,0.5501463623046875,15.255739688873293,-9.257232666015623,-14.082957744598389,1.6888760909771464e+18,0.5501463623046875,6.82404351234436,-6.9642274379730225,-0.9932584166526794,1.6888760909771525e+18,0.5501525065104166,-0.91884313027064,3.084258635838826,-4.372166156768799,1.6888760909814792e+18,0.5544791666666667,-0.8367326756318411,3.1445815563201904,-4.322584311167399,,,,,,,,,,,,1.6888760909764393e+18,0.549439306640625,-18.65867977142334,42.04119873046875,22.362599563598632,1.6888760909764393e+18,0.549439306640625,-274.2852722167969,136.8961975097656,-110.76379699707032,1.6888760909771464e+18,0.5501463623046875,0.437679648399353,-0.1276868358254432,-0.3765974342823028,0.8060370981693268,0.1798383444547652,0.8028348088264465,-1.0719618797302246
0.55,1.6888760910204006e+18,0.5934007161458333,6.898985068003337,-1.531475067138672,-12.303379694620768,1.6888760910204006e+18,0.5934007161458333,12.307283719380695,-9.554141998291016,-13.914064407348633,1.6888760910204006e+18,0.5934007161458333,5.385497252146403,-8.006921768188477,-1.6753983894983928,1.6888760910290522e+18,0.60205224609375,0.7536549816528956,2.0449731747309365,-3.4674747784932456,1.688876091033381e+18,0.6063810221354167,0.8803077141443888,2.048332969347636,-3.374216079711914,,,,,,,,,,,,1.6888760910264428e+18,0.599442626953125,-7.156519794464112,44.73739929199219,23.794879531860353,1.6888760910264428e+18,0.599442626953125,-262.7831115722656,139.59239807128907,-109.3315185546875,1.6888760910204006e+18,0.5934007161458333,0.4020171860853831,-0.1188322752714156,-0.4679641326268514,0.7774525284767151,0.348757932583491,0.9673661589622498,-1.141108234723409
0.6,1.688876091072307e+18,0.645306884765625,7.445963064829509,2.7126173973083496,-7.768843015034993,1.688876091072307e+18,0.645306884765625,11.327422777811686,-5.871587912241618,-10.472586949666342,1.688876091072307e+18,0.645306884765625,3.858658393224081,-8.5684601465861,-2.7684573332468667,1.688876091080955e+18,0.653954833984375,1.7671822706858318,2.5388577779134116,-2.032297730445862,1.688876091076628e+18,0.649628173828125,1.7544813752174375,2.5286766290664673,-2.265164613723755,,,,,,,,,,,,1.6888760910764406e+18,0.649440625,3.4818800032138824,43.63207931518555,27.227959442138673,1.6888760910764406e+18,0.649440625,-252.14471435546875,138.48707885742186,-105.8984375,1.688876091072307e+18,0.645306884765625,0.3890354732672373,-0.0877742593487103,-0.5520738760630289,0.7317344943682352,0.6790715456008911,1.0672359863917034,-1.390327215194702
0.65,1.6888760911242068e+18,0.697206787109375,6.753979523976644,6.808395067850749,0.715835968653361,1.6888760911242068e+18,0.697206787109375,9.689934730529783,-1.7152550245324771,-3.1306097904841104,1.6888760911242068e+18,0.697206787109375,2.9131537278493247,-8.507905006408691,-3.91115927696228,1.6888760911328596e+18,0.7058598632812499,0.1031343874831993,3.4730743567148843,0.2120211323102315,1.6888760911198853e+18,0.6928853352864582,0.9618582328160604,3.111696640650431,-0.2075414558251699,,,,,,,,,,,,1.6888760911264394e+18,0.699439599609375,9.862479877471923,41.13839950561523,29.907079696655273,1.6888760911264394e+18,0.699439599609375,-245.7641174316406,135.99339599609374,-103.21931915283204,1.6888760911242068e+18,0.697206787109375,0.3724641998608907,-0.023739889768573,-0.6012800335884094,0.7060970664024353,0.9841307202974956,1.049738883972168,-1.572602351506551
0.7,1.688876091176111e+18,0.7491111653645833,-0.3876158396402995,0.0257927576700846,-1.1120727062225342,1.688876091176111e+18,0.7491111653645833,2.035693864027659,-8.566903114318848,-5.158128023147583,1.688876091176111e+18,0.7491111653645833,2.400508244832357,-8.576950709025065,-4.110768795013428,1.688876091176107e+18,0.7491070556640624,-0.4088215790688991,2.2612704038619995,0.2101376429200172,1.688876091171788e+18,0.744788330078125,-0.5976807375748953,2.6623034477233887,0.3177517304817835,,,,,,,,,,,,1.6888760911764403e+18,0.7494404296875,14.13003978729248,41.97531967163086,27.07911949157715,1.6888760911764403e+18,0.7494404296875,-241.4965576171875,136.8303192138672,-106.04727935791016,1.688876091176111e+18,0.7491111653645833,0.3114946782588958,0.0295143251617748,-0.623540977636973,0.716306229432424,1.0977593262990315,1.0656458139419556,-1.5126226743062336
0.75,1.6888760912280146e+18,0.8010148111979166,-0.8184109528859457,0.7858072916666666,-3.513343334197998,1.6888760912280146e+18,0.8010148111979166,1.420339624087016,-7.549953778584798,-8.14217742284139,1.6888760912280146e+18,0.8010148111979166,2.215949058532715,-8.320015907287598,-4.6935475667317705,1.688876091219361e+18,0.792361328125,1.438587665557861,1.0686578551928203,0.2032654086748759,1.688876091223688e+18,0.7966878255208334,1.5543975432713826,1.0358747641245525,0.1873829116423924,,,,,,,,,,,,1.6888760912264394e+18,0.7994395507812501,15.525719833374025,41.59224014282226,27.51343994140625,1.6888760912264394e+18,0.7994395507812501,-240.1008758544922,136.44723815917968,-105.6129592895508,1.6888760912280146e+18,0.8010148111979166,0.307864636182785,0.0716768490771452,-0.6278839508692423,0.7110862533251444,1.1795186599095662,1.013964315255483,-1.5286811987559
0.8,1.6888760912799163e+18,0.85291650390625,-2.7381162643432617,3.3824822902679443,-2.521470546722412,1.6888760912799163e+18,0.85291650390625,-0.690329315761725,-4.38504687945048,-8.108677546183268,1.6888760912799163e+18,0.85291650390625,2.024985432624817,-7.751784006754558,-5.651920477549235,1.6888760912712635e+18,0.8442635091145833,2.1939734617869058,0.6624324520428976,-0.0166969820857047,1.6888760912755937e+18,0.84859375,2.200031280517578,0.6415103177229563,-0.0215839035809039,1.688876091297e+18,0.87,0.0,0.0,1.1891406774520874,7.941999912261963,0.0238272417336702,0.0,29.800669478537593,-122.7500168,49.1920787,1.6888760912764424e+18,0.8494423828125001,16.89943962097168,38.60323944091797,31.10999984741211,1.6888760912764424e+18,0.8494423828125001,-238.72715454101564,133.45823669433594,-102.01639709472656,1.6888760912799163e+18,0.85291650390625,0.3338298201560974,0.1197289153933525,-0.6284435788790385,0.6921113729476929,1.269771695137024,0.9109804034233092,-1.591208855311076
0.85,1.6888760913318208e+18,0.9048210449218748,-3.78006116549174,5.900962511698405,-1.6680081685384114,1.6888760913318208e+18,0.9048210449218748,-1.8584256172180176,-1.129412293434143,-8.187042713165283,1.6888760913318208e+18,0.9048210449218748,1.8988340695699055,-7.014629522959392,-6.583748022715251,1.6888760913231706e+18,0.8961705729166667,2.358652432759603,0.0945823093255361,-0.1821396499872207,1.688876091327498e+18,0.9004978841145833,2.2822434504826865,0.0438295807689428,-0.2278018196423848,,,,,,,,,,,,1.68887609132644e+18,0.89944013671875,17.345959854125976,34.303958892822266,35.1774787902832,1.68887609132644e+18,0.89944013671875,-238.28063354492187,129.15895385742186,-97.94891815185548,1.6888760913318208e+18,0.9048210449218748,0.3710205455621083,0.1621428976456323,-0.6241437395413717,0.6680263876914978,1.3278769652048747,0.7947514653205872,-1.6484429438908894
0.9,1.6888760913837212e+18,0.9567213541666666,-4.018782218297322,3.9724719524383545,-1.617255687713623,1.6888760913837212e+18,0.9567213541666666,-2.21874475479126,-2.463610291481018,-8.749954064687094,1.6888760913837212e+18,0.9567213541666666,1.7772361040115356,-6.420337041219075,-7.197411855061849,1.688876091375072e+18,0.9480719401041666,1.6457727750142417,0.0225002020597457,-0.2456187357505162,1.688876091379398e+18,0.9523981119791666,1.646230936050415,-0.0693332174172004,-0.2275982052087783,,,,,,,,,,,,1.688876091376442e+18,0.949442041015625,18.238999557495116,30.343839645385746,38.8643196105957,1.688876091376442e+18,0.949442041015625,-237.38759155273436,125.19883880615234,-94.26207885742188,1.6888760913837212e+18,0.9567213541666666,0.4011620978514353,0.1883192658424377,-0.6217529575030009,0.6456454396247864,1.3636871576309204,0.7100511193275452,-1.6965052684148152
0.95,1.68887609142697e+18,0.99997021484375,-3.54206919670105,5.042041301727295,1.810664415359497,1.68887609142697e+18,0.99997021484375,-1.6019947528839111,-0.9699904918670654,-5.647958755493164,1.68887609142697e+18,0.99997021484375,1.917272865772247,-5.996286630630493,-7.52333664894104,1.6888760914269714e+18,0.9999713541666666,0.9452121456464132,-1.0454449852307637,-0.423024187485377,1.688876091431299e+18,1.0042989095052084,0.8293513854344686,-1.1124365329742432,-0.4382448991139729,,,,,,,,,,,,1.6888760914264404e+18,0.9994402832031252,17.43379936218262,27.120599365234376,41.20183944702149,1.6888760914264404e+18,0.9994402832031252,-238.1927947998047,121.97559967041016,-91.92455749511718,1.68887609142697e+18,0.99997021484375,0.4325350224971771,0.1937000900506973,-0.6141908764839172,0.6309774219989777,1.3544782996177671,0.6529653668403625,-1.7335086464881897
1.0,1.6888760914702272e+18,1.0432272135416667,-3.558530410130819,6.0920969645182295,3.7721834977467856,1.6888760914702272e+18,1.0432272135416667,-1.2051850259304049,0.0805583695570627,-3.5655051867167153,1.6888760914702272e+18,1.0432272135416667,2.330543756484986,-5.995793501536052,-7.402402242024739,1.6888760914788772e+18,1.0518771972656251,-0.5793038656314214,-2.634000062942505,-0.93457293510437,1.6888760914832023e+18,1.056202392578125,-0.7649051162103812,-2.6904541651407876,-0.9719884196917216,,,,,,,,,,,,1.688876091476444e+18,1.04944384765625,14.44235954284668,26.691159439086913,42.455999755859374,1.688876091476444e+18,1.04944384765625,-241.18423461914065,121.54615783691406,-90.67039642333984,1.6888760914702272e+18,1.0432272135416667,0.4612534542878468,0.1653893440961837,-0.6046348611513773,0.6276165445645651,1.298476974169413,0.6519788304964701,-1.7696654001871746
1.05,1.6888760915221286e+18,1.095128662109375,-0.9989413817723592,0.3544230461120605,-1.5732210477193196,1.6888760915221286e+18,1.095128662109375,1.76690012216568,-6.338188648223877,-8.14078140258789,1.6888760915221286e+18,1.095128662109375,2.7430400053660073,-6.67686653137207,-6.63227383295695,1.6888760915307732e+18,1.1037732747395834,-2.060244838396708,-0.3842851196726163,-1.5912530819574993,1.688876091526456e+18,1.0994560546875,-2.2195788621902466,-0.7484626173973083,-1.6678912043571472,,,,,,,,,,,,1.688876091526444e+18,1.0994440917968749,11.467999839782715,29.358079147338863,41.75083923339844,1.688876091526444e+18,1.0994440917968749,-244.15859680175785,124.21307830810548,-91.37555694580078,1.6888760915221286e+18,1.095128662109375,0.4756832023461659,0.0923428138097126,-0.6020232439041138,0.6343008677164713,1.213743805885315,0.7425402601559957,-1.8149480819702148
1.1,1.68887609157403e+18,1.1470298665364584,-1.685058891773224,-4.726258595784505,-5.44337256749471,1.68887609157403e+18,1.1470298665364584,0.2835494875907898,-12.080763498942057,-11.585847536722818,1.68887609157403e+18,1.1470298665364584,1.945806860923767,-7.338759740193685,-6.207188447316487,1.688876091582679e+18,1.155678955078125,-0.5878559947013855,1.4845552841822307,-0.8572984635829926,1.688876091569704e+18,1.1427040201822918,-0.91543248295784,1.5136731465657551,-1.146135926246643,,,,,,,,,,,,1.6888760915764396e+18,1.1494396972656251,15.559879875183103,31.20515975952149,38.964359283447266,1.6888760915764396e+18,1.1494396972656251,-240.06671752929688,126.0601577758789,-94.1620376586914,1.68887609157403e+18,1.1470298665364584,0.4400894443194071,0.0669564654429753,-0.6383564074834188,0.6278145710627238,1.3053645690282183,0.8369720379511515,-1.8785686095555625
1.15,1.68887609162593e+18,1.1989298502604169,-3.4446414709091187,1.957877318064372,-0.9962517420450846,1.68887609162593e+18,1.1989298502604169,-1.857827400167783,-5.7132627964019775,-6.857430775960286,1.68887609162593e+18,1.1989298502604169,1.5640125672022502,-7.655395030975342,-5.925892512003581,1.6888760916345777e+18,1.2075778808593751,-1.620778242746989,-1.2367985049883523,-0.3992004444201787,1.6888760916216054e+18,1.1946053873697915,-1.2986995180447896,-0.274023989836375,-0.2740239600340525,,,,,,,,,,,,1.6888760916264374e+18,1.19943740234375,18.05111961364746,32.18115921020508,36.78055953979492,1.6888760916264374e+18,1.19943740234375,-237.57547607421876,127.0361572265625,-96.34583740234376,1.68887609162593e+18,1.1989298502604169,0.4166767398516337,0.0567854642868041,-0.6543933550516764,0.6282656987508138,1.352101723353068,0.8868728478749593,-1.89913813273112
1.2,1.6888760916778322e+18,1.2508321940104168,-1.1330078442891438,-0.5246860186258951,-2.8220818837483725,1.6888760916778322e+18,1.2508321940104168,0.8203393593430518,-8.697710831960043,-7.846065521240234,1.6888760916778322e+18,1.2508321940104168,1.930545687675476,-8.15727965037028,-5.088697115580241,1.6888760916778412e+18,1.2508411865234377,-1.3524556756019592,-2.166204512119293,-0.295735128223896,1.68887609167351e+18,1.246510091145833,-1.484657088915507,-2.2307780186335244,-0.3640247782071431,,,,,,,,,,,,1.6888760916764406e+18,1.249440625,15.340279579162598,35.06523895263672,35.289720153808595,1.6888760916764406e+18,1.249440625,-240.28631286621095,129.9202392578125,-97.83667907714845,1.6888760916778322e+18,1.2508321940104168,0.4243872960408528,-0.0083119366317987,-0.641713281472524,0.638543446858724,1.2518504858016968,0.9733391404151917,-1.9036246140797932
1.25,1.6888760917297364e+18,1.3027364908854169,-0.6816395918528239,2.573991616566976,-1.826839764912923,1.6888760917297364e+18,1.3027364908854169,1.526222030321757,-6.027520338694255,-5.963512261708577,1.6888760917297364e+18,1.3027364908854169,2.1850601037343345,-8.585766792297363,-4.201385974884033,1.6888760917210872e+18,1.29408740234375,-2.0633500814437866,-0.5377141286929449,-0.0047851080695788,1.6888760917254154e+18,1.29841552734375,-2.0444132884343467,-0.5396485415597757,-0.0988074491421381,,,,,,,,,,,,1.6888760917264392e+18,1.299439208984375,13.23455982208252,37.827318572998045,32.76920013427734,1.6888760917264392e+18,1.299439208984375,-242.39203491210935,132.68231506347655,-100.3571990966797,1.6888760917297364e+18,1.3027364908854169,0.4087850153446197,-0.0527233481407165,-0.629142185052236,0.6588187416394552,1.1425597270329793,1.0598246653874714,-1.8306828339894612
1.3,1.688876091781644e+18,1.3546441243489582,0.7260368665059409,4.018974304199219,-3.8695766925811768,1.688876091781644e+18,1.3546441243489582,2.7114668687184653,-4.983651479085286,-7.202196915944417,1.688876091781644e+18,1.3546441243489582,1.9626285632451377,-8.986880620320639,-3.3973337014516196,1.6888760917729925e+18,1.34599267578125,-1.5192218621571858,-0.3432553460200627,-0.8906415104866028,1.6888760917773166e+18,1.3503164876302085,-1.5442673365275066,-0.1865175316731135,-0.9396125674247742,,,,,,,,,,,,1.6888760917764398e+18,1.3494397460937502,13.202839851379396,40.39663925170898,29.643559646606445,1.6888760917764398e+18,1.3494397460937502,-242.4237548828125,135.25163879394532,-103.4828369140625,1.688876091781644e+18,1.3546441243489582,0.3872827192147572,-0.0954113081097602,-0.6329267819722494,0.6634058952331543,1.1110483407974243,1.1526772181193037,-1.823953628540039
1.35,1.688876091833549e+18,1.4065489908854163,-2.557179649670919,2.894967238108317,-2.103755553563436,1.688876091833549e+18,1.4065489908854163,-1.1330015361309052,-6.484549363454183,-4.59302298227946,1.688876091833549e+18,1.4065489908854163,1.401376684506734,-9.363771438598633,-2.553980906804403,1.6888760918248952e+18,1.3978953450520832,-1.845372994740804,0.0188859303792317,-1.036485592524211,1.688876091829223e+18,1.402222900390625,-1.8053104082743328,-0.0850120820105076,-0.9559531807899476,,,,,,,,,,,,1.688876091826437e+18,1.399437109375,16.11863956451416,42.16563949584961,25.624879455566408,1.688876091826437e+18,1.399437109375,-239.5079559326172,137.02063598632813,-107.50151824951172,1.688876091833549e+18,1.4065489908854163,0.3503368894259135,-0.133377656340599,-0.6484335859616598,0.6624372402826945,1.1528302033742268,1.2620738744735718,-1.8598252137502032
1.4,1.688876091876799e+18,1.4497991943359376,0.5486087799072266,2.861670970916748,-2.232233226299286,1.688876091876799e+18,1.4497991943359376,1.7673985958099363,-6.707979202270508,-4.040281057357788,1.688876091876799e+18,1.4497991943359376,1.1959883570671082,-9.553905010223389,-1.872761309146881,1.688876091876793e+18,1.449793212890625,-1.4944308996200562,-0.4697044681136806,-0.6226244072119395,1.6888760918811156e+18,1.4541158040364583,-1.458898941675822,-0.3782273878653844,-0.6292930146058401,,,,,,,,,,,,1.68887609187644e+18,1.44944013671875,16.745719528198244,43.60035934448242,22.15763931274414,1.68887609187644e+18,1.44944013671875,-238.8808715820313,138.45535888671876,-110.96875762939452,1.688876091876799e+18,1.4497991943359376,0.3336453288793564,-0.1686517521739006,-0.6481472551822662,0.66338911652565,1.1127647161483765,1.3359200954437256,-1.8442652821540833
1.45,1.6888760919200502e+18,1.4930501302083332,-0.9147202571233114,2.8998430569966636,-2.3577107588450112,1.6888760919200502e+18,1.4930501302083332,0.10747762521108,-6.774479707082112,-3.6835511525472007,1.6888760919200502e+18,1.4930501302083332,0.9993963638941448,-9.658577601114908,-1.3905539115269978,1.6888760919287017e+18,1.5017014973958334,-0.9609419306119285,-0.1637627854943275,-0.1210022258261839,1.6888760919330232e+18,1.5060231933593748,-0.9657779335975648,-0.2573778877655665,-0.0683150931290584,,,,,,,,,,,,1.6888760919264412e+18,1.49944111328125,17.497239685058595,44.542198944091794,19.471199417114256,1.6888760919264412e+18,1.49944111328125,-238.12935485839844,139.39719848632814,-113.65519714355467,1.6888760919200502e+18,1.4930501302083332,0.3153947691122691,-0.1884987304608027,-0.6503826777140299,0.6647975246111552,1.0903611183166504,1.389887452125549,-1.8221312363942463
1.5,1.6888760919719447e+18,1.5449449055989584,-0.1892603238423665,6.259020487467448,-3.430746793746948,1.6888760919719447e+18,1.5449449055989584,0.7940183281898499,-3.484149177869161,-4.162713845570882,1.6888760919719447e+18,1.5449449055989584,0.9604771335919698,-9.727424303690592,-0.7966806391874949,1.6888760919806054e+18,1.5536053059895834,-1.778737743695577,-1.134020407994588,-0.5107851475477219,1.6888760919762757e+18,1.5492755126953126,-1.5689310431480408,-1.2064588069915771,-0.4542546719312668,,,,,,,,,,,,1.6888760919764434e+18,1.549443310546875,17.463079071044923,45.391319274902344,17.32887954711914,1.6888760919764434e+18,1.549443310546875,-238.16351318359375,140.24632263183594,-115.79751739501953,1.6888760919719447e+18,1.5449449055989584,0.3059713741143544,-0.2193606048822402,-0.6417707403500875,0.6679792006810507,0.8818495869636536,1.44232443968455,-1.644736647605896
1.55,1.6888760920238518e+18,1.5968517252604169,-1.7955965797106426,-5.729794184366862,-4.9865842660268145,1.6888760920238518e+18,1.5968517252604169,-1.2155538996060689,-15.514463742574057,-4.420939207077026,1.6888760920238518e+18,1.5968517252604169,0.5572412312030792,-9.768924395243326,0.5009315560261408,1.6888760920325015e+18,1.6055014648437502,-3.386484225591024,-1.534798900286357,-1.2516119678815203,1.688876092019531e+18,1.5925310058593751,-3.034676710764567,-1.2058989405632017,-1.0612765153249104,,,,,,,,,,,,1.6888760920264397e+18,1.5994396484375,18.797760009765625,46.813838958740234,12.43667984008789,1.6888760920264397e+18,1.5994396484375,-236.8288330078125,141.66883544921876,-120.6897186279297,1.6888760920238518e+18,1.5968517252604169,0.2755815287431081,-0.2850427627563476,-0.6311534643173218,0.6661524971326193,-0.533797005812327,1.5015372435251872,-0.2820214877525965
1.6,1.6888760920757576e+18,1.6487577311197918,-0.8644121487935384,-3.813177108764648,-2.989342451095581,1.6888760920757576e+18,1.6487577311197918,-1.1324033339818318,-13.366905212402344,-0.6961120118697485,1.6888760920757576e+18,1.6487577311197918,-0.2907926721964031,-9.537982940673828,2.2285169760386148,1.688876092084409e+18,1.6574090983072916,-2.881298621495565,-3.3187290827433267,-0.8421795666217804,1.6888760920714322e+18,1.64443212890625,-3.293887217839559,-3.182658831278483,-1.1188506285349529,,,,,,,,,,,,1.6888760920764416e+18,1.64944150390625,20.730239868164062,47.15055923461914,6.182959842681885,1.6888760920764416e+18,1.64944150390625,-234.89635620117187,142.00555725097655,-126.9434371948242,1.6888760920757576e+18,1.6487577311197918,0.2454960495233535,-0.3907268941402435,-0.6070013642311096,0.646171490351359,-1.767090956370036,1.357374628384908,0.8274188041687012
1.65,1.68887609212766e+18,1.70066015625,3.2914854685465493,2.203940232594808,-2.2927462259928384,1.68887609212766e+18,1.70066015625,2.482553482055664,-6.949554602305095,1.2197413047154744,1.68887609212766e+18,1.70066015625,-0.8317333261171976,-9.137749671936035,3.4477740128835044,1.6888760921276603e+18,1.7006605224609377,-2.8050167560577393,-1.6498706936836245,0.0694859214127064,1.688876092123337e+18,1.6963369954427083,-2.752609650293986,-1.9186768531799316,-0.0402152917813509,,,,,,,,,,,,1.688876092126441e+18,1.6994408203125002,21.09135971069336,47.30671920776367,2.0910799384117125,1.688876092126441e+18,1.6994408203125002,-234.5352325439453,142.16171875,-131.03531799316406,1.68887609212766e+18,1.70066015625,0.2363676875829696,-0.475297858317693,-0.5673293670018514,0.6291299859682719,-1.8575961987177532,1.2197576363881428,0.7843249241511027
1.7,1.6888760921795628e+18,1.7525627441406249,1.4194221099217732,-1.920338153839111,-1.9826948642730713,1.6888760921795628e+18,1.7525627441406249,0.3766701618830363,-10.22193924585978,3.1916266282399497,1.6888760921795628e+18,1.7525627441406249,-1.0655534466107686,-8.285855929056803,5.109608014424642,1.6888760921709076e+18,1.7439077962239582,-4.240881045659383,-1.4755450089772542,0.1482875396807988,1.6888760921752433e+18,1.7482431640625,-4.258138020833333,-1.5295556783676147,0.1284853232403595,,,,,,,,,,,,1.688876092176444e+18,1.7494439941406248,20.8180793762207,47.32867965698242,-5.24355993270874,1.688876092176444e+18,1.7494439941406248,-234.8085144042969,142.18367919921874,-138.36995849609374,1.6888760921795628e+18,1.7525627441406249,0.1951473206281661,-0.5502134164174398,-0.5057008465131124,0.6343554258346558,-1.8039182424545288,1.0298474431037905,0.6456291079521179
1.75,1.688876092231471e+18,1.804470947265625,2.3049778938293457,-4.815658251444499,2.703474998474121,1.688876092231471e+18,1.804470947265625,1.0338987906773884,-12.709278106689451,8.468199412027994,1.688876092231471e+18,1.804470947265625,-1.2938807010650637,-7.877874692281087,5.700010935465495,1.6888760922228152e+18,1.7958151041666666,-0.4280128926038742,-1.3916019201278689,0.7701992491881052,1.6888760922271416e+18,1.8001415201822917,-0.1529199182987214,-1.3474160035451253,0.8844310939311981,,,,,,,,,,,,1.6888760922264397e+18,1.799439501953125,20.60823974609375,46.80651931762695,-9.55992012023926,1.6888760922264397e+18,1.799439501953125,-235.0183563232422,141.66151733398436,-142.68631286621093,1.688876092231471e+18,1.804470947265625,0.1940529396136601,-0.5924908916155497,-0.4678623080253601,0.6263152360916138,-1.8153376579284668,0.9546204606691996,0.5688426295916239
1.8,1.6888760922833715e+18,1.8563716634114584,4.4668465455373125,-0.1647890408833821,-1.7035785516103108,1.6888760922833715e+18,1.8563716634114584,3.196412285168966,-8.072586059570312,4.042474349339803,1.6888760922833715e+18,1.8563716634114584,-1.2932357390721638,-7.892051855723064,5.681339422861735,1.688876092274718e+18,1.8477181803385416,-0.4475096960862477,-1.8940386374791465,1.130049765110016,1.6888760922790444e+18,1.852044352213542,-0.4411974251270294,-1.8456275463104248,1.079551617304484,,,,,,,,,,,,1.688876092276441e+18,1.849441162109375,18.500079727172853,47.9289192199707,-8.483879661560058,1.688876092276441e+18,1.849441162109375,-237.1265167236328,142.7839141845703,-141.6102752685547,1.6888760922833715e+18,1.8563716634114584,0.2276014437278111,-0.6145632664362589,-0.4368208348751068,0.6160429120063782,-1.8117719888687136,0.958135743935903,0.4624257981777191
1.85,1.688876092326615e+18,1.899615234375,3.5898561477661133,-0.7411038875579835,-3.404839992523194,1.688876092326615e+18,1.899615234375,2.3949164152145386,-8.609076499938965,2.41256332397461,1.688876092326615e+18,1.899615234375,-1.2177411317825315,-7.852227449417114,5.752689838409424,1.6888760923266112e+18,1.8996114095052083,-0.294691577553749,-0.2627229603628317,0.6456336577733358,1.6888760923309425e+18,1.9039423828125,-0.2811507234970728,-0.2082541460792223,0.6319400866826376,,,,,,,,,,,,1.6888760923264404e+18,1.89944033203125,16.728639984130858,48.4169189453125,-8.427759742736816,1.6888760923264404e+18,1.89944033203125,-238.8979522705078,143.27192077636718,-141.5541534423828,1.688876092326615e+18,1.899615234375,0.2396980300545692,-0.6232640445232391,-0.4191738069057464,0.6151195466518402,-1.793858766555786,0.9518108367919922,0.4031832665205002
1.9,1.6888760923698678e+18,1.9428677571614583,2.3197956482569375,-3.0335620244344077,-3.680740674336751,1.6888760923698678e+18,1.9428677571614583,1.2687942186991374,-10.910274187723797,2.153340975443522,1.6888760923698678e+18,1.9428677571614583,-1.0738029877344768,-7.86096700032552,5.7693681716918945,1.6888760923785196e+18,1.951519775390625,0.0826195279757181,-0.3968078792095184,0.7740171353022257,1.688876092382851e+18,1.9558511555989584,0.1058324010421832,-0.4253658254941304,0.8484918276468912,1.6888760923828495e+18,1.955849609375,0.0,0.0,1.2053263187408447,8.11400032043457,0.0228290595114231,0.0,28.792176505442505,-122.7500167,49.1920787,1.688876092376442e+18,1.94944208984375,15.620879745483398,48.83171920776367,-8.525359916687012,1.688876092376442e+18,1.94944208984375,-240.0057159423828,143.68671569824218,-141.6517547607422,1.6888760923698678e+18,1.9428677571614583,0.2475626071294148,-0.6232812801996866,-0.4099158147970835,0.6182058850924174,-1.7673037846883135,0.9534704486529032,0.3617795507113138
1.95,1.6888760924217754e+18,1.9947753092447915,2.059421420097351,-1.6228559811909993,-2.0003294944763184,1.6888760924217754e+18,1.9947753092447915,1.3337992032368975,-9.608977635701498,3.73300282160441,1.6888760924217754e+18,1.9947753092447915,-0.7484236558278402,-7.970376491546631,5.668618837992351,1.688876092430422e+18,2.003422119140625,0.1318450793623924,-0.9510153730710348,1.778534173965454,1.6888760924261018e+18,1.9991016845703125,0.1540144011378288,-1.008462131023407,1.73966783285141,,,,,,,,,,,,1.6888760924264428e+18,1.9994426757812496,12.68799991607666,49.51003875732422,-7.746999931335449,1.6888760924264428e+18,1.9994426757812496,-242.9385955810547,144.3650360107422,-140.87339477539064,1.6888760924217754e+18,1.9947753092447915,0.275504579146703,-0.6222120324770609,-0.3897685110569,0.6203575730323792,-1.7101332743962605,0.972770075003306,0.257057969768842
2.0,1.6888760924736748e+18,2.0466747233072913,2.7736265659332275,-0.8870283762613932,-2.7693299452463784,1.6888760924736748e+18,2.0466747233072913,2.6382863521575928,-8.95254643758138,2.896711270014445,1.6888760924736748e+18,2.0466747233072913,-0.1581415807207425,-8.04977289835612,5.601327737172444,1.6888760924823283e+18,2.0553282877604167,0.029372438788414,-1.018006960550944,2.3467915852864585,1.6888760924693496e+18,2.0423496907552083,0.0539597632984319,-0.9075930118560792,2.230116287867228,,,,,,,,,,,,1.688876092476437e+18,2.049436865234375,7.932439804077148,50.67635955810547,-6.741719818115234,1.688876092476437e+18,2.049436865234375,-247.69415588378905,145.53135681152344,-139.8681182861328,1.6888760924736748e+18,2.0466747233072913,0.317238708337148,-0.6188815037409464,-0.3530816038449605,0.6256038745244344,-1.5990872383117676,0.9869805773099264,0.0727487115085144
2.05,1.6888760925255803e+18,2.0985804850260417,3.2133973439534507,0.0941065152486165,-1.5403095881144206,1.6888760925255803e+18,2.0985804850260417,3.7716867129007974,-7.946962674458821,4.13758913675944,1.6888760925255803e+18,2.0985804850260417,0.5354879299799601,-8.02532402674357,5.6131852467854815,1.6888760925342313e+18,2.1072314453125,-0.0625627835591633,-1.0849984884262085,2.391130208969116,1.688876092521253e+18,2.094253011067708,-0.0511090581615765,-1.150819222132365,2.4211645126342773,,,,,,,,,,,,1.6888760925264415e+18,2.099441748046875,2.0081199258565903,50.93499908447266,-6.541639804840088,1.6888760925264415e+18,2.099441748046875,-253.61847534179688,145.7899963378906,-139.66803588867188,1.6888760925255803e+18,2.0985804850260417,0.3640157878398895,-0.6146487991015116,-0.3050465087095896,0.6295314828554789,-1.466456929842631,0.98181947072347,-0.1504327605168024
2.1,1.6888760925774835e+18,2.150483235677083,3.2026305198669434,2.488161404927572,-0.6627480189005533,1.6888760925774835e+18,2.150483235677083,4.465605179468791,-5.400201956431071,5.118447144826253,1.6888760925774835e+18,2.150483235677083,1.2401732603708904,-7.872618198394775,5.716481685638428,1.688876092577478e+18,2.15047802734375,-0.2727513387799263,-0.7622070908546448,2.2376757860183716,1.6888760925731592e+18,2.1461591796875,-0.2431752731402714,-0.805782159169515,2.2497148513793945,,,,,,,,,,,,1.688876092576435e+18,2.149434912109375,-4.362719917297364,50.70807876586914,-7.502999782562256,1.688876092576435e+18,2.149434912109375,-259.98931884765625,145.56307678222657,-140.62939453125,1.6888760925774835e+18,2.150483235677083,0.4034776389598846,-0.6063729127248129,-0.256889596581459,0.6350356737772623,-1.3405290444691975,0.9536521633466084,-0.3541576166947682
2.15,1.688876092629382e+18,2.2023819986979167,3.882480382919311,1.779370625813802,-1.238314946492513,1.688876092629382e+18,2.2023819986979167,5.664209842681885,-5.851049582163493,4.754339218139648,1.688876092629382e+18,2.2023819986979167,1.7589280605316162,-7.614675045013428,5.927940686543782,1.6888760926207355e+18,2.193735514322917,-0.4461861550807953,-0.5757405062516531,1.4740687211354573,1.688876092625062e+18,2.198062255859375,-0.4602869649728139,-0.5643885731697083,1.404175599416097,,,,,,,,,,,,1.6888760926264433e+18,2.199443359375,-9.66483964920044,50.085879516601565,-8.632719802856446,1.6888760926264433e+18,2.199443359375,-265.29143676757815,144.94087829589844,-141.75911560058594,1.688876092629382e+18,2.2023819986979167,0.4261088371276855,-0.5996366739273071,-0.2165507525205612,0.6417705217997233,-1.261821150779724,0.9091779589653016,-0.4862609406312306
2.2,1.6888760926812856e+18,2.2542854817708333,5.285877704620361,0.2137150764465332,-1.2925488154093423,1.6888760926812856e+18,2.2542854817708333,7.32064151763916,-7.202994346618652,4.888536771138509,1.6888760926812856e+18,2.2542854817708333,2.0119624535242715,-7.400964260101318,6.116372108459473,1.6888760926726382e+18,2.2456381022135417,-0.3127630005280177,-0.410145103931427,0.8283842007319132,1.6888760926769646e+18,2.249964599609375,-0.2758565619587898,-0.3761911789576213,0.7637342611948649,,,,,,,,,,,,1.6888760926764375e+18,2.249437646484375,-12.004799842834473,49.10743865966797,-9.628239822387696,1.6888760926764375e+18,2.249437646484375,-267.6313903808594,143.96243896484376,-142.7546356201172,1.6888760926812856e+18,2.2542854817708333,0.4370580911636352,-0.5976264874140421,-0.1896426777044931,0.6448523004849752,-1.2312682469685872,0.8741281231244405,-0.5529215931892395
2.25,1.688876092733191e+18,2.3061909179687503,5.368256409962972,0.9788808822631836,-0.0565044085184733,1.688876092733191e+18,2.3061909179687503,7.4055867195129395,-6.457829475402832,6.099304993947347,1.688876092733191e+18,2.3061909179687503,2.014528830846151,-7.420965194702148,6.091095924377441,1.688876092724541e+18,2.2975408528645835,0.22897265618667,0.0182750507568319,-0.2476549496253331,1.6888760927288676e+18,2.301867350260417,0.2796235680580139,0.0557414541641871,-0.317802636573712,,,,,,,,,,,,1.6888760927264438e+18,2.299443896484375,-12.36835994720459,49.280679321289064,-9.928359603881836,1.6888760927264438e+18,2.299443896484375,-267.9949584960938,144.13567810058595,-143.0547607421875,1.688876092733191e+18,2.3061909179687503,0.4392234186331431,-0.5975451866785685,-0.1894973317782084,0.6434999108314514,-1.2295436064402263,0.876973569393158,-0.5583665370941162
2.3,1.6888760927764434e+18,2.3494432373046874,2.469935715198517,4.11942982673645,-1.9956825971603396,1.6888760927764434e+18,2.3494432373046874,4.37019157409668,-3.484847068786621,3.9954155683517456,1.6888760927764434e+18,2.3494432373046874,1.877454400062561,-7.588531732559204,5.926384687423706,1.6888760927764431e+18,2.3494431966145832,0.5137376685937246,-0.0301360202332337,-0.6441064874331156,1.688876092780774e+18,2.353773844401042,0.5202535589536031,-0.0607301853597163,-0.6870706876118978,,,,,,,,,,,,1.6888760927764383e+18,2.349438330078125,-11.458239936828614,49.7906379699707,-8.479000091552734,1.6888760927764383e+18,2.349438330078125,-267.0848327636719,144.64563598632813,-141.60539855957032,1.6888760927764434e+18,2.3494432373046874,0.4385169744491577,-0.5987830460071564,-0.2040138393640518,0.6383809745311737,-1.2422267198562622,0.9037183821201324,-0.5352115631103516
2.35,1.6888760928196956e+18,2.3926957194010416,-0.7243067026138306,7.689126332600911,-6.577228387196858,1.6888760928196956e+18,2.3926957194010416,0.7417749961217245,-0.1768694864585995,-0.8165506919225057,1.6888760928196956e+18,2.3926957194010416,1.4432802597681682,-7.850250244140625,5.695964336395264,1.6888760928283433e+18,2.4013430989583333,1.2468777696291606,0.2031636039415995,-2.3136520783106485,1.6888760928326725e+18,2.4056725260416667,1.3829989433288574,0.3924299975236257,-2.5121833880742392,,,,,,,,,,,,1.6888760928264397e+18,2.3994396484375,-8.051999855041505,50.5348388671875,-6.980839729309082,1.6888760928264397e+18,2.3994396484375,-263.6785949707031,145.38983764648438,-140.10723571777345,1.6888760928196956e+18,2.3926957194010416,0.4330092867215474,-0.6084003448486328,-0.2285179148117701,0.6243896087010702,-1.3029497067133586,0.9480008880297344,-0.4662409524122874
2.4,1.688876092871598e+18,2.444598225911458,3.710096557935079,-5.582213401794434,2.4486281077067056,1.688876092871598e+18,2.444598225911458,4.823332150777181,-14.029916524887083,7.392426133155823,1.688876092871598e+18,2.444598225911458,1.0904342929522195,-8.431957880655924,4.879084587097168,1.6888760928802447e+18,2.453244873046875,0.9271407524744668,1.7565430005391438,-0.1183042153716087,1.6888760928845742e+18,2.4575743001302084,0.6736316084861755,1.5003868341445925,-0.005294144153595,,,,,,,,,,,,1.688876092876442e+18,2.449441796875,-2.8011199474334716,51.49619903564453,-2.3985199213027952,1.688876092876442e+18,2.449441796875,-258.42771606445314,146.3511993408203,-135.52491760253906,1.688876092871598e+18,2.444598225911458,0.4154096245765686,-0.589702824751536,-0.306095431248347,0.6206701397895813,-1.3307284911473591,1.0560409228007,-0.3212719857692718
2.45,1.6888760929234964e+18,2.496496337890625,2.4693729480107627,2.9969870249430337,-0.5438314278920492,1.6888760929234964e+18,2.496496337890625,3.2801609436670947,-5.52761971950531,4.326622088750203,1.6888760929234964e+18,2.496496337890625,0.7879864076773325,-8.508861541748047,4.805740038553874,1.6888760929321513e+18,2.5051512044270834,0.6320928037166595,1.6575319953262806,-3.662340720494589,1.688876092927828e+18,2.500828002929687,0.5571854654699564,1.4990633130073547,-3.54393470287323,,,,,,,,,,,,1.6888760929264397e+18,2.4994395996093752,-0.2683999538421631,51.427879333496094,-1.842199945449829,1.6888760929264397e+18,2.4994395996093752,-255.8950012207031,146.28287658691406,-134.96859436035157,1.6888760929234964e+18,2.496496337890625,0.3943687280019124,-0.5888175368309021,-0.3330731193224589,0.6213172475496928,-1.3965152899424236,1.0721392631530762,-0.2040756568312644
2.5,1.6888760929754033e+18,2.5484034016927084,0.9346404870351156,1.4620108604431152,1.6801273028055828,1.6888760929754033e+18,2.5484034016927084,0.4295116464296977,-7.226124922434489,6.282555262247722,1.6888760929754033e+18,2.5484034016927084,-0.5279303590456644,-8.672390619913736,4.53771448135376,1.6888760929840538e+18,2.557053792317708,-0.353334625562032,4.537354310353597,-5.437973340352376,1.6888760929710764e+18,2.544076171875,0.2879720628261566,4.145127932230632,-5.210222244262695,,,,,,,,,,,,1.688876092976442e+18,2.549441748046875,11.27279977798462,50.324999237060545,-1.3785999774932862,1.688876092976442e+18,2.549441748046875,-244.35379943847656,145.17999877929688,-134.50499572753907,1.6888760929754033e+18,2.5484034016927084,0.3011071681976318,-0.5738609433174133,-0.444702535867691,0.6161947647730509,-1.6954178015391033,1.1071101427078247,0.3162593717376391
2.55,1.6888760930273062e+18,2.6003059082031252,-7.393509229024251,-19.310988426208496,-2.894444227218628,1.6888760930273062e+18,2.6003059082031252,-9.122437000274658,-27.400611241658527,2.441875457763672,1.6888760930273062e+18,2.6003059082031252,-1.751729408899943,-8.073876539866129,5.2716061274210615,1.688876093027305e+18,2.6003048095703125,-1.755015850067139,3.3354005813598633,-4.545295476913452,1.6888760930229783e+18,2.5959785156249997,-1.5959363381067913,3.56872566541036,-4.62694787979126,,,,,,,,,,,,1.6888760930264397e+18,2.5994396484375,23.770479583740233,45.8353988647461,-6.9491198539733885,1.6888760930264397e+18,2.5994396484375,-231.85611572265623,140.69039611816407,-140.0755187988281,1.6888760930273062e+18,2.6003059082031252,0.1548895339171091,-0.5539000431696574,-0.5357000629107157,0.6170578598976135,-1.9165687163670857,0.98545374472936,0.814371387163798
2.6,1.6888760930792046e+18,2.6522046712239584,6.868663152058919,-12.093387603759766,-11.103299140930176,1.6888760930792046e+18,2.6522046712239584,3.795814196268717,-19.659032503763836,-5.624528845151265,1.6888760930792046e+18,2.6522046712239584,-3.0956502755482993,-7.549899895985921,5.414056460062663,1.6888760930705592e+18,2.6435592447916667,-0.1945096676548322,-1.965408096710841,-2.7294987042744956,1.6888760930748849e+18,2.6478849283854164,-0.0743219417830308,-2.2524128953615823,-2.745126644770304,,,,,,,,,,,,1.6888760930764408e+18,2.649440869140625,31.112439346313476,41.14815979003906,-9.323239612579346,1.6888760930764408e+18,2.649440869140625,-224.5141571044922,136.00315856933594,-142.44963684082032,1.6888760930792046e+18,2.6522046712239584,0.107167214155197,-0.57668403784434,-0.5745212038358053,0.5700670083363851,-2.116818428039551,0.8919143676757812,1.039615015188853
2.65,1.6888760931311086e+18,2.7041085611979168,13.138562202453612,2.5990703105926514,0.0859572092692057,1.6888760931311086e+18,2.7041085611979168,8.931609312693277,-4.546961307525635,5.39182710647583,1.6888760931311086e+18,2.7041085611979168,-4.229754288991292,-7.1302863756815595,5.241156419118245,1.6888760931224604e+18,2.6954602050781253,0.2579887583851815,0.4277075131734212,-2.3989696502685547,1.6888760931267848e+18,2.699784749348958,0.2228130996227264,0.7134906003872553,-2.3203206857045493,,,,,,,,,,,,1.6888760931264407e+18,2.699440771484375,37.876119232177736,36.78055953979492,-6.951559829711914,1.6888760931264407e+18,2.699440771484375,-217.7504760742187,131.63555603027345,-140.0779541015625,1.6888760931311086e+18,2.7041085611979168,0.0791929836074511,-0.586558977762858,-0.613914410273234,0.5219636162122091,-2.2796378135681152,0.8241305351257324,1.2194521029790242
2.7,1.688876093183014e+18,2.7560139973958333,6.4755557378133135,5.539822975794475,-7.441620667775472,1.688876093183014e+18,2.7560139973958333,2.260818640391032,-1.317248821258545,-1.7676977316538494,1.688876093183014e+18,2.7560139973958333,-4.237538496653239,-6.841326554616292,5.609209378560384,1.6888760931743642e+18,2.7473642578125,-0.448476900657018,0.9229156089325746,-0.2747875352700551,1.6888760931786831e+18,2.75168310546875,-0.4295909802118936,0.814486977023383,0.0011199017365773,,,,,,,,,,,,1.6888760931764398e+18,2.749439794921875,40.311238861083986,33.85743942260742,-9.35251979827881,1.6888760931764398e+18,2.749439794921875,-215.3153533935547,128.71243896484376,-142.47891845703126,1.688876093183014e+18,2.7560139973958333,0.0414571613073348,-0.576023280620575,-0.624902606010437,0.5252964695294698,-2.247656265894572,0.7813732226689657,1.262281099955241
2.75,1.688876093226266e+18,2.7992662353515625,6.051287412643433,3.4984002113342285,-9.895267486572266,1.688876093226266e+18,2.7992662353515625,2.3778674602508545,-3.639782190322876,-4.19072961807251,1.688876093226266e+18,2.7992662353515625,-3.696221351623535,-7.122437238693237,5.639824628829956,1.6888760932262625e+18,2.7992625325520835,0.5811873823404312,0.6748024821281433,1.7927876710891724,1.6888760932305912e+18,2.80359130859375,0.7047857840855917,0.733750969171524,1.8682295083999632,,,,,,,,,,,,1.6888760932264392e+18,2.7994390625000003,37.68335952758789,35.94607925415039,-10.140639877319336,1.6888760932264392e+18,2.7994390625000003,-217.9432342529297,130.80107421875,-143.26703796386718,1.688876093226266e+18,2.7992662353515625,0.0534917302429675,-0.5658616423606873,-0.6118284463882446,0.5500068962574005,-2.1803523302078247,0.8235786259174347,1.2008112668991089
2.8,1.6888760932695122e+18,2.842512044270834,2.4308486779530845,5.410902500152588,-7.413143634796143,1.6888760932695122e+18,2.842512044270834,-0.2616153260072072,-2.345165545741717,-1.987039764722188,1.6888760932695122e+18,2.842512044270834,-2.7152655124664307,-7.740322748819987,5.361390272776286,1.6888760932781688e+18,2.851168619791667,0.7875580290953318,-0.1543961962064107,3.600541671117147,1.6888760932824968e+18,2.8554966634114582,0.7043276329835256,-0.2535599768161773,3.747505585352579,,,,,,,,,,,,1.688876093276442e+18,2.849441796875,31.458919525146484,40.460079956054685,-9.347639656066894,1.688876093276442e+18,2.849441796875,-224.16767272949215,135.31507873535156,-142.47403564453126,1.6888760932695122e+18,2.842512044270834,0.0892792244752248,-0.5386507908503214,-0.5948595007260641,0.5893603364626566,-2.06753937403361,0.9228505690892538,1.0925071239471436
2.85,1.6888760933214216e+18,2.8944213867187503,0.7710750500361124,-11.30700397491455,-2.0800434748331704,1.6888760933214216e+18,2.8944213867187503,-0.2289133866628011,-19.664814949035645,3.006781076391538,1.6888760933214216e+18,2.8944213867187503,-1.022789845863978,-8.342065811157227,5.022111097971599,1.6888760933300716e+18,2.903071370442708,0.7114034990469614,-0.4566217760245005,5.12067985534668,1.6888760933343977e+18,2.9073977050781252,0.6528113385041555,-0.4124867419401805,5.14267094930013,,,,,,,,,,,,1.6888760933264415e+18,2.899441796875,21.90631980895996,46.374638366699216,-7.434679794311523,1.6888760933264415e+18,2.899441796875,-233.72027282714845,141.2296356201172,-140.5610778808594,1.6888760933214216e+18,2.8944213867187503,0.1638821015755335,-0.5189553499221802,-0.5355152686436971,0.6447415351867676,-1.7904016971588137,1.0350167155265808,0.7414904832839966
2.9,1.688876093373324e+18,2.9463240559895834,2.3450489044189458,-22.10023752848307,7.4854780832926435,1.688876093373324e+18,2.9463240559895834,3.328416426976522,-30.57050387064616,12.413564999898275,1.688876093373324e+18,2.9463240559895834,0.9605660935242972,-8.454519589742025,4.86337407430013,1.688876093381974e+18,2.95497412109375,0.2489276031653086,-0.3938553730646769,3.9028689861297607,1.68887609337765e+18,2.9506499023437502,0.038026362657547,-0.0011453628540039,3.560428023338318,,,,,,,,,,,,1.6888760933764426e+18,2.949442578125,10.135759735107422,50.266439819335936,-6.853959941864014,1.6888760933764426e+18,2.949442578125,-245.49083251953124,145.1214385986328,-139.98035583496093,1.688876093373324e+18,2.9463240559895834,0.2300366858641306,-0.4914421836535136,-0.4607843359311421,0.7018623153368632,-1.3827914396921794,1.060135801633199,0.2719980974992116
2.95,1.6888760934252257e+18,2.9982255859375004,-0.1277801593144734,-11.434961954752604,-1.6927696863810222,1.6888760934252257e+18,2.9982255859375004,2.5732813676198325,-19.632312138875324,3.046262582143148,1.6888760934252257e+18,2.9982255859375004,2.678260087966919,-8.181605021158854,4.674318790435791,1.6888760934338732e+18,3.006873128255208,0.6386087040106455,-1.2853622833887737,4.684521993001302,1.6888760934209024e+18,2.993902180989583,0.7629707058270773,-1.2796099781990051,4.996826648712158,1.688876093420902e+18,2.99390185546875,0.0,0.0,1.2053263187408447,8.54699993133545,0.0204618982970714,0.0,28.792176505442505,-122.7500168,49.1920787,1.6888760934264417e+18,2.999441796875,-1.444480049610138,51.33027877807617,-5.001999950408935,1.6888760934264417e+18,2.999441796875,-257.0710723876953,146.1852783203125,-138.12839965820314,1.6888760934252257e+18,2.9982255859375004,0.307092140118281,-0.4696085552374521,-0.3788937230904897,0.735023558139801,-1.0421058734258015,1.006572127342224,-0.1758184190839528
3.0,1.688876093477129e+18,3.05012890625,-7.080197811126709,2.7982449531555176,-1.1645954449971516,1.688876093477129e+18,3.05012890625,-3.496910889943441,-4.948357303937276,3.7732818921407065,1.688876093477129e+18,3.05012890625,3.560485601425171,-7.730856895446777,4.8731638590494795,1.6888760934771287e+18,3.0501289062500003,0.3504075743257999,-3.5663840770721436,2.428189277648926,1.6888760934728049e+18,3.045804931640625,0.3333797094722588,-3.1480939785639444,2.6374106407165527,,,,,,,,,,,,1.6888760934764385e+18,3.0494384765625,-10.860439777374268,50.20543899536133,-4.169959878921508,1.6888760934764385e+18,3.0494384765625,-266.4870300292969,145.06043395996093,-137.29635925292968,1.688876093477129e+18,3.05012890625,0.3753804961840312,-0.4776407778263092,-0.2984076340993245,0.7354671160380045,-0.920043170452118,0.924756666024526,-0.4598215222358703
3.05,1.6888760935290314e+18,3.1020314127604167,-0.8146495819091797,19.164464950561523,-1.3219215075174968,1.6888760935290314e+18,3.1020314127604167,2.327418804168701,11.549756050109863,4.103890260060628,1.6888760935290314e+18,3.1020314127604167,3.119266907374064,-7.598963578542073,5.361098289489746,1.6888760935203812e+18,3.0933812662760416,0.0334448748811458,-1.7680985927581787,-0.1876883407433827,1.68887609352471e+18,3.0977102864583337,0.0048360129197438,-1.2865331371625264,-0.5242750843365988,,,,,,,,,,,,1.6888760935264407e+18,3.0994408203125,-12.687999725341797,49.600318908691406,-5.582719898223877,1.6888760935264407e+18,3.0994408203125,-268.31459350585936,144.4553192138672,-138.70911865234376,1.6888760935290314e+18,3.1020314127604167,0.403025468190511,-0.521468718846639,-0.2585413058598836,0.7061842679977417,-1.023053030172984,0.903449257214864,-0.5051694214344025
3.1,1.688876093580934e+18,3.1539340006510415,-7.152772029240926,11.14764642715454,-4.165971120198567,1.688876093580934e+18,3.1539340006510415,-4.92941411336263,3.171088139216105,1.1750753323237102,1.688876093580934e+18,3.1539340006510415,2.20055627822876,-7.960813204447429,5.276333014170329,1.6888760935722836e+18,3.1452837727864584,0.1137227341532707,1.04875381787618,-3.4252232710520425,1.6888760935766067e+18,3.1496068522135414,0.2520837262272835,1.0681997140248616,-3.5859316984812417,,,,,,,,,,,,1.688876093576441e+18,3.149441162109375,-7.112599849700928,50.7690788269043,-5.441199779510498,1.688876093576441e+18,3.149441162109375,-262.73919677734375,145.62407836914062,-138.56759948730468,1.688876093580934e+18,3.1539340006510415,0.3577127754688263,-0.5346639355023702,-0.3168307443459828,0.6963738401730856,-1.161830226580302,0.9678818186124166,-0.2824509888887405
3.15,1.6888760936328366e+18,3.2058366699218745,2.524941603342692,1.4050641059875488,-3.634315490722656,1.6888760936328366e+18,3.2058366699218745,3.357728362083435,-7.223732153574626,1.0382855931917827,1.6888760936328366e+18,3.2058366699218745,0.8099853893121084,-8.613051096598307,4.607887585957845,1.68887609362419e+18,3.19718994140625,1.5727743705113728,1.7789414326349895,-4.077271143595378,1.6888760936285094e+18,3.2015093587239583,1.5859588781992595,1.80093252658844,-3.8865791161855063,,,,,,,,,,,,1.688876093626438e+18,3.19943818359375,3.56727991104126,50.930118560791016,-3.0353599786758423,1.688876093626438e+18,3.19943818359375,-252.05930786132816,145.78511657714844,-136.16176147460936,1.6888760936328366e+18,3.2058366699218745,0.3083535532156626,-0.5310684641202291,-0.4206063350041707,0.6671246687571207,-1.397085229555766,1.094954013824463,0.0824300559858481
3.2,1.6888760936760888e+18,3.2490888671875,3.142665147781372,-6.771809101104736,-6.50372314453125,1.6888760936760888e+18,3.2490888671875,3.933800458908081,-15.672091484069824,-2.3539393544197083,1.6888760936760888e+18,3.2490888671875,0.7683338224887848,-8.88453722000122,4.085070371627808,1.688876093676089e+18,3.2490890299479163,1.0705922643343608,0.555174690981706,0.1609630187352498,1.6888760936804155e+18,3.2534153645833332,1.0443250735600789,0.4130467176437378,0.075798213481903,,,,,,,,,,,,1.68887609367644e+18,3.249440087890625,8.227679920196532,50.67879943847656,-0.0951600074768066,1.68887609367644e+18,3.249440087890625,-247.39891662597657,145.53379821777344,-133.2215576171875,1.6888760936760888e+18,3.2490888671875,0.3057848066091537,-0.5060431361198425,-0.4542658627033233,0.6663224399089813,-1.3833840489387512,1.1550052165985107,0.1294695511460304
3.25,1.6888760937193413e+18,3.2923414713541668,-10.228931109110514,-6.447119077046712,3.1787819862365723,1.6888760937193413e+18,3.2923414713541668,-9.992427190144856,-15.589040120442707,6.817749977111816,1.6888760937193413e+18,3.2923414713541668,0.2137024775147438,-9.126175880432127,3.5742544333140054,1.688876093727993e+18,3.3009930826822917,1.484351634979248,1.2229522267977395,-2.413834055264791,1.6888760937323182e+18,3.3053181966145835,1.4823154211044312,1.393180012702942,-2.264121135075887,,,,,,,,,,,,1.6888760937264428e+18,3.2994426757812496,11.131279754638673,50.00536041259765,2.1154799699783324,1.6888760937264428e+18,3.2994426757812496,-244.4953186035156,144.86035766601563,-131.01091918945312,1.6888760937193413e+18,3.2923414713541668,0.2992750505606333,-0.494985024134318,-0.4957026938597361,0.6473914782206217,-1.5249845186869304,1.217214584350586,0.310426985224088
3.3,1.6888760937712404e+18,3.3442403157552083,2.183896859486898,3.0528669357299805,3.1776395638783774,1.6888760937712404e+18,3.3442403157552083,1.686541199684143,-6.22333284219106,6.428517421086629,1.6888760937712404e+18,3.3442403157552083,-0.5201571186383566,-9.260454495747885,3.186164379119873,1.6888760937798943e+18,3.352894287109375,-0.5797620217005411,5.071301301320394,-3.4896186192830405,1.68887609378422e+18,3.357219970703125,-0.871755580107371,5.4467800458272295,-3.771787405014038,,,,,,,,,,,,1.688876093776442e+18,3.349441845703125,17.277639389038086,48.02407989501953,3.6087599754333497,1.688876093776442e+18,3.349441845703125,-238.3489532470703,142.8790771484375,-129.51763916015625,1.6888760937712404e+18,3.3442403157552083,0.250479315718015,-0.4601528445879618,-0.5638376871744791,0.6370711723963419,-1.7644352912902832,1.2536722421646118,0.6958801945050558
