seconds_elapsed_rounded,accelerometer_time,accelerometer_seconds_elapsed,accelerometer_z,accelerometer_y,accelerometer_x,accelerometeruncalibrated_time,accelerometeruncalibrated_seconds_elapsed,accelerometeruncalibrated_z,accelerometeruncalibrated_y,accelerometeruncalibrated_x,gravity_time,gravity_seconds_elapsed,gravity_z,gravity_y,gravity_x,gyroscope_time,gyroscope_seconds_elapsed,gyroscope_z,gyroscope_y,gyroscope_x,gyroscopeuncalibrated_time,gyroscopeuncalibrated_seconds_elapsed,gyroscopeuncalibrated_z,gyroscopeuncalibrated_y,gyroscopeuncalibrated_x,location_time,location_seconds_elapsed,location_bearingAccuracy,location_speedAccuracy,location_verticalAccuracy,location_horizontalAccuracy,location_speed,location_bearing,location_altitude,location_longitude,location_latitude,magnetometer_time,magnetometer_seconds_elapsed,magnetometer_z,magnetometer_y,magnetometer_x,magnetometeruncalibrated_time,magnetometeruncalibrated_seconds_elapsed,magnetometeruncalibrated_z,magnetometeruncalibrated_y,magnetometeruncalibrated_x,orientation_time,orientation_seconds_elapsed,orientation_qz,orientation_qy,orientation_qx,orientation_qw,orientation_roll,orientation_pitch,orientation_yaw
0.0,1.68870253571137e+18,15.006369954427084,-2.2605530420939126,-0.7687764167785645,-5.727220376332601,1.68870253571137e+18,15.006369954427084,-7.675975481669108,-8.55234702428182,-3.1864421367645264,1.68870253571137e+18,15.006369954427084,-5.421268463134766,-7.766065915425618,2.478090842564901,1.6887025357027177e+18,14.997717854817708,-0.4209879537423451,2.7632998625437417,4.2642466227213545,1.6887025357027177e+18,14.997717854817708,-0.4219551781813304,2.7679322163263955,4.266537348429362,,,,,,,,,,,,1.6887025357036585e+18,14.99865859375,9.069479942321776,44.18107986450195,-21.130399322509767,1.6887025357036585e+18,14.99865859375,-245.4713134765625,139.6460754394531,-154.34219665527343,1.68870253571137e+18,15.006369954427084,0.5083193480968475,-0.8138758341471354,0.2787595093250274,0.0216053966432809,-2.552116314570109,0.9538550774256388,-0.9737690289815268
0.05,1.6887025357546258e+18,15.049625732421877,0.3231334686279297,7.270771741867065,-3.969867706298828,1.6887025357546258e+18,15.049625732421877,-3.694817304611206,-1.3893325924873352,-1.6133606433868408,1.6887025357546258e+18,15.049625732421877,-4.023796796798706,-8.642600059509277,2.293819546699524,1.6887025357546258e+18,15.04962548828125,0.7613926331202189,-0.7821620491643747,3.762064536412557,1.6887025357546258e+18,15.04962548828125,0.7604763309160868,-0.7775296395023664,3.764406124750773,,,,,,,,,,,,1.6887025357536527e+18,15.048652832031252,-0.9662400424480438,45.80367813110352,-20.586279678344727,1.6887025357536527e+18,15.048652832031252,-255.5070373535156,141.2686767578125,-153.7980743408203,1.6887025357546258e+18,15.049625732421877,-0.010642260313034,-0.0078907012939453,0.0004368126392364,0.0098606364335864,-2.4082049131393433,1.105962097644806,-1.1337457299232483
0.1,1.6887025357978796e+18,15.092879638671874,-0.8322850863138834,5.29780642191569,-6.422820091247559,1.6887025357978796e+18,15.092879638671874,-3.6261232693990073,-3.9417765736579895,-4.593820571899414,1.6887025357978796e+18,15.092879638671874,-2.799684206644694,-9.222078323364258,1.7663122415542605,1.6887025358065262e+18,15.101526204427085,0.2213368415832519,-2.769255797068278,3.9273036321004233,1.6887025358065262e+18,15.101526204427085,0.2203696432212988,-2.7645724614461265,3.929594357808431,,,,,,,,,,,,1.6887025358036564e+18,15.0986564453125,-7.934879779815674,45.69875946044922,-19.717639541625974,1.6887025358036564e+18,15.0986564453125,-262.4756713867188,141.16375732421875,-152.92943725585937,1.6887025357978796e+18,15.092879638671874,-0.6240208943684896,0.7256997028986613,-0.2799355884393056,0.0667967883249123,-2.2564326922098794,1.2335816224416096,-1.387924114863078
0.15,1.688702535849781e+18,15.14478076171875,17.590309460957844,-18.344043413798016,-2.7265353997548423,1.688702535849781e+18,15.14478076171875,16.333008766174316,-28.02832794189453,-1.692323903242747,1.688702535849781e+18,15.14478076171875,-1.2631469170252485,-9.666779200236002,0.9715242385864258,1.6887025358584307e+18,15.153430826822918,3.727296153704325,9.803318257133164,0.998102883497874,1.6887025358584307e+18,15.153430826822918,3.726379871368408,9.807950586080551,1.00044451157252,,,,,,,,,,,,1.6887025358536586e+18,15.14865869140625,-15.838039779663086,45.25711898803711,-15.816080093383787,1.6887025358536586e+18,15.14865869140625,-270.37883911132815,140.7221221923828,-149.0278778076172,1.688702535849781e+18,15.14478076171875,-0.6775935888290405,0.6816206971804301,-0.2425326357285181,0.1139605840047199,-1.8412293593088789,1.3879822889963789,-1.81361186504364
0.2,1.6887025359016863e+18,15.196686604817708,-4.400747060775757,-19.122668902079266,-1.180907239516576,1.6887025359016863e+18,15.196686604817708,-5.756931861241658,-28.84567642211914,-1.2925230761369069,1.6887025359016863e+18,15.196686604817708,-1.3620309829711914,-9.7055025100708,-0.1743032066151499,1.6887025359103388e+18,15.205339029947917,2.4252369006474814,12.61986525853475,-2.377436652779579,1.6887025359103388e+18,15.205339029947917,2.424269596735636,12.624548435211182,-2.3751459221045175,,,,,,,,,,,,1.688702535903654e+18,15.198654052734376,-18.292679595947263,46.65523986816406,6.727079820632935,1.688702535903654e+18,15.198654052734376,-272.83347778320314,142.12023315429687,-126.4847183227539,1.6887025359016863e+18,15.196686604817708,0.6854132016499838,-0.7070632378260294,-0.1049664306143919,0.0858921222388744,0.9486767450968424,1.5145403544108074,0.3709664344787597
0.25,1.688702535953593e+18,15.248592854817709,-0.8731668790181478,-0.0932308832804362,0.4222362041473388,1.688702535953593e+18,15.248592854817709,-3.191227833429972,-9.619346618652344,-0.1236291527748109,1.688702535953593e+18,15.248592854817709,-2.323906977971395,-9.508611043294271,-0.6085527340571085,1.6887025359622438e+18,15.257243652343751,-0.0340048198898633,-5.534591913223267,0.3938044706980387,1.6887025359622438e+18,15.257243652343751,-0.0349720244606336,-5.529908498128255,0.3960951964060466,1.688702535961905e+18,15.25690478515625,0.0,0.0,3.3725318908691406,17.975000381469727,1.7907196283340454,148.07119750976562,43.400001525878906,-122.7531261,49.1873347,1.688702535953658e+18,15.248657763671876,-9.698999786376952,47.07003936767578,14.571679878234864,1.688702535953658e+18,15.248657763671876,-264.2397888183594,142.5350372314453,-118.64011840820312,1.688702535953593e+18,15.248592854817709,0.6444634397824606,-0.7262749473253886,-0.2022184779246648,0.1215655580163001,2.593774398167928,1.4077842632929485,1.0117440819740295
0.3,1.68870253600549e+18,15.300489990234375,0.8281273047129313,7.917645613352458,3.182476202646891,1.68870253600549e+18,15.300489990234375,-0.7098707407712936,-1.7565312335888543,2.532204548517863,1.68870253600549e+18,15.300489990234375,-1.5438441038131714,-9.656672477722168,-0.712958961725235,1.6887025360054892e+18,15.300489135742188,-2.089540898799896,-6.771441221237183,1.2035572528839111,1.6887025360054892e+18,15.300489135742188,-2.0905336141586304,-6.7667834758758545,1.2058480381965635,,,,,,,,,,,,1.68870253600366e+18,15.298660009765625,-16.284559631347655,47.28231964111328,8.788879871368408,1.68870253600366e+18,15.298660009765625,-270.8253540039062,142.7473175048828,-124.42291717529297,1.68870253600549e+18,15.300489990234375,0.2222114006678263,-0.2440471450487772,-0.0569965889056523,0.0222115622212489,2.37903094291687,1.4890012741088867,0.8793854514757792
0.35,1.6887025360573983e+18,15.352398356119792,0.0698012312253316,11.275988260904947,1.5849940776824951,1.6887025360573983e+18,15.352398356119792,-0.9625128904978434,1.5172489285469055,2.018545309702555,1.6887025360573983e+18,15.352398356119792,-1.0381601651509602,-9.74123477935791,0.3708638635774453,1.688702536048752e+18,15.343751871744791,-2.849177281061808,-5.22401777903239,0.7328855792681376,1.688702536048752e+18,15.343751871744791,-2.8501954078674316,-5.219385464986165,0.7351763248443604,,,,,,,,,,,,1.6887025360536558e+18,15.348655712890624,-19.319919204711915,46.94315948486328,-1.842199957370758,1.6887025360536558e+18,15.348655712890624,-273.8607116699219,142.4081573486328,-135.0539978027344,1.6887025360573983e+18,15.352398356119792,-0.7020430962244669,0.7049111922581991,-0.087663672864437,0.0298810390134651,-1.804969271024068,1.487889250119527,-1.5033929745356245
0.4,1.6887025361093048e+18,15.404304931640624,0.3190473318099974,11.038622538248696,0.2928644021352132,1.6887025361093048e+18,15.404304931640624,-0.7998009820779165,1.4243276516596477,2.017149488131205,1.6887025361093048e+18,15.404304931640624,-1.1246944268544514,-9.596790313720703,1.661597688992818,1.6887025361006564e+18,15.395656494140624,-2.924619197845459,-4.9499937693278,0.4172209501266479,1.6887025361006564e+18,15.395656494140624,-2.9256373246510825,-4.9453104337056475,0.4195117155710856,,,,,,,,,,,,1.688702536103659e+18,15.398659179687504,-18.14139938354492,45.36935958862305,-13.524919891357422,1.688702536103659e+18,15.398659179687504,-272.68219604492185,140.83435974121093,-146.7367156982422,1.6887025361093048e+18,15.404304931640624,-0.692005435625712,0.6805394093195597,-0.2300117413202921,0.0610408447682857,-1.7152564922968547,1.3306138912836711,-1.844399372736613
0.45,1.6887025361612073e+18,15.456207275390623,1.8299129009246824,7.806268533070882,-1.9586460987726848,1.6887025361612073e+18,15.456207275390623,0.6765705943107605,-1.619940956433614,0.6251249114672343,1.6887025361612073e+18,15.456207275390623,-1.1591883103052776,-9.408705075581867,2.5210835933685303,1.6887025361525596e+18,15.447559651692709,-1.5666657487551372,-2.2816326220830283,0.4086688471337159,1.6887025361525596e+18,15.447559651692709,-1.5675820112228394,-2.2769492864608765,0.4109595989187558,,,,,,,,,,,,1.688702536153659e+18,15.448659033203125,-15.75995979309082,42.80003890991211,-22.130799865722658,1.688702536153659e+18,15.448659033203125,-270.3007507324219,138.2650390625,-155.34259643554688,1.6887025361612073e+18,15.456207275390623,-0.684414267539978,0.6527515848477682,-0.3153384327888488,0.076788693666458,-1.7242071231206255,1.2288010517756145,-1.987919847170512
0.5,1.688702536204464e+18,15.499464233398438,0.5420705080032349,5.810336351394653,-0.4445886611938476,1.688702536204464e+18,15.499464233398438,-0.784845806658268,-3.5688949823379517,2.228615164756775,1.688702536204464e+18,15.499464233398438,-1.332762360572815,-9.361726760864258,2.6105164289474487,1.6887025362044618e+18,15.499461832682291,0.4178318381309509,0.8343909978866577,-0.8797477682431539,1.6887025362044618e+18,15.499461832682291,0.4168646360437075,0.8390743285417557,-0.8774570226669312,,,,,,,,,,,,1.688702536203659e+18,15.498658984374998,-14.65951976776123,41.96312026977539,-24.668399810791016,1.688702536203659e+18,15.498658984374998,-269.2003173828125,137.42811889648436,-157.88019714355468,1.688702536204464e+18,15.499464233398438,-0.6777273416519165,0.6568909287452698,-0.3220609128475188,0.0735221728682518,-1.7754487991333008,1.2161473631858826,-1.942450761795044
0.55,1.688702536247719e+18,15.542718912760416,-6.5179054737091064,-21.075711568196613,5.693025986353557,1.688702536247719e+18,15.542718912760416,-8.49412171045939,-30.438897768656417,7.945566813151042,1.688702536247719e+18,15.542718912760416,-1.9820621411005657,-9.345680554707842,2.189853072166443,1.6887025362563648e+18,15.551364746093748,1.8259780406951904,3.6760342915852866,-3.3760995864868164,1.6887025362563648e+18,15.551364746093748,1.8250107765197752,3.6807684898376465,-3.3738087813059487,,,,,,,,,,,,1.6887025362536645e+18,15.548664453125,-12.910039710998536,44.17620010375977,-21.19871940612793,1.6887025362536645e+18,15.548664453125,-267.4508422851562,139.64119873046874,-154.4105194091797,1.688702536247719e+18,15.542718912760416,-0.6579867204030355,0.7005397081375122,-0.2695319751898448,0.046832631031672,-1.9920461575190227,1.2448627948760986,-1.6071723699569702
0.6,1.688702536299616e+18,15.594615804036458,-6.553598801294964,-19.76017983754476,-1.0316487948099773,1.688702536299616e+18,15.594615804036458,-9.61137056350708,-28.755347569783527,1.5002997517585754,1.688702536299616e+18,15.594615804036458,-3.0636176268259683,-8.97766367594401,2.4692611694335938,1.6887025363082688e+18,15.603268798828124,-1.6772323648134868,2.008423094948133,-2.2134193579355874,1.6887025363082688e+18,15.603268798828124,-1.678250432014465,2.013157308101654,-2.21112855275472,,,,,,,,,,,,1.6887025363036582e+18,15.598658105468749,-9.354959869384766,46.48199996948242,-18.429319763183592,1.6887025363036582e+18,15.598658105468749,-263.8957580566406,141.9469970703125,-151.64111938476563,1.688702536299616e+18,15.594615804036458,0.6196154952049255,-0.7571045160293579,0.2024942636489868,0.0346136265434324,-2.2164103190104165,1.1806104977925618,-1.1677430470784504
0.65,1.688702536351528e+18,15.64652791341146,29.110220432281498,1.4624493916829426,-6.228353500366211,1.688702536351528e+18,15.64652791341146,24.364318052927658,-6.45045147339503,-3.072982430458069,1.688702536351528e+18,15.64652791341146,-4.751748243967692,-7.8953962326049805,3.0926836331685386,1.6887025363601777e+18,15.655177734375,-2.243453582127889,-5.262146015961965,-5.396179914474487,1.6887025363601777e+18,15.655177734375,-2.2444206873575845,-5.25741175810496,-5.3938891887664795,,,,,,,,,,,,1.688702536353661e+18,15.648660791015624,1.1833999395370485,44.51779861450195,-22.90427932739258,1.688702536353661e+18,15.648660791015624,-253.35739135742188,139.98279724121093,-156.11607971191407,1.688702536351528e+18,15.64652791341146,0.5372308095296224,-0.7994401454925537,0.2502255737781524,0.0670644765098889,-2.3774548371632895,0.9744756619135538,-1.0376555919647217
0.7,1.6887025364034322e+18,15.698431966145831,18.287981351216633,-2.105480194091797,-5.896511872609456,1.6887025364034322e+18,15.698431966145831,12.49631675084432,-9.434102058410645,-2.8829525311787925,1.6887025364034322e+18,15.698431966145831,-5.797511100769043,-7.311117172241211,2.9508718649546304,1.6887025364120824e+18,15.707082600911455,-0.7297294586896897,1.8582520683606465,3.793116807937622,1.6887025364120824e+18,15.707082600911455,-0.7306966409087181,1.8629863262176511,3.79540753364563,,,,,,,,,,,,1.6887025364036582e+18,15.698658349609378,10.157719898223878,42.211998748779294,-25.30767974853516,1.6887025364036582e+18,15.698658349609378,-244.3830718994141,137.67699584960937,-158.51947631835938,1.6887025364034322e+18,15.698431966145831,0.4848506251970927,-0.8134531577428182,0.3171030978361766,0.0380319543182849,-2.5250539779663086,0.870096226533254,-1.0401628613471985
0.75,1.6887025364553326e+18,15.750332519531248,0.6516581376393634,4.787488142649333,-4.347495714823405,1.6887025364553326e+18,15.750332519531248,-3.599403460820516,-3.535395542780558,-1.2983057101567586,1.6887025364553326e+18,15.750332519531248,-4.25690762201945,-8.305379231770834,2.9865025679270425,1.688702536455335e+18,15.750335083007812,0.9873873293399812,-1.1577423512935638,3.3692272901535034,1.688702536455335e+18,15.750335083007812,0.9863946437835692,-1.1531608998775482,3.3715180158615112,,,,,,,,,,,,1.6887025364536602e+18,15.748660253906252,0.370879989862442,43.2929183959961,-25.297919845581056,1.6887025364536602e+18,15.748660253906252,-254.16991577148437,138.75791931152344,-158.509716796875,1.6887025364553326e+18,15.750332519531248,0.1760543783505757,-0.263213853041331,0.1042786836624145,0.0207584910094737,-2.343507448832194,1.0235985318819685,-1.2377642790476482
0.8,1.6887025365072404e+18,15.802240397135416,1.2638305028279622,6.459566434224446,-4.945952415466309,1.6887025365072404e+18,15.802240397135416,-1.742971897125244,-2.6634110609690347,-2.8883363405863443,1.6887025365072404e+18,15.802240397135416,-3.012648423512777,-9.105472882588703,1.9949286381403608,1.6887025364985848e+18,15.793584879557292,1.488169550895691,-1.6810502608617146,3.3328298727671304,1.6887025364985848e+18,15.793584879557292,1.4872532685597737,-1.676366925239563,3.335120598475138,1.68870253649859e+18,15.79358984375,0.0,0.0,3.3725318908691406,18.239999771118164,1.8305284976959229,141.8506622314453,43.400001525878906,-122.7530979,49.187332,1.688702536503658e+18,15.7986578125,-5.082519912719727,44.78863906860352,-22.474839401245116,1.688702536503658e+18,15.7986578125,-259.6233154296875,140.2536407470703,-155.68663940429687,1.6887025365072404e+18,15.802240397135416,-0.6124232212702433,0.7258090972900391,-0.3047706186771393,0.0661585939427216,-2.2787462075551352,1.1944674650828044,-1.403492530186971
0.85,1.6887025365591386e+18,15.854138509114582,13.203842957814537,-16.506948788960774,-3.925409177939098,1.6887025365591386e+18,15.854138509114582,11.794023195902506,-26.15873622894287,-2.764108935991923,1.6887025365591386e+18,15.854138509114582,-1.415665566921234,-9.63428274790446,1.0986128449440002,1.6887025365504914e+18,15.845491373697916,2.1725422938664756,4.581591208775838,2.668717543284098,1.6887025365504914e+18,15.845491373697916,2.1715750296910605,4.586325367291768,2.671059171358744,,,,,,,,,,,,1.6887025365536522e+18,15.84865224609375,-13.368759918212891,45.27663955688477,-18.58059959411621,1.6887025365536522e+18,15.84865224609375,-267.9095520019531,140.74163513183595,-151.79239807128906,1.6887025365591386e+18,15.854138509114582,-0.6746236880620321,0.6929091413815817,-0.2255518784125645,0.0887661203742026,-1.9028035004933672,1.3741508722305298,-1.6908930937449138
0.9,1.6887025366110446e+18,15.906044596354166,-6.713358163833618,-15.6316556930542,-1.7670414845148723,1.6887025366110446e+18,15.906044596354166,-8.019744316736857,-25.354548454284668,-1.5950157245000205,1.6887025366110446e+18,15.906044596354166,-1.3122324148813884,-9.705388069152832,0.1093383298284607,1.6887025366023967e+18,15.897396728515623,3.4376441637674966,15.125685373942057,-1.8749490876992545,1.6887025366023967e+18,15.897396728515623,3.4366769790649414,15.13036855061849,-1.8726583359142144,,,,,,,,,,,,1.68870253660366e+18,15.898660009765624,-20.85467987060547,46.29167861938477,1.112640047073364,1.68870253660366e+18,15.898660009765624,-275.3954833984375,141.75668029785157,-132.09915618896486,1.6887025366110446e+18,15.906044596354166,0.6850259900093079,-0.7086010177930196,-0.1007053952198475,0.1017662870387235,1.426232099533081,1.509041428565979,-0.0904735326766967
0.95,1.6887025366542904e+18,15.949290649414062,3.182295083999634,-2.3244762420654297,-1.6604959405958652,1.6887025366542904e+18,15.949290649414062,0.2685943245887755,-11.706884860992432,-1.6082759350538254,1.6887025366542904e+18,15.949290649414062,-2.9195468425750732,-9.364903926849363,-0.0104673579335212,1.6887025366542991e+18,15.949299316406249,0.0385354198515415,0.0139991144339243,-2.555351048707962,1.6887025366542991e+18,15.949299316406249,0.0375173116723696,0.0186314384142557,-2.5530603180329003,,,,,,,,,,,,1.6887025366536556e+18,15.94865546875,-8.652239799499512,48.29247970581055,12.17559986114502,1.6887025366536556e+18,15.94865546875,-263.1930358886719,143.75747680664062,-121.03619842529297,1.6887025366542904e+18,15.949290649414062,0.6118229627609253,-0.748236894607544,-0.2062127590179443,0.1523634418845176,3.023276686668396,1.3630142211914062,0.6338714361190796
1.0,1.688702536697552e+18,15.99255224609375,0.746253252029419,4.588538646697998,2.7851146856943765,1.688702536697552e+18,15.99255224609375,-1.9405791560808816,-4.85583480199178,2.5716861883799234,1.688702536697552e+18,15.99255224609375,-2.692678451538086,-9.426868756612144,-0.2761159141858418,1.6887025367062075e+18,16.001207845052082,-1.747430940469106,-6.488050619761149,1.2483540376027424,1.6887025367062075e+18,16.001207845052082,-1.7484490275382996,-6.483418146769206,1.2506956656773884,,,,,,,,,,,,1.6887025367036593e+18,15.998659277343751,-9.940560054779052,48.73167877197265,8.966999816894532,1.6887025367036593e+18,15.998659277343751,-264.4813537597656,144.1966766357422,-124.24479675292967,1.688702536697552e+18,15.99255224609375,0.6343807975451151,-0.7566027641296387,-0.124959923326969,0.0840137650569279,2.9757147630055747,1.387811303138733,0.4642105996608734
1.05,1.6887025367494625e+18,16.044462076822917,2.4443612098693848,9.650641759236654,1.5274264017740886,1.6887025367494625e+18,16.044462076822917,0.415354127685229,0.0476570601264635,1.909273068110148,1.6887025367494625e+18,16.044462076822917,-2.034853140513102,-9.585480054219564,0.3191592718164126,1.6887025367581125e+18,16.053112548828125,-3.149366617202759,-4.962618350982666,0.9616037209828696,1.6887025367581125e+18,16.053112548828125,-3.150333881378174,-4.957986036936442,0.9638944466908772,,,,,,,,,,,,1.68870253675366e+18,16.048659912109375,-14.215439796447754,48.59259948730469,-0.3538000643253326,1.68870253675366e+18,16.048659912109375,-268.75623779296876,144.05759887695314,-133.5655975341797,1.6887025367494625e+18,16.044462076822917,0.664681613445282,-0.745289941628774,0.025983735298117,0.0177289242856204,-2.6704889933268228,1.4338878790537517,-0.4828328142563502
1.1,1.688702536801367e+18,16.096366943359374,2.845492124557495,10.19839890797933,-0.0259473323822021,1.688702536801367e+18,16.096366943359374,0.8963115314642588,0.6907281478246053,1.539382537206014,1.688702536801367e+18,16.096366943359374,-1.9550265471140544,-9.490166346232096,1.5026424725850422,1.6887025368100168e+18,16.10501700846354,-2.60961635907491,-3.6298629442850743,0.3119485223044952,1.6887025368100168e+18,16.10501700846354,-2.6106344064076743,-3.6251288255055742,0.3142392642524404,,,,,,,,,,,,1.6887025368036582e+18,16.0986580078125,-14.959639739990234,47.270117950439456,-11.409439659118652,1.6887025368036582e+18,16.0986580078125,-269.500439453125,142.73511962890626,-144.6212371826172,1.688702536801367e+18,16.096366943359374,-0.6643949349721273,0.7282270391782125,-0.164041057229042,0.0095465840616573,-2.096397399902344,1.3333391745885212,-1.2933395703633626
1.15,1.6887025368532677e+18,16.148267333984375,2.2548741499582925,7.572751204172771,-1.528295397758484,1.6887025368532677e+18,16.148267333984375,0.3645066519578297,-1.8472591241200764,0.5912265901764234,1.6887025368532677e+18,16.148267333984375,-1.8962135314941408,-9.402505874633787,2.0568345387776694,1.6887025368619213e+18,16.15692154947917,-0.0291688044865926,-0.0730492894848187,0.3358231683572133,1.6887025368619213e+18,16.15692154947917,-0.0301869139075279,-0.0683659960826237,0.3381139114499092,,,,,,,,,,,,1.6887025368536604e+18,16.148660546875,-13.83723964691162,45.60847854614258,-17.804679489135744,1.6887025368536604e+18,16.148660546875,-268.37803955078124,141.07348022460937,-151.0164764404297,1.6887025368532677e+18,16.148267333984375,-0.6637563904126486,0.7128604650497437,-0.225322147210439,0.0217511386921008,-1.9850951035817463,1.273504892985026,-1.511674404144287
1.2,1.688702536905176e+18,16.200176025390626,-1.237258712450663,0.2432419459025065,2.409916043281555,1.688702536905176e+18,16.200176025390626,-2.9804600849747658,-9.251250823338829,4.302095810572307,1.688702536905176e+18,16.200176025390626,-1.74904731909434,-9.476988474527994,1.8294922908147175,1.6887025369051674e+18,16.20016735839844,1.2398273348808289,1.7350099682807922,-0.0099265603348613,1.6887025369051674e+18,16.20016735839844,1.238758385181427,1.739744246006012,-0.0076358150690794,,,,,,,,,,,,1.6887025369036598e+18,16.198659667968748,-15.074319458007812,46.176998138427734,-16.262599563598634,1.6887025369036598e+18,16.198659667968748,-269.6151123046875,141.6419921875,-149.47439575195312,1.688702536905176e+18,16.200176025390626,-0.6700492103894552,0.7148744066556295,-0.1985858877499897,0.0176468758533397,-1.9696366786956787,1.3063494364420574,-1.481749971707662
1.25,1.6887025369570796e+18,16.25207950846354,-5.44926102956136,-26.96909777323405,6.829752604166667,1.6887025369570796e+18,16.25207950846354,-7.3469624519348145,-36.41537094116211,8.794819831848145,1.6887025369570796e+18,16.25207950846354,-1.903547525405884,-9.42876879374186,1.9023793935775757,1.6887025369484247e+18,16.243424723307292,-0.468024601538976,2.0308724641799927,-0.9006189902623495,1.6887025369484247e+18,16.243424723307292,-0.4689917663733164,2.0355557203292847,-0.8983282645543417,,,,,,,,,,,,1.6887025369536563e+18,16.24865625,-14.849839782714843,46.75283966064453,-13.949479675292968,1.6887025369536563e+18,16.24865625,-269.39063720703126,142.21783752441405,-147.1612762451172,1.6887025369570796e+18,16.25207950846354,0.2191971540451049,-0.2453684210777282,0.0515299091736475,0.0208831640581289,-2.011316974957784,1.302257815996806,-1.3361262480417888
1.3,1.688702537008985e+18,16.303985595703125,-0.5389039516448975,-4.864239692687987,-1.563544789950053,1.688702537008985e+18,16.303985595703125,-3.122434218724569,-13.830315589904783,1.5411772231260936,1.688702537008985e+18,16.303985595703125,-2.5893762906392417,-8.9485715230306,3.04203462600708,1.6887025370003346e+18,16.29533447265625,-2.548529783884684,-0.3509930074214936,-1.7430530389149983,1.6887025370003346e+18,16.29533447265625,-2.5494461059570312,-0.3463096916675567,-1.7407623132069905,1.6887025370111498e+18,16.30614990234375,0.0,0.0,2.926908493041992,18.229999542236328,1.8640501499176023,136.6751708984375,43.400001525878906,-122.7530734,49.1873344,1.6887025370036667e+18,16.298666601562502,-12.556239700317382,45.95007934570312,-18.47811985015869,1.6887025370036667e+18,16.298666601562502,-267.09703369140624,141.41507568359376,-151.68991394042968,1.688702537008985e+18,16.303985595703125,0.6351426243782043,-0.7436104218165079,0.1944054712851841,0.0723593036333719,-2.04168430964152,1.1603203614552815,-1.276569167772929
1.35,1.6887025370608868e+18,16.35588688151042,28.321023901303608,-1.7702407836914062,-4.175025622049968,1.6887025370608868e+18,16.35588688151042,23.383461197217304,-9.484550952911375,-0.8725826342900596,1.6887025370608868e+18,16.35588688151042,-4.943406979242961,-7.696805636088054,3.239755471547445,1.6887025370522345e+18,16.347234293619792,-2.4512495199839273,-5.484297355016072,-5.481650273005168,1.6887025370522345e+18,16.347234293619792,-2.452216704686483,-5.479715824127197,-5.479308605194092,,,,,,,,,,,,1.688702537053661e+18,16.348660986328127,-1.2517199754714965,43.761399841308595,-24.639119720458982,1.688702537053661e+18,16.348660986328127,-255.79251403808593,139.2263977050781,-157.85091857910157,1.6887025370608868e+18,16.35588688151042,0.5240618387858073,-0.7943398952484131,0.2910340726375579,0.0568234051267305,-2.386906385421753,0.930678645769755,-1.1079944769541423
1.4,1.6887025371041377e+18,16.3991376953125,26.286674976348877,-7.062647342681886,-6.5856006145477295,1.6887025371041377e+18,16.3991376953125,20.107187271118164,-14.033605575561523,-3.4692938327789307,1.6887025371041377e+18,16.3991376953125,-6.185334920883179,-6.953453302383423,3.053619265556335,1.6887025371041426e+18,16.399142659505205,-0.5797620018323263,1.3528629938761394,1.8972456455230713,1.6887025371041426e+18,16.399142659505205,-0.5807292262713114,1.3575461705525715,1.899536371231079,,,,,,,,,,,,1.6887025371036585e+18,16.398658398437497,12.568439769744874,40.45519866943359,-27.259679794311523,1.6887025371036585e+18,16.398658398437497,-241.97235107421875,135.92019348144532,-160.4714782714844,1.6887025371041377e+18,16.3991376953125,0.4598298966884612,-0.816203773021698,0.3465638905763625,0.0374294556677341,-2.554677128791809,0.8107092082500458,-1.0625004172325134
1.45,1.688702537147394e+18,16.442394124348958,-1.841650168100993,2.970959027608236,-4.851895332336426,1.688702537147394e+18,16.442394124348958,-6.208776632944743,-5.136592547098796,-1.4293127457300825,1.688702537147394e+18,16.442394124348958,-4.37297248840332,-8.090046882629395,3.35989514986674,1.6887025371560435e+18,16.451043619791665,1.7413222789764404,0.3982332050800323,4.0073269208272295,1.6887025371560435e+18,16.451043619791665,1.7403041521708171,0.4029674430688223,4.009617726008098,,,,,,,,,,,,1.688702537153655e+18,16.44865498046875,-0.5441199779510498,42.55847930908203,-26.80583953857422,1.688702537153655e+18,16.44865498046875,-255.0849151611328,138.02347412109376,-160.01763916015625,1.688702537147394e+18,16.442394124348958,0.5554527242978414,-0.7712568839391073,0.3065507113933562,0.0408649059633413,-2.320069154103597,0.9831723173459372,-1.216808517773946
1.5,1.6887025371992937e+18,16.494293945312503,0.3545111020406087,8.897329012552897,-3.7383972803751626,1.6887025371992937e+18,16.494293945312503,-2.5615166823069253,-0.1786640885596474,-1.359920899073283,1.6887025371992937e+18,16.494293945312503,-2.9218738079071045,-9.058488527933756,2.3157889445622764,1.6887025372079409e+18,16.502940673828125,2.0275126695632935,-1.5558737913767495,3.3138930797576904,1.6887025372079409e+18,16.502940673828125,2.026443600654602,-1.5512923002243042,3.316234747568766,,,,,,,,,,,,1.6887025372036518e+18,16.49865166015625,-7.400519847869873,44.910638427734376,-22.50411949157715,1.6887025372036518e+18,16.49865166015625,-261.94130859375,140.375634765625,-155.71591796875,1.6887025371992937e+18,16.494293945312503,-0.619216779867808,0.7324824929237366,-0.2796484033266703,0.0313551416620611,-2.220540205637614,1.1820700565973918,-1.3732200860977173
1.55,1.6887025372511962e+18,16.54619620768229,4.335034211476644,-2.7166821161905923,-9.314875602722168,1.6887025372511962e+18,16.54619620768229,2.8490541776021323,-12.33639653523763,-7.995616753896077,1.6887025372511962e+18,16.54619620768229,-1.4918261369069417,-9.60221004486084,1.2565712928771973,1.6887025372598464e+18,16.554846191406252,1.3849842151006062,1.4587461551030476,2.6841418743133545,1.6887025372598464e+18,16.554846191406252,1.384017010529836,1.463480405509472,2.686432679494222,,,,,,,,,,,,1.6887025372536522e+18,16.548652294921872,-13.793319702148438,44.95699920654297,-19.097879791259764,1.6887025372536522e+18,16.548652294921872,-268.3341125488281,140.4219940185547,-152.30967712402344,1.6887025372511962e+18,16.54619620768229,-0.6659324566523234,0.6881557106971741,-0.2644757131735484,0.111266608039538,-1.9612072706222536,1.3487634658813477,-1.721720814704895
1.6,1.6887025373031027e+18,16.598102864583336,3.879817803700765,-28.633270263671875,-0.0636831521987914,1.6887025373031027e+18,16.598102864583336,2.7854447364807133,-38.381473541259766,0.3625126679738362,1.6887025373031027e+18,16.598102864583336,-1.1002193490664165,-9.730697313944498,0.3635084095100562,1.688702537311751e+18,16.6067509765625,3.657301108042399,16.795230865478516,-3.571423649787903,1.688702537311751e+18,16.6067509765625,3.656384944915771,16.79986317952474,-3.569132844607035,,,,,,,,,,,,1.688702537303652e+18,16.598652197265626,-20.337399673461913,45.92567825317383,-6.7295198202133175,1.688702537303652e+18,16.598652197265626,-274.87819213867186,141.39067687988282,-139.94131469726562,1.6887025373031027e+18,16.598102864583336,0.2262267470359802,-0.2504203915596008,-0.0741991673906644,0.0576552522058287,-2.11939267317454,1.482098380724589,-1.085422011713187
1.65,1.6887025373550057e+18,16.650005533854166,4.300203839937846,-7.46192200978597,-1.4779233535130818,1.6887025373550057e+18,16.650005533854166,0.9300103982289633,-16.66441472371419,-1.0783653904994328,1.6887025373550057e+18,16.650005533854166,-3.3760393460591636,-9.184988657633465,0.3368705213069916,1.6887025373550008e+18,16.65000061035156,0.3821725817397236,5.32941746711731,-5.248248815536499,1.6887025373550008e+18,16.65000061035156,0.381256281863898,5.33415162563324,-5.245958089828491,,,,,,,,,,,,1.688702537353656e+18,16.64865615234375,-6.490399783849716,48.53159866333008,10.489559841156003,1.688702537353656e+18,16.64865615234375,-261.0311981201172,143.99659729003906,-122.72223663330078,1.6887025373550057e+18,16.650005533854166,0.5840792854626974,-0.7631404995918274,-0.2146075169245401,0.1693991671005884,-1.0188476244608562,1.308743238449097,0.5271950562795004
1.7,1.6887025374069097e+18,16.701909912109375,2.214455485343933,6.128293991088867,2.7959388891855874,1.6887025374069097e+18,16.701909912109375,-1.208574856321017,-3.0741788943608603,2.8917261759440103,1.6887025374069097e+18,16.701909912109375,-3.4288763999938965,-9.184968312581384,0.0330998729914427,1.6887025373982556e+18,16.69325569661458,-1.2886711259682972,-6.516812006632487,1.528384804725647,1.6887025373982556e+18,16.69325569661458,-1.2896892329057057,-6.512179692586263,1.530675580104192,,,,,,,,,,,,1.6887025374036526e+18,16.698652685546875,-3.5721598982810976,49.17575912475586,10.16747989654541,1.6887025374036526e+18,16.698652685546875,-258.1129516601562,144.64075317382813,-123.04431762695312,1.6887025374069097e+18,16.701909912109375,0.5967691938082377,-0.7795476714769999,-0.1452522675196329,0.1074703161915143,3.126769463221232,1.3055921792984009,0.3782716790835063
1.75,1.6887025374588142e+18,16.75381437174479,6.110909382502238,11.379619598388672,2.0876384973526,1.6887025374588142e+18,16.75381437174479,3.783850342035294,1.8536399801572163,2.6335007349650064,1.6887025374588142e+18,16.75381437174479,-2.332904895146688,-9.508475303649902,0.4831748430927594,1.6887025374501632e+18,16.74516316731771,-3.434895277023315,-7.068016370137532,2.222378651301066,1.6887025374501632e+18,16.74516316731771,-3.4358624617258706,-7.063333034515381,2.2246694962183633,,,,,,,,,,,,1.688702537453652e+18,16.748652099609377,-11.741279792785644,49.24651947021484,0.7246800184249879,1.688702537453652e+18,16.748652099609377,-266.2820739746094,144.71151733398438,-132.48711547851562,1.6887025374588142e+18,16.75381437174479,0.6508004665374756,-0.7562821904818217,0.0385584328323602,0.0182511961708465,-2.663863023122152,1.3932552337646484,-0.5065920725464821
1.8,1.6887025375107192e+18,16.805719238281252,1.6312732299168904,10.648207664489746,-1.34898046652476,1.6887025375107192e+18,16.805719238281252,-0.3621137936909992,1.249851033091545,0.7238288273413976,1.6887025375107192e+18,16.805719238281252,-1.99923308690389,-9.380852063496908,2.0101219018300376,1.6887025375020677e+18,16.79706722005208,-3.8476874828338623,-2.5017985900243125,0.6357579926649729,1.6887025375020677e+18,16.79706722005208,-3.8486037254333496,-2.497064391771952,0.6380487283070881,,,,,,,,,,,,1.6887025375036524e+18,16.798652197265625,-15.127999687194825,47.26280059814453,-12.370799922943116,1.6887025375036524e+18,16.798652197265625,-269.6687927246094,142.72779541015626,-145.5825927734375,1.6887025375107192e+18,16.805719238281252,0.6613838076591492,-0.7294091383616129,0.1713180989027023,0.0172737017273902,-2.0399596293767295,1.2853636741638184,-1.322358250617981
1.85,1.688702537562627e+18,16.85762703450521,0.9151435295740764,6.660630544026692,-2.7927592992782593,1.688702537562627e+18,16.85762703450521,-1.5519448816776276,-2.396411856015523,0.1611167192459106,1.688702537562627e+18,16.85762703450521,-2.4729344050089517,-9.03953774770101,2.891188542048136,1.6887025375539794e+18,16.848979573567707,-1.6821702122688291,-2.139148275057474,-0.5577199595669905,1.6887025375539794e+18,16.848979573567707,-1.6831373771031697,-2.134515921274821,-0.5553783054153125,1.688702537536671e+18,16.8316708984375,0.0,0.0,2.9300947189331055,18.375999450683594,1.918529748916626,130.18710327148438,43.400001525878906,-122.7530378,49.1873365,1.6887025375536566e+18,16.848656640625002,-13.132079696655271,44.364079284667966,-21.2450798034668,1.6887025375536566e+18,16.848656640625002,-267.6728820800781,139.82907409667968,-154.45687866210938,1.688702537562627e+18,16.85762703450521,0.6414631406466166,-0.72414497534434,0.2520003666480382,0.0193664021790027,-2.0341320435206094,1.1666384140650432,-1.4449666341145833
1.9,1.6887025376058865e+18,16.90088659667969,1.9817196130752563,5.742090702056885,-0.5206440091133118,1.6887025376058865e+18,16.90088659667969,-0.998106099665165,-3.1977083683013916,2.318346083164215,1.6887025376058865e+18,16.90088659667969,-2.9856717586517334,-8.922294616699219,2.776302695274353,1.6887025376058826e+18,16.900882568359375,1.051095485687256,0.9717338979244232,-1.2431616981824238,1.6887025376058826e+18,16.900882568359375,1.0501282811164856,0.9763662616411845,-1.240820030371348,,,,,,,,,,,,1.688702537603658e+18,16.898657910156253,-9.179280090332032,45.02531967163086,-21.95023994445801,1.688702537603658e+18,16.898657910156253,-263.72007446289064,140.4903137207031,-155.16203918457032,1.6887025376058865e+18,16.90088659667969,0.6203538775444031,-0.7428794205188751,0.2506360709667205,0.0192633774131536,-2.165152668952942,1.148301601409912,-1.3126853108406067
1.95,1.6887025376491405e+18,16.944140543619792,-5.767580032348633,-13.332465807596842,4.420063018798828,1.6887025376491405e+18,16.944140543619792,-8.632506529490152,-22.47618103027344,6.60937484105428,1.6887025376491405e+18,16.944140543619792,-2.870772441228231,-9.126210848490397,2.1266243855158486,1.6887025376577905e+18,16.952790445963544,2.8458684285481772,1.9322176774342856,1.02487916747729,1.6887025376577905e+18,16.952790445963544,2.8449012438456216,1.9369519154230752,1.027169903119405,,,,,,,,,,,,1.6887025376536635e+18,16.94866357421875,-10.238239669799803,47.14079895019531,-16.40167942047119,1.6887025376536635e+18,16.94866357421875,-264.7790283203125,142.6057922363281,-149.6134765625,1.6887025376491405e+18,16.944140543619792,0.6264863610267639,-0.7550690372784933,0.1904233843088149,0.0188392441098888,-2.250477393468221,1.2213217814763386,-1.1383565664291382
2.0,1.688702537701038e+18,16.9960380859375,-3.351116895675659,-24.398471514383953,1.0816500584284463,1.688702537701038e+18,16.9960380859375,-5.6458650430043535,-33.71546936035156,3.21415905157725,1.688702537701038e+18,16.9960380859375,-2.3005942503611245,-9.299493789672852,2.06982159614563,1.6887025377096955e+18,17.00469571940104,-2.761772632598877,0.6123415430386862,-0.6271549463272095,1.6887025377096955e+18,17.00469571940104,-2.762688994407654,0.61697389682134,-0.6248133579889933,,,,,,,,,,,,1.68870253770366e+18,16.99866015625,-13.820159721374512,47.17983856201172,-14.134919738769533,1.68870253770366e+18,16.99866015625,-268.3609558105469,142.64483642578125,-147.34671630859376,1.688702537701038e+18,16.9960380859375,0.6496552030245463,-0.7442612051963806,0.1480019986629485,0.0405206276724735,-2.1198909282684326,1.270714600880941,-1.1755842765172322
2.05,1.6887025377529495e+18,17.047949381510417,2.028403162956238,0.5694843928019205,-2.532684842745463,1.6887025377529495e+18,17.047949381510417,-1.612164298693339,-7.913662751515706,0.7649056414763132,1.6887025377529495e+18,17.047949381510417,-3.646413485209147,-8.465642611185709,3.23490309715271,1.6887025377615951e+18,17.056595133463542,-2.653395016988118,-5.623269081115723,-5.732919295628865,1.6887025377615951e+18,17.056595133463542,-2.654413104057312,-5.61858590443929,-5.7306285699208575,,,,,,,,,,,,1.688702537753658e+18,17.0486576171875,-7.637199854850769,45.21808013916016,-21.589119720458985,1.688702537753658e+18,17.0486576171875,-262.17799377441406,140.6830810546875,-154.80091552734376,1.6887025377529495e+18,17.047949381510417,0.5881762901941935,-0.7710463007291158,0.2267101605733235,0.0738240008552868,-2.216817776362101,1.0653924942016602,-1.1493578751881917
2.1,1.6887025378048492e+18,17.09984920247396,42.61009852091471,-4.614957809448242,1.202515999476115,1.6887025378048492e+18,17.09984920247396,35.8813730875651,-11.405189673105877,3.4616167545318604,1.6887025378048492e+18,17.09984920247396,-6.734572569529216,-6.772727012634277,2.196413358052572,1.6887025378048532e+18,17.09985339355469,-1.3092369437217712,-4.486957758665085,-1.7968599796295166,1.6887025378048532e+18,17.09985339355469,-1.3102295994758606,-4.482299983501434,-1.7944166660308838,,,,,,,,,,,,1.6887025378036577e+18,17.0986578125,15.42811985015869,41.42387924194336,-24.03155937194824,1.6887025378036577e+18,17.0986578125,-239.1126739501953,136.88887634277344,-157.243359375,1.6887025378048492e+18,17.09984920247396,-0.1312567392985026,0.2791317303975423,-0.1276051104068755,0.0126244751736521,-2.706345637639364,0.7939956784248352,-0.9570447405179342
2.15,1.6887025378567578e+18,17.151757975260416,-4.1349968910217285,-0.1355905532836914,-5.4466633796691895,1.6887025378567578e+18,17.151757975260416,-9.235099156697592,-7.870392322540283,-2.1904298067092896,1.6887025378567578e+18,17.151757975260416,-5.105948289235433,-7.717297077178955,3.193546215693156,1.6887025378481073e+18,17.143107340494794,0.0121154934167861,4.285576065381368,3.9468512535095215,1.6887025378481073e+18,17.143107340494794,0.0111482900877793,4.2902592420578,3.9491419792175297,,,,,,,,,,,,1.6887025378536632e+18,17.148663134765627,6.888119864463806,41.98507919311523,-26.461799240112303,1.6887025378536632e+18,17.148663134765627,-247.65267333984377,137.4500762939453,-159.67359619140626,1.6887025378567578e+18,17.151757975260416,0.5188337167104086,-0.7933275103569031,0.3142964740594228,0.0390214677900075,-2.4336504141489663,0.9254141052563986,-1.1217133204142251
2.2,1.688702537908664e+18,17.203663981119792,-2.3840938409169516,7.431121985117595,-5.271851221720378,1.688702537908664e+18,17.203663981119792,-5.903292814890544,-1.288335621356964,-2.4053850173950195,1.688702537908664e+18,17.203663981119792,-3.5250449975331626,-8.701953252156576,2.803778886795044,1.6887025379000108e+18,17.195010986328125,0.7446956435839335,-1.889813462893168,4.00676695505778,1.6887025379000108e+18,17.195010986328125,0.7437284390131632,-1.8851810197035472,4.0090577602386475,,,,,,,,,,,,1.688702537903658e+18,17.1986580078125,-3.211039900779724,43.26607894897461,-25.644399642944336,1.688702537903658e+18,17.1986580078125,-257.7518341064453,138.7310791015625,-158.85619506835937,1.688702537908664e+18,17.203663981119792,-0.2089288632074991,0.2351614832878112,-0.1105573972066243,0.0263068235168853,-2.2672675450642905,1.0942994753519697,-1.354162057240804
2.25,1.6887025379605678e+18,17.255567952473957,1.8211217721303303,1.2783888181050618,-8.46666145324707,1.6887025379605678e+18,17.255567952473957,-0.3543372948964436,-8.077969948450724,-6.391029993693034,1.6887025379605678e+18,17.255567952473957,-2.1813050905863443,-9.33885415395101,2.012943744659424,1.68870253795192e+18,17.246919759114586,0.1265509178241094,-4.440226713816325,4.036648352940877,1.68870253795192e+18,17.246919759114586,0.1255837107698122,-4.4356452624003095,4.038939078648885,,,,,,,,,,,,1.688702537953657e+18,17.24865693359375,-7.410279846191406,42.9098388671875,-25.741999435424805,1.688702537953657e+18,17.24865693359375,-261.95107421875,138.3748352050781,-158.95379638671875,1.6887025379605678e+18,17.255567952473957,-0.6295039455095927,0.6737123926480612,-0.3625351389249165,0.1291178837418556,-2.1084543069203696,1.231326460838318,-1.7544450362523396
2.3,1.688702538012469e+18,17.307468912760417,15.477888743082682,-19.547893206278484,-1.8681778113047285,1.688702538012469e+18,17.307468912760417,14.520245711008709,-29.270601908365887,-0.8757729927698771,1.688702538012469e+18,17.307468912760417,-0.9634892145792644,-9.705204645792644,0.929717262585958,1.6887025380038213e+18,17.298821044921876,3.3242777983347573,7.607715686162312,1.1246029138565063,1.6887025380038213e+18,17.298821044921876,3.3233104944229126,7.61239908138911,1.126893679300944,,,,,,,,,,,,1.68870253800366e+18,17.2986599609375,-12.968599700927737,42.76831893920898,-23.519159698486327,1.68870253800366e+18,17.2986599609375,-267.50938720703124,138.23331604003906,-156.73095703125,1.688702538012469e+18,17.307468912760417,-0.67800372838974,0.6665838956832886,-0.2562536100546518,0.1373119081060091,-1.793601632118225,1.4006945689519246,-1.9178988933563232
2.35,1.688702538055726e+18,17.35072619628906,-2.8649044036865243,-21.982666969299316,2.0067102313041687,1.688702538055726e+18,17.35072619628906,-4.7763731479644775,-31.61277675628662,2.2037896513938904,1.688702538055726e+18,17.35072619628906,-1.91731458902359,-9.612606048583984,0.1343920445069669,1.6887025380557192e+18,17.35071940104167,2.9771535793940225,17.940399805704754,-5.082347869873047,1.6887025380557192e+18,17.35071940104167,2.9762372175852456,17.945082982381184,-5.080057144165039,1.688702538055718e+18,17.35071826171875,0.0,0.0,2.95086932182312,19.15800094604492,1.972163200378418,124.6530990600586,43.400001525878906,-122.753,49.1873403,1.688702538053658e+18,17.348658203125,-16.926279640197755,46.99683837890625,-1.093119978904724,1.688702538053658e+18,17.348658203125,-271.4670715332031,142.4618377685547,-134.30491638183594,1.688702538055726e+18,17.35072619628906,0.6619947850704193,-0.7366056144237518,-0.0767195476219057,0.0796753522008656,-2.9277849197387695,1.4633249640464785,0.0090617835521698
2.4,1.688702538098976e+18,17.39397591145833,7.082731564839681,-3.796353499094646,-1.738068262736003,1.688702538098976e+18,17.39397591145833,3.355734258890152,-12.858630021413168,-1.0121639569600422,1.688702538098976e+18,17.39397591145833,-3.732843399047851,-9.044772148132324,0.6632168889045715,1.6887025381076303e+18,17.40263037109375,-0.5920302470525106,-2.4027876059214273,-0.9773334277172884,1.6887025381076303e+18,17.40263037109375,-0.5930992364883423,-2.398104190826416,-0.9750426560640336,,,,,,,,,,,,1.688702538103661e+18,17.3986609375,-3.3208399772644044,49.26115951538086,9.730719947814942,1.688702538103661e+18,17.3986609375,-257.86163330078125,144.72615966796874,-123.4810775756836,1.688702538098976e+18,17.39397591145833,0.5644951065381368,-0.7781661550203959,-0.2084088573853174,0.1786490927139918,-2.9991981983184814,1.264487862586975,0.4189399381478627
2.45,1.6887025381508751e+18,17.44587508138021,2.628887335459391,7.268398920694987,3.015719254811605,1.6887025381508751e+18,17.44587508138021,-0.6071787575880686,-2.000798591723045,3.2514472007751465,1.6887025381508751e+18,17.44587508138021,-3.2419121265411377,-9.25169277191162,0.1730405588944752,1.6887025381595333e+18,17.454533610026044,-2.6654595534006753,-8.28755791982015,2.2577070395151773,1.6887025381595333e+18,17.454533610026044,-2.6664777596791587,-8.282976468404135,2.259997765223185,,,,,,,,,,,,1.688702538153659e+18,17.448658642578124,-8.166679859161377,49.47587966918945,4.306599915027618,1.688702538153659e+18,17.448658642578124,-262.707470703125,144.9408752441406,-128.9051986694336,1.6887025381508751e+18,17.44587508138021,0.609326183795929,-0.783608615398407,-0.0731577950840194,0.0709917452186345,-3.0373578866322837,1.32211168607076,0.1022449086109797
2.5,1.6887025382027889e+18,17.49778881835937,4.3324315547943115,10.951217651367188,1.2773820161819458,1.6887025382027889e+18,17.49778881835937,1.9226329922676089,1.4628122250239055,2.1074785391489663,1.6887025382027889e+18,17.49778881835937,-2.415644566218058,-9.470901171366377,0.7674090961615244,1.6887025382114378e+18,17.506437988281252,-3.5730017026265464,-5.117574532826741,1.3344351053237915,1.6887025382114378e+18,17.506437988281252,-3.5739179452260337,-5.11289111773173,1.3367258707682292,,,,,,,,,,,,1.68870253820366e+18,17.498660009765626,-12.614799880981446,48.71703948974609,-7.063799810409546,1.68870253820366e+18,17.498660009765626,-267.1555969238281,144.18203735351562,-140.27559814453124,1.6887025382027889e+18,17.49778881835937,-0.2184123396873474,0.2436535755793253,-0.0732260743776957,0.0171370094176381,-2.536443551381429,1.3609466155370076,-0.7833017806212107
2.55,1.6887025382546944e+18,17.549694498697917,0.7133838335673014,10.648770650227863,-1.1073505878448486,1.6887025382546944e+18,17.549694498697917,-1.433699607849121,1.2981062928835552,1.0450652639071147,1.6887025382546944e+18,17.549694498697917,-2.1529294649759927,-9.333159764607748,2.0897284746170044,1.688702538254695e+18,17.549694702148436,-3.5272886753082275,-3.859064817428589,1.079246163368225,1.688702538254695e+18,17.549694702148436,-3.528281331062317,-3.854406952857971,1.0815369486808777,,,,,,,,,,,,1.6887025382536576e+18,17.548657568359374,-12.775839805603027,45.35471878051758,-18.25851993560791,1.6887025382536576e+18,17.548657568359374,-267.31663208007814,140.81971740722656,-151.47031860351564,1.6887025382546944e+18,17.549694498697917,-0.6505495508511862,0.7153046528498331,-0.2496963292360305,0.0378362375001112,-2.084970474243164,1.2550218900044758,-1.4717642068862915
2.6,1.6887025383065925e+18,17.60159228515625,1.829107443491618,7.326151371002197,-3.2598556677500405,1.6887025383065925e+18,17.60159228515625,-0.5116652411719164,-1.7641084392865498,-0.2997010350227356,1.6887025383065925e+18,17.60159228515625,-2.34661873181661,-9.072755495707192,2.8974672158559165,1.688702538297947e+18,17.592946533203126,-1.9510526657104492,-2.8510099252065024,0.2686789035797119,1.688702538297947e+18,17.592946533203126,-1.951968987782796,-2.8463266690572104,0.271020549039046,,,,,,,,,,,,1.688702538303658e+18,17.59865810546875,-10.665239906311037,42.23395919799805,-25.961599349975582,1.688702538303658e+18,17.59865810546875,-265.20603637695314,137.69895629882814,-159.17340087890625,1.6887025383065925e+18,17.60159228515625,-0.6375245849291483,0.6854424476623535,-0.3465452194213866,0.0571621023118495,-2.0311859448750815,1.1529168287913003,-1.7028196255366008
2.65,1.6887025383585004e+18,17.653500406901042,0.7226158777872721,2.048537095387777,0.0657978057861328,1.6887025383585004e+18,17.653500406901042,-1.9525432797769704,-6.996214707692464,2.874976396560669,1.6887025383585004e+18,17.653500406901042,-2.6810052394866943,-9.027247111002604,2.7464911937713623,1.688702538349852e+18,17.644851806640627,0.8067493794175485,0.4614577492078145,-0.7920376857121786,1.688702538349852e+18,17.644851806640627,0.8057821564531574,0.4660901625951131,-0.7896960576375326,,,,,,,,,,,,1.688702538353658e+18,17.6486580078125,-7.903159713745117,42.18027801513672,-27.43535919189453,1.688702538353658e+18,17.6486580078125,-262.44395141601564,137.64527587890626,-160.64715881347655,1.6887025383585004e+18,17.653500406901042,-0.6223841508229574,0.694881021976471,-0.3537210623423258,0.065509566416343,-2.1262079079945884,1.1470005512237549,-1.6316616535186768
2.7,1.6887025384104046e+18,17.70540437825521,-8.755387941996256,-27.62552483876546,4.632481575012207,1.6887025384104046e+18,17.70540437825521,-11.466007550557457,-36.86482238769531,6.627321243286133,1.6887025384104046e+18,17.70540437825521,-2.716465711593628,-9.221792221069336,1.9321520328521729,1.688702538401756e+18,17.696755859375,3.186171293258667,3.4296011130015054,-0.7152213752269745,1.688702538401756e+18,17.696755859375,3.185204108556112,3.4342335065205893,-0.7128797173500061,,,,,,,,,,,,1.6887025384036577e+18,17.698657470703125,-9.14755983352661,44.76911926269531,-21.733079528808595,1.6887025384036577e+18,17.698657470703125,-263.6883544921875,140.23411865234374,-154.94487609863282,1.6887025384104046e+18,17.70540437825521,-0.6267154216766357,0.7334796587626139,-0.256910319129626,0.0447485049565632,-2.261934995651245,1.2322051127751668,-1.3162872393925984
2.75,1.688702538462311e+18,17.757310709635416,-1.0604543685913084,-9.564528147379557,-1.1905463536580403,1.688702538462311e+18,17.757310709635416,-4.276971022288005,-18.45504379272461,1.4743775526682537,1.688702538462311e+18,17.757310709635416,-3.222362677256266,-8.873011589050293,2.60223650932312,1.6887025384536586e+18,17.74865869140625,-1.850056270758311,3.474754254023234,-2.4936028321584067,1.6887025384536586e+18,17.74865869140625,-1.8509726126988728,3.479437510172526,-2.491312106450399,,,,,,,,,,,,1.6887025384536607e+18,17.748660595703125,-10.477359771728516,46.51615905761719,-17.736359786987304,1.6887025384536607e+18,17.748660595703125,-265.0181518554688,141.9811553955078,-150.94815673828126,1.688702538462311e+18,17.757310709635416,0.6087497274080912,-0.7649109760920206,0.2035829325517018,0.0410210664849728,-2.2559451262156167,1.157273570696513,-1.120997627576192
2.8,1.6887025385055695e+18,17.800569458007814,-0.4606739282608031,0.6102583408355713,-1.9533894062042236,1.6887025385055695e+18,17.800569458007814,-5.364708304405212,-7.156932592391968,1.436590939760208,1.6887025385055695e+18,17.800569458007814,-4.9098803997039795,-7.749686241149902,3.3272929191589355,1.688702538505556e+18,17.800555826822915,-2.021963953971863,-8.197200655937195,-6.828658819198608,1.688702538505556e+18,17.800555826822915,-2.0229820609092712,-8.192517439524332,-6.826368093490601,,,,,,,,,,,,1.688702538503658e+18,17.79865791015625,-2.1398801267147065,44.864279174804686,-22.35283966064453,1.688702538503658e+18,17.79865791015625,-256.6806701660156,140.32927856445312,-155.56463623046875,1.6887025385055695e+18,17.800569458007814,0.525542750954628,-0.8089777231216431,0.2435587644577026,0.0831619165837764,-2.3947750329971313,0.9454967081546783,-0.9867875874042512
2.85,1.6887025385488146e+18,17.843814697265625,59.88055547078451,-4.916310469309489,7.904552618662517,1.6887025385488146e+18,17.843814697265625,52.88696273167928,-11.773086229960125,7.961718459924061,1.6887025385488146e+18,17.843814697265625,-6.999436537424724,-6.8392713864644366,-0.005521222949028,1.6887025385574694e+18,17.852469401041667,-1.64358389377594,-1.8020525773366292,2.751744255423546,1.6887025385574694e+18,17.852469401041667,-1.6446019609769185,-1.7973693211873372,2.7540349885821342,1.688702538574771e+18,17.86977099609375,0.0,0.0,2.95086932182312,19.249000549316406,1.9883850812911987,122.8691177368164,43.400001525878906,-122.7529844,49.1873422,1.6887025385536602e+18,17.84866025390625,22.70663948059082,42.25835952758789,-17.497239875793458,1.6887025385536602e+18,17.84866025390625,-231.83415832519532,137.72335510253907,-150.709033203125,1.6887025385488146e+18,17.843814697265625,-0.3761541744073232,0.8362417419751486,-0.3764892220497131,0.1237500607967376,-3.029191573460897,0.809301475683848,-0.8947806358337402
2.9,1.6887025386007214e+18,17.895721354166668,-4.628846327463786,0.0311255455017089,-1.9953835010528564,1.6887025386007214e+18,17.895721354166668,-9.78823979695638,-8.110073566436768,-0.1878365774949391,1.6887025386007214e+18,17.895721354166668,-5.165239493052165,-8.12369441986084,1.7448595364888508,1.6887025386093704e+18,17.90437044270833,0.1472694377104441,3.4861060778299966,4.195931673049927,1.6887025386093704e+18,17.90437044270833,0.146353135506312,3.490687688191732,4.198222398757935,,,,,,,,,,,,1.6887025386036585e+18,17.898658496093752,8.535120010375977,44.059078979492185,-22.099079513549803,1.6887025386036585e+18,17.898658496093752,-246.00567626953125,139.52407836914062,-155.31087951660157,1.6887025386007214e+18,17.895721354166668,-0.5070628126462301,0.7886151671409607,-0.339913765589396,0.0610510731736818,-2.65466578801473,1.00092875957489,-1.087539831797282
2.95,1.6887025386526277e+18,17.947627766927084,-4.425833463668823,5.697736581166585,-3.2494139671325684,1.6887025386526277e+18,17.947627766927084,-7.789834181467692,-3.3884363174438477,-1.672583023707072,1.6887025386526277e+18,17.947627766927084,-3.369846820831299,-9.068668365478516,1.5141435861587524,1.688702538661276e+18,17.95627604166667,0.90576042731603,-3.617340326309204,4.455701986948649,1.688702538661276e+18,17.95627604166667,0.9046914180119832,-3.6127079327901206,4.457992712656657,,,,,,,,,,,,1.6887025386536602e+18,17.948660107421876,-2.837719905376434,45.34007873535156,-21.73795928955078,1.6887025386536602e+18,17.948660107421876,-257.378515625,140.8050750732422,-154.949755859375,1.6887025386526277e+18,17.947627766927084,-0.5862889091173807,0.7369669477144877,-0.3181747992833455,0.1020230824748674,-2.4809114933013916,1.195527116457621,-1.2753660281499226
3.0,1.6887025387045335e+18,17.999533528645834,12.774688084920248,-15.782160123189293,-1.973666826883952,1.6887025387045335e+18,17.999533528645834,11.536994695663452,-25.477778434753414,-1.1118648846944172,1.6887025387045335e+18,17.999533528645834,-1.2435394922892251,-9.67811393737793,0.7991143663724264,1.688702538704532e+18,17.99953198242188,-0.1689806059002876,-1.4138476252555847,4.8993682861328125,1.688702538704532e+18,17.99953198242188,-0.1698968894779681,-1.409113526344299,4.90165901184082,,,,,,,,,,,,1.6887025387036582e+18,17.99865810546875,-10.613999843597412,44.64467926025391,-21.384160232543945,1.6887025387036582e+18,17.99865810546875,-265.1547912597656,140.10967712402345,-154.59595642089843,1.6887025387045335e+18,17.999533528645834,-0.6422913273175558,0.653242846330007,-0.3389162123203277,0.2109403610229491,-2.0069600741068525,1.3810309569040935,-1.9373996257781985
3.05,1.688702538756438e+18,18.051438232421877,0.3816008567810058,-17.31550947825114,8.052535514036814,1.688702538756438e+18,18.051438232421877,-0.5170490741729736,-27.086353302001953,8.299505253632862,1.688702538756438e+18,18.051438232421877,-0.9044959048430125,-9.753339767456056,0.184282215933005,1.688702538747779e+18,18.042779296874997,2.779182275136312,17.728225072224934,-2.0026708245277405,1.688702538747779e+18,18.042779296874997,2.7782660325368247,17.73290952046712,-2.000380093852679,,,,,,,,,,,,1.6887025387536632e+18,18.048663134765626,-21.359759902954103,45.60847854614258,-5.599800080060959,1.6887025387536632e+18,18.048663134765626,-275.9005554199219,141.07347412109374,-138.8115966796875,1.688702538756438e+18,18.051438232421877,-0.2437028288841247,0.2151867151260376,-0.1020116383830705,0.0667801580081383,-1.978822906812032,1.4952222506205242,-1.3009531522790592
3.1,1.6887025388083372e+18,18.103337239583336,-3.1194148461023965,0.2536967595418294,-1.8663756847381592,1.6887025388083372e+18,18.103337239583336,-4.975475947062175,-9.35972531636556,-2.5649063885211945,1.6887025388083372e+18,18.103337239583336,-1.861907124519348,-9.595917383829752,-0.7612180511156718,1.6887025387996905e+18,18.09469059244792,1.8865046103795369,-0.2399681806564331,-0.930602252483368,1.6887025387996905e+18,18.09469059244792,1.885588268438975,-0.2353358666102091,-0.92831152677536,,,,,,,,,,,,1.6887025388036628e+18,18.098662841796873,-15.635519790649417,47.62391967773438,8.266719627380372,1.6887025388036628e+18,18.098662841796873,-270.1763122558594,143.08891906738282,-124.94507751464845,1.6887025388083372e+18,18.103337239583336,0.2158117890357971,-0.2504812677701314,-0.0405277448395888,0.0320546524599194,2.5625928243001304,1.443262775739034,0.7274373769760132
3.15,1.688702538860243e+18,18.15524300130208,-0.2925988435745239,7.8388973871866865,2.7634666760762534,1.688702538860243e+18,18.15524300130208,-1.2626127849022548,-1.900299976269404,2.016950090726217,1.688702538860243e+18,18.15524300130208,-0.9758599797884624,-9.721692721048994,-0.8092039227485657,1.6887025388515914e+18,18.14659138997396,-1.49794336160024,-6.137719472249349,1.2800172170003254,1.6887025388515914e+18,18.14659138997396,-1.498859663804372,-6.132985273996989,1.2823588649431863,,,,,,,,,,,,1.6887025388536591e+18,18.1486591796875,-20.84735984802246,46.752838897705075,3.142719864845276,1.6887025388536591e+18,18.1486591796875,-275.3881591796875,142.21783752441405,-130.06907806396484,1.688702538860243e+18,18.15524300130208,-0.6966424187024435,0.7119054396947225,-0.0348711280773083,0.0679573913415272,1.8034332195917768,1.5191158056259155,1.192498524983724
3.2,1.6887025389121513e+18,18.207151285807292,-0.3907203078269958,10.800617218017578,0.9620412190755208,1.6887025389121513e+18,18.207151285807292,-1.134596715370814,1.0289137661457062,1.6087743838628132,1.6887025389121513e+18,18.207151285807292,-0.749722421169281,-9.754199028015137,0.5840457479159037,1.688702538903498e+18,18.198497884114584,-3.199101289113363,-4.65866216023763,0.1266527300079663,1.688702538903498e+18,18.198497884114584,-3.2000176111857095,-4.6540296872456866,0.1289943779508272,,,,,,,,,,,,1.688702538903654e+18,18.1986541015625,-21.242639541625977,46.011078643798825,-8.313079786300658,1.688702538903654e+18,18.1986541015625,-275.78343505859374,141.47607421875,-141.5248779296875,1.6887025389121513e+18,18.207151285807292,-0.6973883310953776,0.685873289903005,-0.1788703352212905,0.0984820773204167,-1.6062626441319785,1.4557499488194785,-1.931181788444519
