seconds_elapsed_rounded,accelerometer_time,accelerometer_seconds_elapsed,accelerometer_z,accelerometer_y,accelerometer_x,accelerometeruncalibrated_time,accelerometeruncalibrated_seconds_elapsed,accelerometeruncalibrated_z,accelerometeruncalibrated_y,accelerometeruncalibrated_x,gravity_time,gravity_seconds_elapsed,gravity_z,gravity_y,gravity_x,gyroscope_time,gyroscope_seconds_elapsed,gyroscope_z,gyroscope_y,gyroscope_x,gyroscopeuncalibrated_time,gyroscopeuncalibrated_seconds_elapsed,gyroscopeuncalibrated_z,gyroscopeuncalibrated_y,gyroscopeuncalibrated_x,location_time,location_seconds_elapsed,location_bearingAccuracy,location_speedAccuracy,location_verticalAccuracy,location_horizontalAccuracy,location_speed,location_bearing,location_altitude,location_longitude,location_latitude,magnetometer_time,magnetometer_seconds_elapsed,magnetometer_z,magnetometer_y,magnetometer_x,magnetometeruncalibrated_time,magnetometeruncalibrated_seconds_elapsed,magnetometeruncalibrated_z,magnetometeruncalibrated_y,magnetometeruncalibrated_x,orientation_time,orientation_seconds_elapsed,orientation_qz,orientation_qy,orientation_qx,orientation_qw,orientation_roll,orientation_pitch,orientation_yaw
0.0,1.6887029112459428e+18,90.00094295247396,1.7292943000793457,5.2323713302612305,-1.554953416188558,1.6887029112459428e+18,90.00094295247396,0.5427719155947367,-3.659223993619283,2.513660212357839,1.6887029112459428e+18,90.00094295247396,-1.1923683881759644,-8.874090830485025,4.005926211675008,1.6887029112459428e+18,90.00094295247396,0.3298163348808884,0.6465499699115754,-1.3922637303670249,1.6887029112459428e+18,90.00094295247396,0.3289000342289607,0.6509787241617838,-1.3899729251861572,1.688702911228642e+18,89.98364208984376,0.0,0.0,4.939575672149658,7.711999893188477,2.6064722537994385,183.14865112304688,43.400001525878906,-122.7536219,49.1878529,1.6887029112467817e+18,90.00178154296876,-29.055519104003903,37.993238830566405,-17.160519409179688,1.6887029112467817e+18,90.00178154296876,-286.4755126953125,132.61643676757814,-150.04291687011718,1.6887029112459428e+18,90.00094295247396,0.6511389215787252,-0.7280796766281128,0.1703296601772308,0.1292400956153869,-1.8519354263941448,1.1294317245483398,-1.349222183227539
0.05,1.688702911297848e+18,90.05284814453125,-7.6967272361119585,-21.62800947825114,17.345263322194416,1.688702911297848e+18,90.05284814453125,-9.721240997314451,-30.310482660929363,21.50968138376872,1.688702911297848e+18,90.05284814453125,-2.0303597450256348,-8.664968172709147,4.101731141408284,1.688702911297848e+18,90.05284814453125,0.7441356852650642,7.407046318054199,-6.370153903961182,1.688702911297848e+18,90.05284814453125,0.743117555975914,7.41147518157959,-6.367863019307454,,,,,,,,,,,,1.6887029112967777e+18,90.05177788085938,-24.846519470214844,43.593038940429686,-10.077199840545656,1.6887029112967777e+18,90.05177788085938,-282.2665161132812,138.21624145507812,-142.9595977783203,1.688702911297848e+18,90.05284814453125,0.5872343182563782,-0.7717351118723551,0.0581435636462022,0.2240729729334513,-2.0188891092936196,1.0845869779586792,-0.8791210254033407
0.1,1.6887029113497477e+18,90.1047478841146,-3.879578034083048,-8.706409772237143,3.720990975697836,1.6887029113497477e+18,90.1047478841146,-7.353143930435181,-16.233906110127766,9.011569499969482,1.6887029113497477e+18,90.1047478841146,-3.4794119199117026,-7.509992281595866,5.227890809377034,1.6887029113497477e+18,90.1047478841146,-2.340173880259196,3.000773628552755,-4.905553340911865,1.6887029113497477e+18,90.1047478841146,-2.341090202331543,3.0052024523417153,-4.903262615203857,,,,,,,,,,,,1.6887029113467835e+18,90.10178388671876,-11.187399959564209,49.63447952270508,-5.880399990081787,1.6887029113467835e+18,90.10178388671876,-268.6073974609375,144.25767517089844,-138.7627960205078,1.6887029113497477e+18,90.1047478841146,0.4486711223920186,-0.8207668463389078,-0.0443105945984521,0.3485610584417979,-2.1532017389933267,0.876559336980184,-0.3876101374626159
0.15,1.6887029114016433e+18,90.15664322916666,13.644109408060707,-3.297182559967041,6.421127398808797,1.6887029114016433e+18,90.15664322916666,7.641877333323161,-9.202197710673014,10.872188170750936,1.6887029114016433e+18,90.15664322916666,-6.008078416188558,-5.887510458628337,4.388373255729675,1.6887029114016433e+18,90.15664322916666,-3.734728336334229,-17.48520282904307,-1.2150110403696694,1.6887029114016433e+18,90.15664322916666,-3.735746383666992,-17.48077463110288,-1.212720314661662,,,,,,,,,,,,1.6887029113967785e+18,90.15177856445312,0.8393599271774292,49.4099983215332,-12.612359619140625,1.6887029113967785e+18,90.15177856445312,-256.58063049316405,144.0332000732422,-145.49475708007813,1.6887029114016433e+18,90.15664322916666,0.339583824078242,-0.8922565976778666,0.0460846958061058,0.2419144411881764,-2.499467690785726,0.6469700535138448,-0.331030378739039
0.2,1.6887029114448996e+18,90.19989965820312,68.05496406555176,-2.9518256187438965,12.236223936080933,1.6887029114448996e+18,90.19989965820312,61.0800895690918,-9.846465110778809,12.219248294830322,1.6887029114448996e+18,90.19989965820312,-6.980721473693848,-6.877134799957275,-0.079662911593914,1.6887029114448996e+18,90.19989965820312,-3.389844059944153,-5.1713560819625854,5.593540191650391,1.6887029114448996e+18,90.19989965820312,-3.390836715698242,-5.166927337646484,5.5958311557769775,,,,,,,,,,,,1.688702911446778e+18,90.20177788085938,8.830359935760498,48.494999694824216,-15.576959800720214,1.688702911446778e+18,90.20177788085938,-248.58963928222656,143.11819458007812,-148.45935668945313,1.6887029114448996e+18,90.19989965820312,-0.3671576678752899,0.8953839242458344,-0.2308938354253768,0.0978118292987346,-0.0063239336013793,0.7794176936149597,-0.5029851198196411
0.25,1.6887029114881495e+18,90.24314957682292,2.0839242935180664,0.0313994089762369,3.0568408966064453,1.6887029114881495e+18,90.24314957682292,-3.553341637055079,-7.532406171162923,5.651647567749023,1.6887029114881495e+18,90.24314957682292,-5.643112023671468,-7.546300888061523,2.5321191946665444,1.6887029114881495e+18,90.24314957682292,-1.0312423209349315,9.397143681844076,1.9882136583328247,1.6887029114881495e+18,90.24314957682292,-1.0322095255057018,9.401572545369469,1.9905044237772624,,,,,,,,,,,,1.6887029114967803e+18,90.25178032226562,-4.587199997901917,47.348199462890626,-18.536679458618163,1.6887029114967803e+18,90.25178032226562,-262.00719299316404,141.97139892578124,-151.41907653808593,1.6887029114881495e+18,90.24314957682292,0.1726342538992563,-0.27987935145696,0.045549934109052,0.0647801893452803,-2.711005767186483,0.8790581027666727,-0.6518652041753134
0.3,1.688702911540051e+18,90.29505102539063,-3.8200106620788574,-0.9790385564168296,-0.580152670542399,1.688702911540051e+18,90.29505102539063,-7.140182971954346,-9.272785822550455,3.502095381418864,1.688702911540051e+18,90.29505102539063,-3.3260182539621987,-8.27624257405599,4.019560654958089,1.688702911540051e+18,90.29505102539063,1.92707622051239,5.964335600535075,2.928437074025472,1.688702911540051e+18,90.29505102539063,1.9261090358098347,5.968764305114746,2.9307278792063394,,,,,,,,,,,,1.688702911546777e+18,90.30177709960938,-17.228839302062987,46.38195877075195,-12.060919761657717,1.688702911546777e+18,90.30177709960938,-274.6488342285156,141.00515441894532,-144.9433166503906,1.688702911540051e+18,90.29505102539063,0.5412178436915079,-0.8117117683092753,0.0896794696648915,0.1947671423355737,-2.2482189337412515,1.0069394707679749,-0.7388783097267151
0.35,1.6887029115919532e+18,90.3469530436198,-5.346893946329753,-25.943607966105144,10.660522063573202,1.6887029115919532e+18,90.3469530436198,-6.274379730224609,-34.97150166829427,14.45344622929891,1.6887029115919532e+18,90.3469530436198,-0.9333317279815674,-9.010388374328612,3.7302370071411137,1.6887029115919532e+18,90.3469530436198,0.3929390758275985,0.7847582499186198,3.472616116205851,1.6887029115919532e+18,90.3469530436198,0.391920934120814,0.7891869942347208,3.474957863489786,,,,,,,,,,,,1.688702911596779e+18,90.35177919921875,-27.78427963256836,42.38767852783203,-4.850719881057739,1.688702911596779e+18,90.35177919921875,-285.2042724609375,137.01087951660156,-137.73312072753907,1.6887029115919532e+18,90.3469530436198,0.6320890386899313,-0.7380778988202413,0.0299293498198191,0.2325288405021031,-1.8047267198562624,1.1644662618637085,-1.0432770450909932
0.4,1.6887029116438572e+18,90.39885717773436,19.891271114349365,-12.654134432474772,5.891970316569011,1.6887029116438572e+18,90.39885717773436,18.134205500284832,-21.588244756062824,9.633105119069418,1.6887029116438572e+18,90.39885717773436,-1.762911836306254,-8.916606267293295,3.678447405497233,1.6887029116438572e+18,90.39885717773436,1.4234687685966492,2.408896287282307,-3.739615360895793,1.6887029116438572e+18,90.39885717773436,1.4224506169557571,2.41332483291626,-3.7373245557149257,,,,,,,,,,,,1.688702911646778e+18,90.40177817382812,-24.619599914550783,44.04443893432617,-7.083319759368896,1.688702911646778e+18,90.40177817382812,-282.0395935058594,138.66763916015626,-139.9657196044922,1.6887029116438572e+18,90.39885717773436,0.6025585730870565,-0.7652852336565653,0.0336857953419288,0.2181939433018365,-2.0093467235565186,1.1412208477656047,-0.8640832503636678
0.45,1.6887029116957614e+18,90.45076147460937,-7.593427022298177,2.8558791478474936,1.6265737215677898,1.6887029116957614e+18,90.45076147460937,-9.417551676432293,-6.308477322260539,4.711866696675618,1.6887029116957614e+18,90.45076147460937,-1.8299708366394043,-9.146851857503256,3.022605578104655,1.6887029116957614e+18,90.45076147460937,2.4615832964579263,2.2542964220046997,-0.9803369343280792,1.6887029116957614e+18,90.45076147460937,2.460616151491801,2.258725086847941,-0.977995256582896,,,,,,,,,,,,1.6887029116967795e+18,90.45177944335936,-19.38580017089844,46.801639556884766,4.572559951245784,1.6887029116967795e+18,90.45177944335936,-276.80579833984376,141.42483825683593,-128.3098358154297,1.6887029116957614e+18,90.45076147460937,0.5724387168884277,-0.7613688111305237,-0.108198973039786,0.2837011019388834,-2.111194292704264,1.2031792799631755,-0.4588819841543833
0.5,1.6887029117476657e+18,90.50266560872396,-1.3577133019765215,10.086301485697428,0.2666759093602499,1.6887029117476657e+18,90.50266560872396,-2.949153939882914,0.6921239693959554,2.719841758410136,1.6887029117476657e+18,90.50266560872396,-1.5972867012023926,-9.376673380533854,2.3904784520467124,1.6887029117476657e+18,90.50266560872396,-0.055792341629664,-3.2917492389678955,2.3674591779708862,1.6887029117476657e+18,90.50266560872396,-0.0567595462004343,-3.2873204549153647,2.369749903678894,1.6887029117476657e+18,90.50266577148436,0.0,0.0,4.939575672149658,7.706999778747559,2.5912036895751953,182.5924072265625,43.400001525878906,-122.7536207,49.1878355,1.688702911746777e+18,90.50177724609377,-21.35,45.68411865234375,6.661199855804443,1.688702911746777e+18,90.50177724609377,-278.7699951171875,140.30731201171875,-126.22119750976564,1.6887029117476657e+18,90.50266560872396,0.6059203743934631,-0.7563102841377258,-0.0857477399210134,0.2295186668634413,-2.1475441455841064,1.2743537823359172,-0.539139598608017
0.55,1.6887029117995684e+18,90.5545685221354,-2.2609916528066,11.69705295562744,-1.0954866806666057,1.6887029117995684e+18,90.5545685221354,-2.6865416367848716,2.265604257583618,1.6528422435124714,1.6887029117995684e+18,90.5545685221354,-0.4313960025707881,-9.413944244384766,2.6856415271759033,1.6887029117995684e+18,90.5545685221354,-0.9467393358548484,-2.4284947713216147,3.955912431081136,1.6887029117995684e+18,90.5545685221354,-0.9477574427922568,-2.4240660667419434,3.958254098892212,,,,,,,,,,,,1.6887029117967816e+18,90.55178144531251,-29.821680068969727,41.06275863647461,1.0101599514484405,1.6887029117967816e+18,90.55178144531251,-287.2416748046875,135.6859558105469,-131.8722351074219,1.6887029117995684e+18,90.5545685221354,0.6641940275828043,-0.7207417686780294,-0.006224274324874,0.1953793118397394,-1.7212172746658323,1.2855981190999348,-1.1312893827756243
0.6,1.6887029118514665e+18,90.60646647135415,-3.985478719075521,11.303802808125814,-2.7733732064565024,1.6887029118514665e+18,90.60646647135415,-2.882154901822408,2.0037895838419595,0.2562314073244731,1.6887029118514665e+18,90.60646647135415,1.0974777142206829,-9.282508850097656,2.9669171969095864,1.6887029118514665e+18,90.60646647135415,0.1095994065205255,-1.392925461133321,2.8635836442311606,1.6887029118514665e+18,90.60646647135415,0.1086322044332822,-1.3884966770807905,2.8658743699391684,,,,,,,,,,,,1.6887029118467794e+18,90.6017794433594,-38.24699935913086,34.05263977050781,-3.074399948120117,1.6887029118467794e+18,90.6017794433594,-295.6669982910156,128.67583770751952,-135.95679931640626,1.6887029118514665e+18,90.60646647135415,0.72726837793986,-0.6626902421315511,0.0541763889292875,0.1691980709632237,-1.2090580066045125,1.2392146190007527,-1.767422795295715
0.65,1.6887029118947223e+18,90.64972241210938,-1.0150826573371887,8.406991481781006,-2.4538849592208862,1.6887029118947223e+18,90.64972241210938,-0.2467598915100097,-0.9652048796415328,0.4232305288314819,1.6887029118947223e+18,90.64972241210938,0.7624768018722534,-9.354691982269289,2.8144280910491943,1.6887029118947223e+18,90.64972241210938,0.9176723062992096,-5.697005748748779,-2.239355571568012,1.6887029118947223e+18,90.64972241210938,0.9167560338974,-5.692577004432678,-2.2369885370135307,,,,,,,,,,,,1.6887029118967816e+18,90.65178154296876,-37.512559509277345,33.769599533081056,-7.900719928741455,1.6887029118967816e+18,90.65178154296876,-294.93255615234375,128.3927978515625,-140.78311462402343,1.6887029118947223e+18,90.64972241210938,0.7258881628513336,-0.6707557439804077,0.0938825048506259,0.1142336465418338,-1.3031370639801023,1.262840449810028,-1.8092440366744995
0.7,1.6887029119379722e+18,90.69297233072916,4.235557317733765,7.532411893208821,0.3476553757985433,1.6887029119379722e+18,90.69297233072916,2.3056840101877847,-1.831506331761678,2.488934357961019,1.6887029119379722e+18,90.69297233072916,-1.93571937084198,-9.346413612365724,2.0785915851593018,1.6887029119379722e+18,90.69297233072916,1.8919514815012617,-6.3363016446431475,-4.876995245615642,1.6887029119379722e+18,90.69297233072916,1.890933354695638,-6.331872781117757,-4.874704519907634,,,,,,,,,,,,1.6887029119467794e+18,90.70177949218753,-24.05839958190918,41.98019943237305,-16.238199615478514,1.6887029119467794e+18,90.70177949218753,-281.4783935546875,136.60339965820313,-149.12059936523437,1.6887029119379722e+18,90.69297233072916,-0.1842139760653177,0.2703649202982585,-0.0735701471567154,0.0303512355312704,-2.2854445377985635,1.26308008035024,-1.113825003306071
0.75,1.688702911989873e+18,90.744873046875,1.3308016459147136,-12.727787653605144,16.924875736236572,1.688702911989873e+18,90.744873046875,-2.5898316701253257,-21.462023735046387,18.965911467870075,1.688702911989873e+18,90.744873046875,-3.926478862762451,-8.716731389363607,1.9783485333124795,1.688702911989873e+18,90.744873046875,-0.0889317647864421,9.493100091814997,-4.87699540456136,1.688702911989873e+18,90.744873046875,-0.0898481446007887,9.497528925538065,-4.874653657277425,,,,,,,,,,,,1.6887029119967775e+18,90.75177778320314,-15.447639846801758,47.31647872924805,-13.38583984375,1.6887029119967775e+18,90.75177778320314,-272.8676391601563,141.9396759033203,-146.2682373046875,1.688702911989873e+18,90.744873046875,0.1653277277946472,-0.2879044612248738,0.0144831662376721,0.0666764861671253,-2.686844825744629,1.100725173950195,-0.6114680171012878
0.8,1.688702912041769e+18,90.79676912434896,-14.72578239440918,-23.059346834818523,14.036799112955729,1.688702912041769e+18,90.79676912434896,-18.550357818603516,-30.355547587076824,19.39283053080241,1.688702912041769e+18,90.79676912434896,-3.8304211298624673,-7.278696695963542,5.293344497680664,1.688702912041769e+18,90.79676912434896,-1.883195718129476,9.466680526733398,-4.9628221193949384,1.688702912041769e+18,90.79676912434896,-1.8841629823048909,9.471109390258787,-4.960480372111003,,,,,,,,,,,,1.6887029120467758e+18,90.80177592773438,-8.291119861602784,50.083439636230466,-7.803119945526123,1.6887029120467758e+18,90.80177592773438,-265.71111450195315,144.70663757324218,-140.68551635742188,1.688702912041769e+18,90.79676912434896,0.4344048500061035,-0.8320673306783041,-0.0264358439793189,0.337320218483607,-2.1978941758473716,0.8404692808787028,-0.3828573226928711
0.85,1.6887029120936735e+18,90.8486737467448,31.55770611763001,-5.180540402730306,-15.803089141845703,1.6887029120936735e+18,90.8486737467448,26.71107832590739,-10.495718002319336,-9.247661193211874,1.6887029120936735e+18,90.8486737467448,-4.852473656336467,-5.297673225402832,6.492739995320638,1.6887029120936735e+18,90.8486737467448,-5.903961658477783,-7.068423708279927,-1.885639190673828,1.6887029120936735e+18,90.8486737467448,-5.904929002126058,-7.063994884490967,-1.8833484649658203,,,,,,,,,,,,1.6887029120967736e+18,90.85177377929688,0.5977999210357666,48.299798583984376,-16.318719482421876,1.6887029120967736e+18,90.85177377929688,-256.8221923828125,142.922998046875,-149.20111999511718,1.6887029120936735e+18,90.8486737467448,0.3241536219914754,-0.8608447710673014,0.0253688742717107,0.3799040913581848,-2.2010161876678467,0.5759432514508566,-0.363787035147349
0.9,1.688702912145574e+18,90.9005741373698,15.976430575052897,-9.440641244252522,-7.711511929829915,1.688702912145574e+18,90.9005741373698,10.597013791402182,-14.116457303365072,-0.963509996732076,1.688702912145574e+18,90.9005741373698,-5.385263601938884,-4.658311684926351,6.685314655303955,1.688702912145574e+18,90.9005741373698,-1.7800104171037674,3.7015378872553506,4.566166877746582,1.688702912145574e+18,90.9005741373698,-1.7809266795714696,3.705966711044311,4.56845760345459,,,,,,,,,,,,1.6887029121467745e+18,90.901774609375,0.4709199786186218,44.134718322753905,-25.89327926635742,1.6887029121467745e+18,90.901774609375,-256.949072265625,138.75791625976564,-158.7756774902344,1.688702912145574e+18,90.9005741373698,0.3352523446083069,-0.8656085729598999,0.1523748487234115,0.3358727991580963,-2.244086662928263,0.4965630869070689,-0.5944936474164327
0.95,1.6887029121974853e+18,90.95248502604169,-1.2607488632202148,0.1909664471944173,-9.20149040222168,1.6887029121974853e+18,90.95248502604169,-4.531407833099365,-5.710271914800008,-2.026521404584249,1.6887029121974853e+18,90.95248502604169,-3.2765049934387207,-5.883733749389648,7.112281481424968,1.6887029121974853e+18,90.95248502604169,1.8478673299153645,1.48791499932607,3.4282267093658447,1.6887029121974853e+18,90.95248502604169,1.8469001054763792,1.492343783378601,3.4305174350738525,,,,,,,,,,,,1.6887029121967734e+18,90.9517734375,-13.044239616394044,42.953759002685544,-24.319479751586915,1.6887029121967734e+18,90.9517734375,-270.4642395019531,137.57695617675782,-157.2018798828125,1.6887029121974853e+18,90.95248502604169,0.4432049691677093,-0.8020720680554708,0.1481455117464065,0.3707987070083618,-1.9972501595815024,0.6450021862983704,-0.7905100584030151
1.0,1.6887029122493806e+18,91.00438037109376,-2.724566698074341,-3.376680215199789,-11.844881057739258,1.6887029122493806e+18,91.00438037109376,-5.103292465209961,-10.432906150817873,-5.391029357910156,1.6887029122493806e+18,91.00438037109376,-2.3845717906951904,-7.038721243540446,6.391163984934489,1.6887029122493806e+18,91.00438037109376,2.012902776400248,-0.5628614276647568,2.3829344113667807,1.6887029122493806e+18,91.00438037109376,2.011986494064331,-0.5584326336781184,2.385225137074789,1.6887029122666798e+18,91.0216796875,0.0,0.0,4.729524612426758,7.717000007629395,2.57492995262146,181.8086395263672,43.400001525878906,-122.753618,49.1878337,1.6887029122467748e+18,91.0017748046875,-19.65907974243164,42.534078216552736,-19.539519119262696,1.6887029122467748e+18,91.0017748046875,-277.0790771484375,137.15727844238282,-152.42191467285156,1.6887029122493806e+18,91.00438037109376,0.5173939168453217,-0.7768412232398987,0.1280755723516146,0.3344988624254862,-1.9227825800577796,0.8016414841016134,-0.9023327430089316
1.05,1.68870291230128e+18,91.05627978515626,10.70941730340322,-14.636086781819662,-1.6138715744018557,1.68870291230128e+18,91.05627978515626,8.924031654993692,-22.737398147583008,3.690530180931092,1.68870291230128e+18,91.05627978515626,-1.7912318309148152,-8.083806355794271,5.241714159647624,1.68870291230128e+18,91.05627978515626,3.3891313076019287,2.9584204157193503,-0.4072435299555461,1.68870291230128e+18,91.05627978515626,3.3882149855295816,2.962849239508311,-0.4049528042475382,,,,,,,,,,,,1.6887029122967744e+18,91.05177441406252,-23.81195945739746,42.2339584350586,-15.054800033569336,1.6887029122967744e+18,91.05177441406252,-281.2319580078125,136.8571563720703,-147.93719787597655,1.68870291230128e+18,91.05627978515626,0.5696435372034708,-0.7630351185798645,0.0779038673887649,0.2925604581832885,-1.8938231468200684,0.9704666336377462,-0.9287542899449668
1.1,1.6887029123445335e+18,91.0995333251953,-4.142142474651337,-30.23562908172607,16.229904174804688,1.6887029123445335e+18,91.0995333251953,-5.7475600242614755,-38.62613868713379,21.141185760498047,1.6887029123445335e+18,91.0995333251953,-1.611263394355774,-8.37300443649292,4.848594665527344,1.6887029123445335e+18,91.0995333251953,1.9389626383781433,11.05009412765503,-7.85893416404724,1.6887029123445335e+18,91.0995333251953,1.9380463361740112,11.05452299118042,-7.856643438339232,,,,,,,,,,,,1.6887029123467763e+18,91.10177631835936,-18.47811985015869,47.148119354248045,-1.3688400506973266,1.6887029123467763e+18,91.10177631835936,-275.8981079101562,141.7713165283203,-134.2512420654297,1.6887029123445335e+18,91.0995333251953,0.5053169578313828,-0.7522076368331909,-0.1138690672814845,0.403041049838066,-1.8863019347190857,1.024450182914734,-0.4751735329627991
1.15,1.688702912387792e+18,91.14279174804688,12.36829121907552,-1.662785053253174,6.979834079742432,1.688702912387792e+18,91.14279174804688,9.188638687133787,-9.715458075205484,11.676974614461264,1.688702912387792e+18,91.14279174804688,-3.1854983965555825,-8.035168647766113,4.634453137715657,1.688702912387792e+18,91.14279174804688,1.9706003665924072,3.165605495373408,-5.162014747659366,1.688702912387792e+18,91.14279174804688,1.969633142153422,3.1700342496236167,-5.1596731543540955,,,,,,,,,,,,1.6887029123967762e+18,91.15177631835935,3.720999908447266,50.40063934326171,8.405799770355225,1.6887029123967762e+18,91.15177631835935,-253.69899291992184,145.02383422851562,-124.47659759521484,1.688702912387792e+18,91.14279174804688,0.3802278935909271,-0.766487717628479,-0.269574537873268,0.4399772882461548,-2.170547882715861,0.9630856513977052,0.1373011268054445
1.2,1.6887029124396977e+18,91.19469767252605,1.5680814584096272,7.94444465637207,-1.3702014287312825,1.6887029124396977e+18,91.19469767252605,-1.8077775686979296,-0.398404985666275,2.618146777153015,1.6887029124396977e+18,91.19469767252605,-3.3817050457000732,-8.325345357259115,3.9256608486175537,1.6887029124396977e+18,91.19469767252605,-0.0010690142711003,-5.357695420583089,3.004744370778402,1.6887029124396977e+18,91.19469767252605,-0.0019853139917055,-5.353266716003418,3.0070350964864097,,,,,,,,,,,,1.6887029124467794e+18,91.20177944335936,-1.4127599954605103,49.98827896118164,10.379759788513184,1.6887029124467794e+18,91.20177944335936,-258.8327575683594,144.61147766113282,-122.50263824462893,1.6887029124396977e+18,91.19469767252605,0.419114092985789,-0.7793036699295044,-0.2508031527201334,0.3899153073628743,-2.2805190086364746,1.017414112885793,0.1212103230257828
1.25,1.688702912491593e+18,91.2465929361979,1.8622574011484785,12.48668638865153,-2.6893626848856607,1.688702912491593e+18,91.2465929361979,-0.8759725093841553,3.757728656133016,0.9463613629341124,1.688702912491593e+18,91.2465929361979,-2.7440759340922036,-8.711453119913736,3.5730366706848145,1.688702912491593e+18,91.2465929361979,-1.3868677616119385,-4.82853349049886,3.807319482167562,1.688702912491593e+18,91.2465929361979,-1.387834946314494,-4.82410462697347,3.8096611499786377,,,,,,,,,,,,1.6887029124967826e+18,91.25178266601564,-13.27847957611084,48.72679901123047,6.239079999923706,1.6887029124967826e+18,91.25178266601564,-270.69847412109374,143.35,-126.64331817626952,1.688702912491593e+18,91.2465929361979,0.5095089177290598,-0.7862568497657776,-0.1366956929365793,0.3186776240666707,-2.2196216583251953,1.096394419670105,-0.2459382837017377
1.3,1.688702912543497e+18,91.29849698893229,1.696588436762492,11.030502637227375,-2.7245028813680015,1.688702912543497e+18,91.29849698893229,-0.3200400372346242,2.2069801092147827,1.1541381279627485,1.688702912543497e+18,91.29849698893229,-2.022474487622579,-8.806018193562826,3.815953572591146,1.688702912543497e+18,91.29849698893229,-1.8091792662938435,-5.160284201304118,3.652515967686971,1.688702912543497e+18,91.29849698893229,-1.810146411259969,-5.1558553377787275,3.654806693394979,,,,,,,,,,,,1.6887029125467786e+18,91.30177880859377,-23.160479736328124,45.44499893188477,-2.6937599778175354,1.6887029125467786e+18,91.30177880859377,-280.5804748535156,140.06820068359374,-135.57615966796874,1.688702912543497e+18,91.29849698893229,0.5795633991559347,-0.7742844025293986,0.0005345700774341,0.2499117702245712,-2.049700697263082,1.116490324338277,-0.7275873819986979
1.35,1.688702912595404e+18,91.35040397135415,3.077474276224772,7.865059693654378,-4.027252197265625,1.688702912595404e+18,91.35040397135415,1.371087392171224,-0.9545368552207948,0.0133599241574605,1.688702912595404e+18,91.35040397135415,-1.7122328678766887,-8.80209223429362,3.9779247442881265,1.688702912595404e+18,91.35040397135415,-0.6708318640788397,-3.9953132470448818,1.958688497543335,1.688702912595404e+18,91.35040397135415,-0.67184995363156,-3.99088446299235,1.9609792629877727,,,,,,,,,,,,1.6887029125967803e+18,91.35178051757812,-27.584199523925783,41.47023849487304,-11.934039878845216,1.6887029125967803e+18,91.35178051757812,-285.0041870117187,136.09343566894532,-144.81643676757812,1.688702912595404e+18,91.35040397135415,0.6199573477109274,-0.7557723124821981,0.1165191158652305,0.1731552183628082,-1.9676806926727295,1.1141660610834758,-1.0915820201237996
1.4,1.6887029126473062e+18,91.40230615234375,2.5461247762044272,4.158779621124268,-0.486587921778361,1.6887029126473062e+18,91.40230615234375,0.9992028176784516,-4.746761957804362,3.4265219966570535,1.6887029126473062e+18,91.40230615234375,-1.5527680317560832,-8.888037045796713,3.850422541300456,1.6887029126473062e+18,91.40230615234375,0.4881831506888072,2.9097546885410943,-1.115490823984146,1.6887029126473062e+18,91.40230615234375,0.4872159461180369,2.9141835222641626,-1.1132000982761383,,,,,,,,,,,,1.6887029126467814e+18,91.40178159179688,-28.33571929931641,40.68455963134765,-13.483439636230468,1.6887029126467814e+18,91.40178159179688,-285.755712890625,135.3077606201172,-146.36583862304687,1.6887029126473062e+18,91.40230615234375,0.6295297145843506,-0.7498730818430582,0.1204217374324798,0.1612457533677418,-1.9448844989140828,1.134032130241394,-1.1375224987665813
1.45,1.688702912699209e+18,91.4542089029948,-11.328428586324057,-31.663007736206055,22.22362454732259,1.688702912699209e+18,91.4542089029948,-13.37149159113566,-40.09433619181315,26.86182721455892,1.688702912699209e+18,91.4542089029948,-2.048908948898315,-8.413822809855143,4.575515906016032,1.688702912699209e+18,91.4542089029948,-1.1488847931226094,6.673346519470215,-5.8396172523498535,1.688702912699209e+18,91.4542089029948,-1.1498011350631714,6.677775224049886,-5.837326526641846,,,,,,,,,,,,1.6887029126967823e+18,91.45178251953124,-23.39715919494629,45.50843887329101,-6.182959842681885,1.6887029126967823e+18,91.45178251953124,-280.81715087890626,140.131640625,-139.06535949707032,1.688702912699209e+18,91.4542089029948,0.5508561730384827,-0.7755560477574667,-0.0043196644013126,0.3017234901587168,-1.981944561004639,1.0349502563476562,-0.7053616444269816
1.5,1.6887029127511094e+18,91.506109375,-0.2331957817077636,-4.7014791170756025,-0.0497966607411702,1.6887029127511094e+18,91.506109375,-3.964707692464193,-11.863614559173584,5.557530164718628,1.6887029127511094e+18,91.506109375,-3.737357934315999,-7.144631067911784,5.544639269510905,1.6887029127511094e+18,91.506109375,-2.8888327280680337,-1.5103134190042813,-3.7767252922058105,1.6887029127511094e+18,91.506109375,-2.8897998332977295,-1.505884625017643,-3.7744345664978023,,,,,,,,,,,,1.6887029127467835e+18,91.50178364257812,-10.552999782562257,49.632039642333986,-6.946679782867432,1.6887029127467835e+18,91.50178364257812,-267.972998046875,144.25523681640624,-139.8290771484375,1.6887029127511094e+18,91.506109375,0.4312161008516947,-0.8293666044871012,-0.0221800000872462,0.3527563909689585,-2.1567393938700357,0.8206141193707784,-0.4069287876288096
1.55,1.688702912794363e+18,91.54936279296876,20.46561622619629,-2.7249677181243896,3.835824012756348,1.688702912794363e+18,91.54936279296876,13.83948802947998,-8.21605533361435,8.235795974731445,1.688702912794363e+18,91.54936279296876,-6.631974935531616,-5.473583459854126,4.337284684181213,1.688702912794363e+18,91.54936279296876,-3.6945892572402954,-18.586873531341553,-3.4658201932907104,1.688702912794363e+18,91.54936279296876,-3.695505619049072,-18.58244466781616,-3.463529467582702,1.6887029127857093e+18,91.54070922851562,0.0,0.0,4.6306843757629395,7.644999980926514,2.57395601272583,180.9484100341797,43.400001525878906,-122.7536158,49.1878144,1.688702912796782e+18,91.55178227539062,3.986959934234619,49.10011825561523,-14.649759483337402,1.688702912796782e+18,91.55178227539062,-253.4330291748047,143.72331848144532,-147.53215637207032,1.688702912794363e+18,91.54936279296876,0.3229942321777344,-0.909924566745758,0.0768326055258512,0.2210662886500358,-2.5515148639678955,0.5955512821674347,-0.3601892292499542
1.6,1.6887029128376092e+18,91.59260904947917,46.316539446512856,-3.9667431513468423,8.390584746996561,1.6887029128376092e+18,91.59260904947917,38.9812745253245,-10.338788668314615,9.68913737932841,1.6887029128376092e+18,91.59260904947917,-7.341110706329346,-6.354540824890137,1.2358651558558147,1.6887029128376092e+18,91.59260904947917,-2.67757511138916,-2.0253747701644897,3.84789111216863,1.6887029128376092e+18,91.59260904947917,-2.6785422960917153,-2.02099679907163,3.850181837876638,,,,,,,,,,,,1.6887029128467825e+18,91.601782421875,8.36187973022461,48.024079132080075,-17.755879592895507,1.6887029128467825e+18,91.601782421875,-249.0581176757813,142.64727783203125,-150.63827514648438,1.6887029128376092e+18,91.59260904947917,-0.1005918085575103,0.3107199072837829,-0.0677205721537272,0.0250648905833562,-2.969477891921997,0.7073482473691305,-0.5263445675373077
1.65,1.6887029128895168e+18,91.64451684570314,-0.1086883544921875,0.92779270807902,-1.2735555171966553,1.6887029128895168e+18,91.64451684570314,-5.968098322550456,-5.958327770233154,2.5371896425882974,1.6887029128895168e+18,91.64451684570314,-5.865255991617839,-6.868615786234538,3.748057762781779,1.6887029128895168e+18,91.64451684570314,-0.510530635714531,6.559318383534749,1.8906279404958088,1.6887029128895168e+18,91.64451684570314,-0.5114469130833944,6.56374724706014,1.8929186662038169,,,,,,,,,,,,1.6887029128967793e+18,91.65177934570312,-3.003639960289002,46.76259841918945,-20.664359664916994,1.6887029128967793e+18,91.65177934570312,-260.42363891601565,141.38579711914062,-153.54675903320313,1.6887029128895168e+18,91.64451684570314,0.4285892744859059,-0.8734933932622274,0.185259148478508,0.1297566791375477,-2.5664785703023276,0.7774175802866617,-0.6606902082761129
1.7,1.6887029129414134e+18,91.6964133300781,-2.9880199432373047,-3.060338815053304,-4.185830116271973,1.6887029129414134e+18,91.6964133300781,-6.741977214813232,-10.790035247802734,0.5824529131253561,1.6887029129414134e+18,91.6964133300781,-3.759803295135498,-7.712192058563232,4.70559565226237,1.6887029129414134e+18,91.6964133300781,0.8700757026672363,2.9345966577529907,3.978259881337484,1.6887029129414134e+18,91.6964133300781,0.8691594401995341,2.939025362332662,3.9806016286214194,,,,,,,,,,,,1.6887029129467817e+18,91.70178159179687,-14.68147964477539,45.51087875366211,-17.682679748535158,1.6887029129467817e+18,91.70178159179687,-272.1014831542969,140.1340759277344,-150.56507568359376,1.6887029129414134e+18,91.6964133300781,0.5159141421318054,-0.818906307220459,0.1381283005078633,0.20708596209685,-2.2345183690389,0.9071890513102212,-0.8040360808372498
1.75,1.68870291299332e+18,91.74831990559896,8.684469223022461,-24.427720069885257,5.189215660095215,1.68870291299332e+18,91.74831990559896,7.212765216827393,-32.924442291259766,9.939984957377115,1.68870291299332e+18,91.74831990559896,-1.47754967212677,-8.479217529296875,4.688081423441569,1.68870291299332e+18,91.74831990559896,0.3684026598930359,3.2214996814727783,1.719280242919922,1.68870291299332e+18,91.74831990559896,0.3674354453881581,3.225928544998169,1.7216219107309978,,,,,,,,,,,,1.6887029129967803e+18,91.75178061523437,-25.905479431152344,42.25591888427734,-13.437079811096192,1.6887029129967803e+18,91.75178061523437,-283.3254760742187,136.87911987304688,-146.31947631835936,1.68870291299332e+18,91.74831990559896,0.6107598940531412,-0.7489951451619467,0.1105840280652045,0.2296513020992278,-1.8678967157999675,1.0441375573476157,-1.099047025044759
1.8,1.6887029130452206e+18,91.800220703125,6.448296149571736,-10.292625745137531,3.763122876485189,1.6887029130452206e+18,91.800220703125,4.477569282054901,-18.77309004465739,8.366504669189453,1.6887029130452206e+18,91.800220703125,-1.9765729506810503,-8.462960243225098,4.540694077809651,1.6887029130452206e+18,91.800220703125,2.7987300554911294,8.368752161661783,-7.077637513478597,1.6887029130452206e+18,91.800220703125,2.7977119286855063,8.373180707295736,-7.07534662882487,,,,,,,,,,,,1.688702913046781e+18,91.80178095703124,-18.092599868774418,47.50191879272461,-0.7637199878692627,1.688702913046781e+18,91.80178095703124,-275.5126037597656,142.12511596679687,-133.6461151123047,1.6887029130452206e+18,91.800220703125,0.5334466497103373,-0.7689476013183594,-0.0572457493593295,0.3372499446074168,-1.9761991103490193,1.0421496629714966,-0.5771794319152832
1.85,1.688702913097127e+18,91.85212654622394,-5.452959060668945,3.53382937113444,-0.3973274230957031,1.688702913097127e+18,91.85212654622394,-8.295118649800619,-5.102096199989319,3.363511085510254,1.688702913097127e+18,91.85212654622394,-2.8480056126912436,-8.618420918782553,3.698151111602783,1.688702913097127e+18,91.85212654622394,2.5616633892059326,0.0744236906369527,-1.7905478477478027,1.688702913097127e+18,91.85212654622394,2.5606962045033774,0.0788525243600209,-1.78825710217158,,,,,,,,,,,,1.6887029130967803e+18,91.8517806152344,-4.919039916992188,49.61007919311523,10.577399921417236,1.6887029130967803e+18,91.8517806152344,-262.3390380859375,144.2332763671875,-122.30499725341797,1.688702913097127e+18,91.85212654622394,0.4599749545256297,-0.769596795241038,-0.2266829758882522,0.3797313372294108,-2.2268436749776206,1.0758839050928752,0.0016541530688603
1.9,1.6887029131490253e+18,91.9040253092448,1.3498180707295735,9.7837864557902,0.6526143550872803,1.6887029131490253e+18,91.9040253092448,-1.5609179933865864,0.817747155825297,3.4747773011525473,1.6887029131490253e+18,91.9040253092448,-2.9165821075439453,-8.948534965515137,2.7594755490620932,1.6887029131490253e+18,91.9040253092448,-0.7602726916472117,-5.970851421356201,2.9030861854553223,1.6887029131490253e+18,91.9040253092448,-0.7612399160861969,-5.96642271677653,2.90537691116333,,,,,,,,,,,,1.6887029131467768e+18,91.90177690429688,-10.904359722137452,48.507199096679685,10.753079605102538,1.6887029131467768e+18,91.90177690429688,-268.32435913085936,143.1303955078125,-122.1293197631836,1.6887029131490253e+18,91.9040253092448,0.5197372734546661,-0.7867545286814371,-0.1640597830216089,0.2858450810114543,-2.3793746630350747,1.1519623597462971,-0.0987463469306628
1.95,1.688702913200931e+18,91.95593115234374,1.2421867450078328,10.924834569295248,0.7591962814331055,1.688702913200931e+18,91.95593115234374,-0.7690930515527726,1.763510266939799,3.7232320308685303,1.688702913200931e+18,91.95593115234374,-2.0171258449554443,-9.1438201268514,2.901348352432251,1.688702913200931e+18,91.95593115234374,-1.6366097927093506,-4.6297984917958575,4.09865125020345,1.688702913200931e+18,91.95593115234374,-1.6375770171483357,-4.625369866689046,4.100941975911458,,,,,,,,,,,,1.6887029131967803e+18,91.95178056640626,-21.681839370727538,46.20139999389649,2.574199986457825,1.6887029131967803e+18,91.95178056640626,-279.1018371582031,140.82459411621093,-130.30819702148438,1.688702913200931e+18,91.95593115234374,0.5939518809318542,-0.7737956245740255,-0.0303036778544386,0.2133069535096486,-2.16652774810791,1.2023604313532512,-0.6224533021450043
2.0,1.688702913244183e+18,91.99918298339844,1.1757170259952543,10.48676300048828,-0.1001118421554565,1.688702913244183e+18,91.99918298339844,0.749252587556839,1.1814561486244202,3.0631120204925537,1.688702913244183e+18,91.99918298339844,-0.4323104647919535,-9.28780221939087,3.1005364656448364,1.688702913244183e+18,91.99918298339844,-0.0952949747443199,-1.228831797838211,5.323919773101807,1.688702913244183e+18,91.99918298339844,-0.096211276948452,-1.224402979016304,5.3262104988098145,,,,,,,,,,,,1.688702913246779e+18,92.00177880859374,-32.05915985107422,39.84519958496094,-3.4086798667907714,1.688702913246779e+18,92.00177880859374,-289.4791564941406,134.46839904785156,-136.29107666015625,1.688702913244183e+18,91.99918298339844,0.6691155433654785,-0.7196662724018097,0.0445183366537093,0.1783973425626754,-1.6955918073654177,1.2429744005203247,-1.253788411617279
2.05,1.6887029132874314e+18,92.0424315592448,-1.878696084022522,8.770790417989096,-1.6525437831878662,1.6887029132874314e+18,92.0424315592448,-0.5780660708745321,-0.4941178957621256,1.4000006516774497,1.6887029132874314e+18,92.0424315592448,1.2947839697202046,-9.247403780619305,2.989857037862142,1.6887029132874314e+18,92.0424315592448,0.5721771121025085,-0.9444995522499084,2.982804015278816,1.6887029132874314e+18,92.0424315592448,0.5712099075317383,-0.9400707483291626,2.9850947509209314,1.6887029133047386e+18,92.05973852539064,0.0,0.0,4.6306843757629395,7.605000019073486,2.5773141384124756,180.78396606445312,43.400001525878906,-122.7536144,49.1878049,1.6887029132967798e+18,92.05177958984376,-39.598759460449216,32.39587936401367,-3.589239978790283,1.6887029132967798e+18,92.05177958984376,-297.0187561035156,127.01907806396484,-136.4716339111328,1.6887029132874314e+18,92.0424315592448,0.7346424460411072,-0.6545554002126058,0.0589507222175597,0.1669236967960993,-1.155141274134318,1.2284215688705444,-1.8313270409901936
2.1,1.6887029133393377e+18,92.09433723958334,1.2098674376805625,6.154521147410075,1.826245864232381,1.6887029133393377e+18,92.09433723958334,1.7170496384302776,-3.1716864506403604,4.901697238286336,1.6887029133393377e+18,92.09433723958334,0.5013361871242523,-9.308703104654947,3.0127639770507812,1.6887029133393377e+18,92.09433723958334,0.1196786860624949,-1.0596475799878438,-3.296330690383911,1.6887029133393377e+18,92.09433723958334,0.1187623838583628,-1.055218795935313,-3.2940399646759033,,,,,,,,,,,,1.68870291334678e+18,92.1017798828125,-37.36127853393555,34.88711929321289,-8.003199768066406,1.68870291334678e+18,92.1017798828125,-294.7812744140625,129.51031646728515,-140.885595703125,1.6887029133393377e+18,92.09433723958334,0.7152640620867411,-0.6802863876024882,0.0974053839842478,0.1239726642767587,-1.3983654181162517,1.2481113672256472,-1.7051552136739094
2.15,1.688702913391236e+18,92.14623608398438,-0.8928303718566895,-17.349936485290527,21.22421868642171,1.688702913391236e+18,92.14623608398438,-2.711068113644918,-26.13779862721761,25.18465805053711,1.688702913391236e+18,92.14623608398438,-1.8240837454795835,-8.770357449849447,3.897752602895101,1.688702913391236e+18,92.14623608398438,-1.95660138130188,6.950272083282471,-8.439408620198568,1.688702913391236e+18,92.14623608398438,-1.9575685660044353,6.954700946807861,-8.43711789449056,,,,,,,,,,,,1.6887029133967828e+18,92.15178291015624,-24.900199127197265,44.515359497070314,-4.838519954681397,1.6887029133967828e+18,92.15178291015624,-282.3201965332031,139.13855895996093,-137.72091674804688,1.688702913391236e+18,92.14623608398438,0.5894674261411031,-0.767330269018809,0.0237239220490058,0.2369304647048314,-1.98426087697347,1.1139969031016033,-0.844380517800649
2.2,1.6887029134431409e+18,92.19814111328124,-7.551920096079509,-14.51770305633545,5.073252201080322,1.6887029134431409e+18,92.19814111328124,-11.23629633585612,-21.54377810160319,10.877373059590658,1.6887029134431409e+18,92.19814111328124,-3.690222183863322,-7.008571624755859,5.741433461507161,1.6887029134431409e+18,92.19814111328124,-3.4293466409047446,2.618728364507357,-5.021465063095093,1.6887029134431409e+18,92.19814111328124,-3.4303646882375083,2.623157197609544,-5.019174337387085,,,,,,,,,,,,1.6887029134467794e+18,92.2017794921875,-7.024759912490845,50.42503967285156,-5.882839870452881,1.6887029134467794e+18,92.2017794921875,-264.4447509765625,145.0482391357422,-138.765234375,1.6887029134431409e+18,92.19814111328124,0.4118435680866241,-0.8271523316701254,-0.0475287983814875,0.3771002789338429,-2.1385459105173745,0.8014927307764689,-0.3421800831953684
2.25,1.6887029134950454e+18,92.25004532877604,39.13825289408366,-9.67735799153646,-11.213726997375488,1.6887029134950454e+18,92.25004532877604,33.96771160761515,-14.72343647480011,-4.641078948974609,1.6887029134950454e+18,92.25004532877604,-5.176386038462321,-5.028574228286743,6.509960492451985,1.6887029134950454e+18,92.25004532877604,-6.381200313568115,-5.978487094243367,-1.2434162298838298,1.6887029134950454e+18,92.25004532877604,-6.382269064585368,-5.974058588345845,-1.241125504175822,,,,,,,,,,,,1.6887029134967777e+18,92.251777734375,0.6392799854278565,48.51451950073242,-16.997039794921875,1.6887029134967777e+18,92.251777734375,-256.780712890625,143.1377197265625,-149.8794372558594,1.6887029134950454e+18,92.25004532877604,0.3208692769209544,-0.8686275283495585,0.0624732392219205,0.3627906640370686,-2.233626365661621,0.543690691391627,-0.4177194933096568
2.3,1.6887029135469463e+18,92.30194628906249,4.979954719543457,-13.23241392771403,-7.00144084294637,1.6887029135469463e+18,92.30194628906249,0.287936210632323,-16.836897214253742,0.8342975179354349,1.6887029135469463e+18,92.30194628906249,-4.697864691416423,-3.5869789918263755,7.773050944010417,1.6887029135469463e+18,92.30194628906249,-1.881363183259964,6.154976526896159,2.8353819449742637,1.6887029135469463e+18,92.30194628906249,-1.8823303828636808,6.15940523147583,2.8376726706822715,,,,,,,,,,,,1.6887029135467814e+18,92.3017814941406,1.061400055885315,42.18271942138672,-29.56791954040527,1.6887029135467814e+18,92.3017814941406,-256.3586029052734,136.80592041015626,-162.4503173828125,1.6887029135469463e+18,92.30194628906249,0.2993713021278381,-0.8428128957748413,0.1645042399565378,0.4130956530570983,-2.1109116474787393,0.3762348492940266,-0.6022440989812216
2.35,1.6887029135988457e+18,92.35384545898438,-2.509207089742025,-0.8191644350687665,-12.606948216756184,1.6887029135988457e+18,92.35384545898438,-5.520441214243571,-5.193621635437012,-4.292325019836426,1.6887029135988457e+18,92.35384545898438,-3.0170801480611167,-4.356952508290608,8.251935958862305,1.6887029135988457e+18,92.35384545898438,0.7473936279614767,0.2689334526658058,2.4918211301167807,1.6887029135988457e+18,92.35384545898438,0.7464264233907064,0.2733621671795845,2.4941627581914267,,,,,,,,,,,,1.6887029135967816e+18,92.35178159179688,-12.273200035095217,40.51131973266602,-29.089679336547853,1.6887029135967816e+18,92.35178159179688,-269.6932006835938,135.13451538085937,-161.97207641601562,1.6887029135988457e+18,92.35384545898438,0.3807744085788727,-0.7889031569163004,0.1726261277993519,0.4500509003798167,-1.9177381594975789,0.4616947968800862,-0.7579521536827087
2.4,1.6887029136507502e+18,92.40575,0.2395110925038655,-5.239760557810466,-14.16897710164388,1.6887029136507502e+18,92.40575,-2.9489545027414956,-10.42054303487142,-6.409773667653401,1.6887029136507502e+18,92.40575,-3.1943116188049316,-5.163277784983317,7.696515719095866,1.6887029136507502e+18,92.40575,2.208226958910624,-0.503811111052831,0.4331034645438194,1.6887029136507502e+18,92.40575,2.207259774208069,-0.4993823568026225,0.4353942076365152,,,,,,,,,,,,1.6887029136467804e+18,92.40178046875,-14.852279663085938,41.128639221191406,-26.517919540405273,1.6887029136467804e+18,92.40178046875,-272.27227783203125,135.75183715820313,-159.4003173828125,1.6887029136507502e+18,92.40575,0.4154772460460663,-0.7962112824122111,0.1645098676284154,0.4074101249376933,-1.9606986840566,0.5559223492940267,-0.7852604985237122
2.45,1.6887029137026511e+18,92.45765128580727,9.02778148651123,-13.6997340520223,-2.0012189547220864,1.6887029137026511e+18,92.45765128580727,6.319843133290608,-20.499111811319988,4.563511510690053,1.6887029137026511e+18,92.45765128580727,-2.713784138361613,-6.78187354405721,6.502042770385742,1.6887029137026511e+18,92.45765128580727,5.601888815561931,3.088229318459829,-0.221031387646993,1.6887029137026511e+18,92.45765128580727,5.600921471913655,3.092658132314682,-0.2187406619389852,,,,,,,,,,,,1.6887029136967826e+18,92.45178256835938,-16.057639503479002,44.72031936645508,-18.5635196685791,1.6887029136967826e+18,92.45178256835938,-273.4776306152344,139.34351806640626,-151.44591674804687,1.6887029137026511e+18,92.45765128580727,0.4698095619678497,-0.7934543490409851,0.0705400545460482,0.3769717911879222,-1.961365858713786,0.7675580382347107,-0.7053065101305643
2.5,1.688702913745904e+18,92.50090393066408,-4.446581423282624,-35.89146614074707,12.212153911590576,1.688702913745904e+18,92.50090393066408,-6.317051872611046,-43.95136642456055,17.56780433654785,1.688702913745904e+18,92.50090393066408,-1.8763163685798645,-8.042394876480103,5.2929627895355225,1.688702913745904e+18,92.50090393066408,4.863174557685852,10.4732084274292,-6.519459247589111,1.688702913745904e+18,92.50090393066408,4.862258195877075,10.47763729095459,-6.5171685218811035,,,,,,,,,,,,1.6887029137467817e+18,92.50178159179688,-10.3382798910141,49.778438568115234,0.2757200241088867,1.6887029137467817e+18,92.50178159179688,-267.7582702636719,144.40163879394532,-132.60667724609374,1.688702913745904e+18,92.50090393066408,0.4502162784337997,-0.7535498738288879,-0.155803732573986,0.4494193196296691,-1.90814483165741,0.9632260501384736,-0.301959216594696
2.55,1.6887029137891574e+18,92.54415755208332,10.216359933217367,-6.341347058614095,9.985381285349527,1.6887029137891574e+18,92.54415755208332,6.80738091468811,-14.250256220499674,14.76052474975586,1.6887029137891574e+18,92.54415755208332,-3.414824962615967,-7.891404946645101,4.7124559084574384,1.6887029137891574e+18,92.54415755208332,1.6053538918495178,0.1075632174809771,-3.886273821194967,1.6887029137891574e+18,92.54415755208332,1.604386607805888,0.111991931994756,-3.883983095486959,1.6887029138145452e+18,92.56954516601564,0.0,0.0,4.6306843757629395,7.552999973297119,2.5785484313964844,180.63604736328125,43.400001525878906,-122.7536131,49.1877867,1.688702913796778e+18,92.5517779296875,6.173199987411499,50.737359619140626,8.4423996925354,1.688702913796778e+18,92.5517779296875,-251.24679565429688,145.36055603027344,-124.43999938964843,1.6887029137891574e+18,92.54415755208332,0.360883096853892,-0.7699927687644958,-0.282596747080485,0.4432247877120971,-2.195879062016805,0.9374858140945436,0.1955390547712643
2.6,1.688702913841057e+18,92.59605712890624,1.4899237155914309,8.682766278584799,-1.202296257019043,1.688702913841057e+18,92.59605712890624,-1.904487371444702,0.3667000730832417,2.8233313957850137,1.688702913841057e+18,92.59605712890624,-3.400257110595703,-8.298561731974283,3.962940216064453,1.688702913841057e+18,92.59605712890624,-0.2201660275459289,-5.483991940816243,3.9435933430989585,1.688702913841057e+18,92.59605712890624,-0.2210822999477386,-5.479563077290853,3.9458840688069663,,,,,,,,,,,,1.6887029138467784e+18,92.60177846679689,-1.720199966430664,50.43723907470703,9.59163990020752,1.6887029138467784e+18,92.60177846679689,-259.14020080566405,145.06043701171876,-123.29075622558594,1.688702913841057e+18,92.59605712890624,0.4221895933151245,-0.7834518154462179,-0.2393970340490341,0.3849078516165415,-2.27795934677124,1.0120611190795898,0.0924106109887361
2.65,1.6887029138929572e+18,92.6479571126302,0.6908255815505981,12.949392000834148,-1.4903217951456706,1.6887029138929572e+18,92.6479571126302,-1.6775680383046467,4.134598255157471,2.1862422625223794,1.6887029138929572e+18,92.6479571126302,-2.3742396434148154,-8.79728921254476,3.613876660664877,1.6887029138929572e+18,92.6479571126302,-1.300328493118286,-5.563404242197673,5.285256862640381,1.6887029138929572e+18,92.6479571126302,-1.3012447754542034,-5.558975537618001,5.287547747294108,,,,,,,,,,,,1.6887029138967798e+18,92.6517796875,-16.387039756774904,48.40959930419922,4.63843994140625,1.6887029138967798e+18,92.6517796875,-273.80703125,143.03279724121094,-128.24395904541015,1.6887029138929572e+18,92.6479571126302,0.534099817276001,-0.7787837187449137,-0.105415226270755,0.3066498339176178,-2.1431169509887695,1.1155166625976562,-0.389969860514005
2.7,1.6887029139448645e+18,92.69986442057292,1.153011977672577,11.408791542053224,-2.4381279150644937,1.6887029139448645e+18,92.69986442057292,0.7698906883597374,2.3840489983558655,1.4269199271996815,1.6887029139448645e+18,92.69986442057292,-0.3889673153559367,-9.007238388061523,3.8023603757222495,1.6887029139448645e+18,92.69986442057292,-0.643699233730634,-1.8712838490804036,5.9057943026224775,1.6887029139448645e+18,92.69986442057292,-0.6447682877381643,-1.8668550252914429,5.908136049906413,,,,,,,,,,,,1.6887029139467835e+18,92.70178383789062,-30.973359298706058,41.08959884643555,-3.0036399722099305,1.6887029139467835e+18,92.70178383789062,-288.3933471679687,135.71279907226562,-135.88603820800782,1.6887029139448645e+18,92.69986442057292,0.6476965745290121,-0.7185513178507487,0.0226728885124126,0.2483558257420857,-1.662596583366394,1.1637665033340454,-1.1515765984853108
2.75,1.688702913996764e+18,92.75176391601563,-3.9522769252459207,8.595568339029947,-2.3684508005777993,1.688702913996764e+18,92.75176391601563,-3.014158924420675,-0.6662017181515694,0.8155537148316702,1.688702913996764e+18,92.75176391601563,0.9322719573974608,-9.24426555633545,3.121317148208618,1.688702913996764e+18,92.75176391601563,2.351271271705627,3.507537285486857,-0.9838494459788004,1.688702913996764e+18,92.75176391601563,2.3503039677937827,3.5119661490122476,-0.98150767882665,,,,,,,,,,,,1.688702913996781e+18,92.75178090820312,-37.09531936645508,36.36575927734375,2.078879934549332,1.688702913996781e+18,92.75178090820312,-294.51531372070315,130.98895874023438,-130.80351715087892,1.688702913996764e+18,92.75176391601563,0.6928335825602213,-0.670026421546936,-0.0256913375730315,0.2635074158509572,-1.268474022547404,1.2311508258183796,-1.4550845623016355
2.8,1.6887029140486715e+18,92.803671875,-2.0772365430990853,10.232699394226074,3.600476344426473,1.6887029140486715e+18,92.803671875,-2.2989042599995932,0.6438686984280745,5.724429607391357,1.6887029140486715e+18,92.803671875,-0.2275137354930242,-9.57132625579834,2.061265707015991,1.6887029140486715e+18,92.803671875,1.0574585994084678,4.64980427424113,-4.697553793589274,1.6887029140486715e+18,92.803671875,1.0565423369407654,4.6542331377665205,-4.695263067881267,,,,,,,,,,,,1.6887029140467804e+18,92.80178041992188,-30.32675971984863,40.16240005493164,12.619679832458496,1.6887029140467804e+18,92.80178041992188,-287.74675903320315,134.7855987548828,-120.2627166748047,1.6887029140486715e+18,92.803671875,0.636554221312205,-0.6958560546239217,-0.1549608409404754,0.2900236050287882,-1.6626249551773071,1.352069576581319,-0.8343281944592794
2.85,1.688702914100568e+18,92.85556795247396,-18.270544052124023,-29.459892908732098,25.60508855183919,1.688702914100568e+18,92.85556795247396,-21.101705233256023,-37.73401610056559,29.900313059488933,1.688702914100568e+18,92.85556795247396,-2.8370070457458496,-8.25661849975586,4.232537269592285,1.688702914100568e+18,92.85556795247396,-7.85618527730306,-1.167465329170227,-5.054349899291992,1.688702914100568e+18,92.85556795247396,-7.857152462005615,-1.1630364855130513,-5.052059173583984,,,,,,,,,,,,1.688702914096784e+18,92.85178393554688,-14.01535987854004,48.15095901489258,10.78235981464386,1.688702914096784e+18,92.85178393554688,-271.43535766601565,142.77415466308594,-122.10003662109376,1.688702914100568e+18,92.85556795247396,0.4694918890794118,-0.785383423169454,-0.1509210765361785,0.3661315639813741,-2.1540841261545816,1.021914263566335,-0.2065829237302144
2.9,1.6887029141524685e+18,92.90746858723958,0.2577939033508301,-11.78038501739502,7.4478804270426435,1.6887029141524685e+18,92.90746858723958,-4.799802740414938,-18.638094584147137,12.35653591156006,1.6887029141524685e+18,92.90746858723958,-5.063442707061768,-6.840205351511638,4.845967769622803,1.6887029141524685e+18,92.90746858723958,-4.611676216125488,-9.595165888468424,1.4584407806396484,1.6887029141524685e+18,92.90746858723958,-4.612592458724976,-9.590737342834473,1.4607315460840862,,,,,,,,,,,,1.688702914146786e+18,92.90178598632812,-6.134160041809082,51.125318145751955,-7.681119966506958,1.688702914146786e+18,92.90178598632812,-263.5541564941406,145.7485137939453,-140.5635192871094,1.6887029141524685e+18,92.90746858723958,0.4126409788926442,-0.8664376537005106,0.0393819647530714,0.2671690384546915,-2.3722129662831626,0.775367538134257,-0.4179347554842631
2.95,1.688702914195728e+18,92.95072778320312,55.21066093444824,-14.913293838500977,17.84027862548828,1.688702914195728e+18,92.95072778320312,47.38805675506592,-20.25823450088501,20.408085346221924,1.688702914195728e+18,92.95072778320312,-7.828448295593262,-5.327436208724976,2.505119204521179,1.688702914195728e+18,92.95072778320312,-2.605645716190338,-12.09009200334549,-5.05636066198349,1.688702914195728e+18,92.95072778320312,-2.606562107801438,-12.085663184523582,-5.054069936275482,,,,,,,,,,,,1.6887029141967816e+18,92.95178159179686,5.521719980239868,47.11395950317383,-21.293879318237305,1.6887029141967816e+18,92.95178159179686,-251.8982727050781,141.737158203125,-154.17627563476563,1.688702914195728e+18,92.95072778320312,0.3121535778045654,-0.919276088476181,0.2292660847306251,0.0628585647791623,-2.8268874883651733,0.5771561563014984,-0.5838444828987122
3.0,1.6887029142389773e+18,92.99397737630208,10.643953720728556,-4.4579542477925616,0.3144723574320475,1.6887029142389773e+18,92.99397737630208,3.2650066216786704,-9.63250700632731,4.207778652509054,1.6887029142389773e+18,92.99397737630208,-7.384793122609456,-5.157048066457112,3.8306188583374023,1.6887029142389773e+18,92.99397737630208,0.2190970033407211,5.885584831237793,0.248367632428805,1.6887029142389773e+18,92.99397737630208,0.2180788964033126,5.890013694763184,0.250658373037974,,,,,,,,,,,,1.6887029142467786e+18,93.00177861328125,7.188240003585816,45.891519927978514,-23.98519973754883,1.6887029142467786e+18,93.00177861328125,-250.23175659179688,140.51471862792968,-156.8675964355469,1.6887029142389773e+18,92.99397737630208,0.3210367262363434,-0.912329117457072,0.2062781304121017,0.1429306094845135,-2.659350554148356,0.555943489074707,-0.5849633812904358
3.05,1.6887029142908805e+18,93.04588020833334,1.3636023203531902,2.160420815149943,-5.096628983815511,1.6887029142908805e+18,93.04588020833334,-4.601198673248291,-3.5180474122365317,0.2811566690603892,1.6887029142908805e+18,93.04588020833334,-5.970647017161052,-5.660963694254558,5.315098285675049,1.6887029142908805e+18,93.04588020833334,0.6207918226718903,3.7107009887695312,1.956906835238139,1.6887029142908805e+18,93.04588020833334,0.6197736958662668,3.7151296933492026,1.9591975609461467,,,,,,,,,,,,1.6887029142967834e+18,93.05178334960938,-2.898719906806946,46.63083953857422,-23.223919296264647,1.6887029142967834e+18,93.05178334960938,-260.3187194824219,141.25403747558593,-156.10631713867187,1.6887029142908805e+18,93.04588020833334,0.3725113868713379,-0.8812393744786581,0.1613225489854812,0.2403934597969055,-2.409348726272583,0.6177208622296652,-0.6065885027249655
3.1,1.688702914342777e+18,93.09777718098958,-3.245093822479248,-0.450695276260376,-7.343753496805827,1.688702914342777e+18,93.09777718098958,-7.542775313059489,-7.248258590698242,-1.6849459012349446,1.688702914342777e+18,93.09777718098958,-4.3035275141398115,-6.780058701833089,5.596120039621989,1.688702914342777e+18,93.09777718098958,0.5355761051177979,0.4053090810775757,5.152037541071574,1.688702914342777e+18,93.09777718098958,0.5345070958137512,0.4097378551959991,5.154328346252441,1.6887029143427692e+18,93.09776904296876,0.0,0.0,4.283006191253662,7.460999965667725,2.595789670944214,180.4222869873047,43.400001525878906,-122.7536109,49.1877779,1.6887029143467776e+18,93.10177763671877,-14.16907958984375,45.01311874389648,-20.613119888305665,1.6887029143467776e+18,93.10177763671877,-271.5890747070313,139.63631591796874,-153.49552001953126,1.688702914342777e+18,93.09777718098958,0.4631342490514119,-0.8332347671190897,0.151357094446818,0.2583188265562057,-2.2186545530954995,0.7663817207018534,-0.7579999764760336
3.15,1.6887029143946852e+18,93.14968513997395,16.332281510035198,-23.31173324584961,4.846830526987712,1.6887029143946852e+18,93.14968513997395,14.239487727483114,-31.380871454874676,10.06819995244344,1.6887029143946852e+18,93.14968513997395,-2.098640481630961,-8.051632722218832,5.158682028452556,1.6887029143946852e+18,93.14968513997395,1.8025615215301511,4.623588005701701,2.216320832570394,1.6887029143946852e+18,93.14968513997395,1.8015942970911665,4.628016829490662,2.218611558278402,,,,,,,,,,,,1.68870291439678e+18,93.15178012695311,-26.866839981079103,40.85779876708985,-17.406959342956544,1.68870291439678e+18,93.15178012695311,-284.2868347167969,135.4809997558594,-150.28935852050782,1.6887029143946852e+18,93.14968513997395,0.5815074245134989,-0.7632924318313599,0.1441055337587992,0.2360597103834151,-1.9456174770991008,0.9646002252896628,-1.0598487854003906
3.2,1.688702914446583e+18,93.20158317057292,5.236300388971965,-17.627341588338215,8.259863376617432,1.688702914446583e+18,93.20158317057292,3.066202958424886,-25.76571496327718,13.321042696634928,1.688702914446583e+18,93.20158317057292,-2.1759437322616577,-8.120869000752768,4.9984917640686035,1.688702914446583e+18,93.20158317057292,2.009593963623047,7.246439933776856,-8.872308413187662,1.688702914446583e+18,93.20158317057292,2.008626699447632,7.250868797302246,-8.870017687479654,,,,,,,,,,,,1.6887029144467784e+18,93.20177827148436,-18.36587963104248,47.58244018554687,-1.5933200001716614,1.6887029144467784e+18,93.20177827148436,-275.78587646484374,142.2056396484375,-134.47571716308593,1.688702914446583e+18,93.20158317057292,0.5021477341651917,-0.7751879294713339,-0.0686511652699361,0.3684701820214589,-1.971605857213338,0.978134294350942,-0.5100892037153244
3.25,1.6887029144984932e+18,93.25349300130208,1.5391886234283447,4.620495637257894,0.7379897435506185,1.6887029144984932e+18,93.25349300130208,-1.9020945231119792,-3.281157970428467,5.500301678975423,1.6887029144984932e+18,93.25349300130208,-3.447129170099894,-7.884149074554443,4.699624538421631,1.6887029144984932e+18,93.25349300130208,2.457714557647705,1.5129096110661824,-2.033824920654297,1.6887029144984932e+18,93.25349300130208,2.45674721399943,1.5173384348551433,-2.0315341552098594,,,,,,,,,,,,1.6887029144967818e+18,93.25178168945313,0.8393599480390549,50.883758544921875,7.273639869689942,1.6887029144967818e+18,93.25178168945313,-256.5806365966797,145.5069610595703,-125.60875549316408,1.6887029144984932e+18,93.25349300130208,0.3893791834513346,-0.7880389293034872,-0.2305763065814971,0.4167715311050415,-2.203354597091675,0.9372874299685162,0.0671494292716185
