seconds_elapsed_rounded,accelerometer_time,accelerometer_seconds_elapsed,accelerometer_z,accelerometer_y,accelerometer_x,accelerometeruncalibrated_time,accelerometeruncalibrated_seconds_elapsed,accelerometeruncalibrated_z,accelerometeruncalibrated_y,accelerometeruncalibrated_x,gravity_time,gravity_seconds_elapsed,gravity_z,gravity_y,gravity_x,gyroscope_time,gyroscope_seconds_elapsed,gyroscope_z,gyroscope_y,gyroscope_x,gyroscopeuncalibrated_time,gyroscopeuncalibrated_seconds_elapsed,gyroscopeuncalibrated_z,gyroscopeuncalibrated_y,gyroscopeuncalibrated_x,location_time,location_seconds_elapsed,location_bearingAccuracy,location_speedAccuracy,location_verticalAccuracy,location_horizontalAccuracy,location_speed,location_bearing,location_altitude,location_longitude,location_latitude,magnetometer_time,magnetometer_seconds_elapsed,magnetometer_z,magnetometer_y,magnetometer_x,magnetometeruncalibrated_time,magnetometeruncalibrated_seconds_elapsed,magnetometeruncalibrated_z,magnetometeruncalibrated_y,magnetometeruncalibrated_x,orientation_time,orientation_seconds_elapsed,orientation_qz,orientation_qy,orientation_qx,orientation_qw,orientation_roll,orientation_pitch,orientation_yaw
0.0,1.6887023269866752e+18,15.00167529296875,0.6963034470876058,9.664071718851725,-2.3355594476064048,1.6887023269780283e+18,14.993028564453123,-3.8947176138559976,0.2049851218859354,-1.421735445658366,1.6887023269866752e+18,15.00167529296875,-4.294573863347371,-8.789538065592447,0.5773578484853109,1.6887023269866752e+18,15.00167529296875,0.3257438978180288,-0.1229875485102335,3.4712926546732583,1.6887023269910016e+18,15.006001546223958,0.2454660236835479,-0.3425426781177521,3.4386622111002603,,,,,,,,,,,,1.6887023269891128e+18,15.004112988281252,-7.961719799041748,49.35875930786133,-0.1781200066208839,1.6887023269891128e+18,15.004112988281252,-262.5025146484375,144.82375793457032,-133.3899169921875,1.6887023269780283e+18,14.993028564453123,0.5404911438624064,-0.840195377667745,0.0068829475591579,0.0363173546890417,-2.976929505666097,1.139102617899577,-0.1220317458113034
0.05,1.6887023270385838e+18,15.053583658854166,-1.6572761535644531,6.754420280456543,-6.5493388175964355,1.6887023270299333e+18,15.044933349609376,-4.644269227981567,-0.4380859434604645,-5.114259560902913,1.6887023270385838e+18,15.053583658854166,-2.7980236212412515,-9.376797358194986,0.5203475455443064,1.6887023270385838e+18,15.053583658854166,-1.4350751638412476,-3.078506350517273,3.518787463506063,1.6887023270342597e+18,15.04925927734375,-1.371010661125183,-2.826320767402649,3.4925456047058105,,,,,,,,,,,,1.6887023270391163e+18,15.054116455078123,-16.6310396194458,47.1456787109375,-2.757199966907501,1.6887023270391163e+18,15.054116455078123,-271.1718322753906,142.6106750488281,-135.968994140625,1.6887023270299333e+18,15.044933349609376,0.1881793538729349,-0.2762062748273213,-0.0059344554319978,0.0135027950940032,-2.90226157506307,1.3029117584228516,-0.2738509128491084
0.1,1.688702327090485e+18,15.105484944661455,15.850534439086914,-30.276570955912273,-3.6310890515645338,1.6887023270818394e+18,15.096839192708332,18.06421589851379,-35.78127225240072,-3.811168352762858,1.688702327090485e+18,15.105484944661455,-1.307819485664368,-9.70494524637858,0.1658080021540323,1.688702327090485e+18,15.105484944661455,3.1913637121518454,6.959536711374919,2.291355550289154,1.6887023270775137e+18,15.092513427734374,0.8964957098166147,0.6356051762898763,3.0673580169677734,,,,,,,,,,,,1.6887023270891116e+18,15.10411142578125,-24.507359313964844,44.12739944458008,-3.254959964752197,1.6887023270891116e+18,15.10411142578125,-279.04815063476565,139.59239807128907,-136.46675720214844,1.6887023270818394e+18,15.096839192708332,-0.6713735063870748,0.7358745336532593,-0.0720344881216684,0.0274544715260465,-2.6972442468007407,1.457735896110535,-0.5855672160784403
0.15,1.688702327142391e+18,15.157390950520831,-3.993534406026205,-14.384177843729654,1.1671044031778972,1.6887023271337388e+18,15.148738688151042,-6.279364784558614,-29.622546195983887,1.2658031557997067,1.688702327142391e+18,15.157390950520831,-1.8785161177317304,-9.54269536336263,-1.1554148594538372,1.688702327142391e+18,15.157390950520831,3.822794755299886,16.67819881439209,-1.5864170442024867,1.6887023271294185e+18,15.14441837565104,5.160844167073567,20.449783325195312,-0.3914628128210703,1.688702327155369e+18,15.170368896484376,0.0,0.0,1.0451921224594116,26.0,2.8161792755126953,178.00552368164062,43.400001525878906,-122.7537538,49.1875788,1.688702327139117e+18,15.154116943359377,-14.954759645462037,40.16483917236328,24.94899978637695,1.688702327139117e+18,15.154116943359377,-269.4955627441406,135.62984313964844,-108.26279754638672,1.6887023271337388e+18,15.148738688151042,0.6371785600980123,-0.6767853299776713,-0.2944587916135788,0.1723646223545074,2.2345659732818604,1.3886773188908894,1.5903476476669312
0.2,1.6887023271856476e+18,15.200647583007813,-0.7410172224044801,1.0383312702178955,2.558020830154419,1.6887023271856484e+18,15.200648193359376,-4.390031894048055,-8.062017599741617,0.560119867324829,1.6887023271856476e+18,15.200647583007813,-2.9868645668029785,-9.191418647766112,-1.669262170791626,1.6887023271856476e+18,15.200647583007813,0.5288565903902054,-5.557804703712463,-1.3606259226799011,1.6887023271813233e+18,15.196323323567707,0.7911722908417383,-2.9134202003479004,-1.9837339023749032,,,,,,,,,,,,1.6887023271891182e+18,15.204118115234374,-2.52783993780613,37.84683990478515,33.26207962036133,1.6887023271891182e+18,15.204118115234374,-257.0686279296875,133.31183776855468,-99.94971923828123,1.6887023271856484e+18,15.200648193359376,0.5684538086255392,-0.6619742711385092,-0.4366264045238495,0.213629533847173,2.4550209840138755,1.2269200881322224,1.6588085492451985
0.25,1.6887023272289016e+18,15.243901774088542,2.031135082244873,7.045126279195149,4.758392492930095,1.6887023272375493e+18,15.252549479166667,0.0257228414217631,-1.4524433153371017,2.5669005711873374,1.6887023272289016e+18,15.243901774088542,-2.244957248369853,-9.28066349029541,-2.230051835378011,1.6887023272289016e+18,15.243901774088542,-1.4986560940742493,-8.27111530303955,0.1858557537198066,1.688702327233228e+18,15.248228352864585,-1.6541212797164917,-8.102567672729492,0.1805106798807779,,,,,,,,,,,,1.6887023272391148e+18,15.25411484375,-15.20607967376709,39.24007949829102,27.989239120483397,1.6887023272391148e+18,15.25411484375,-269.746875,134.7050750732422,-105.22255859375,1.6887023272375493e+18,15.252549479166667,0.6410924196243286,-0.7012213269869486,-0.2937098791201909,0.0893008150160312,2.13417116800944,1.2682681878407795,1.5635524193445842
0.3,1.688702327280803e+18,15.295802978515624,1.3410194714864094,10.58276335398356,3.948718229929606,1.688702327289458e+18,15.304457926432292,-0.7138587335745493,1.3665011326471963,2.2791635195414224,1.688702327280803e+18,15.295802978515624,-1.526726007461548,-9.53076171875,-1.7342360019683838,1.688702327280803e+18,15.295802978515624,-2.452267646789551,-6.361855983734131,-0.3691153228282928,1.688702327285133e+18,15.300132975260418,-2.478076616923014,-6.287483374277751,-0.4270457178354263,,,,,,,,,,,,1.6887023272891154e+18,15.304115380859376,-22.247919464111327,42.11927947998047,16.87259998321533,1.6887023272891154e+18,15.304115380859376,-276.78871459960936,137.58427734375,-116.33919677734374,1.688702327289458e+18,15.304457926432292,0.2227437893549601,-0.2372796336809794,-0.0796015759309132,0.0185617512712875,2.0863571166992188,1.3775211970011394,1.259029467900594
0.35,1.6887023273327114e+18,15.34771142578125,-0.1150818268458049,11.133906364440918,2.988568147023519,1.6887023273413624e+18,15.356362711588543,-0.8456634481747946,1.1603195369243622,2.1254246632258096,1.6887023273327114e+18,15.34771142578125,-1.488770922025045,-9.656381289164225,-0.8406861821810404,1.6887023273327114e+18,15.34771142578125,-2.676047960917155,-6.3051473299662275,-0.756963849067688,1.6887023273370412e+18,15.352041341145837,-2.670142889022827,-6.237595876057942,-0.7429139614105225,,,,,,,,,,,,1.688702327339115e+18,15.35411484375,-24.090119552612304,44.00539932250977,4.077239942550659,1.688702327339115e+18,15.35411484375,-278.63092041015625,139.47039794921875,-129.13455810546876,1.6887023273413624e+18,15.356362711588543,-0.6689961155255636,0.7388949195543925,-0.0259139587481816,0.0604737636943657,2.6487470467885337,1.4550754626592,0.370308277507623
0.4,1.6887023273846167e+18,15.399616536458334,4.02154008547465,6.921757221221924,1.664168119430542,1.6887023273846118e+18,15.399611938476562,12.81894952058792,-4.644169569015503,1.7338991165161133,1.6887023273846167e+18,15.399616536458334,-1.179328878720601,-9.731173197428385,0.0328661327560742,1.6887023273846167e+18,15.399616536458334,-1.2922854324181874,1.3092878659566245,1.4895440141359966,1.6887023273889426e+18,15.403942708333332,-1.0435105602567394,2.292475461959839,1.751656134923299,,,,,,,,,,,,1.688702327389114e+18,15.404113916015628,-25.07587928771973,43.546678924560545,-4.35295991897583,1.688702327389114e+18,15.404113916015628,-279.6166748046875,139.01167907714844,-137.56475830078125,1.6887023273846118e+18,15.399611938476562,-0.6790352463722229,0.7250870764255524,-0.0909986570477485,0.0665392391383647,-2.707720398902893,1.4947789907455444,-0.657342404127121
0.45,1.6887023274365164e+18,15.451516357421877,-5.682409445444743,1.016386349995931,6.419776916503906,1.6887023274278705e+18,15.442870361328124,-4.7433721621831255,-7.545965671539307,5.315456072489421,1.6887023274365164e+18,15.451516357421877,-0.2634192208449045,-9.803870836893717,0.0064716500540574,1.6887023274365164e+18,15.451516357421877,1.455386459827423,6.274756749471028,0.8125525712966919,1.688702327440844e+18,15.455844075520837,1.5981762011845906,6.290690263112386,0.4194098711013794,,,,,,,,,,,,1.6887023274391137e+18,15.454113916015626,-29.499599838256835,40.92611999511719,2.8767600059509277,1.6887023274391137e+18,15.454113916015626,-284.04039306640624,136.39111938476563,-130.3350341796875,1.6887023274278705e+18,15.442870361328124,0.2444023887316385,-0.2265741825103759,-0.0299056925966094,0.0240467858190337,-0.6707969903945923,1.528740922609965,-0.3638299703598022
0.5,1.688702327488426e+18,15.50342618815104,-9.190366427103678,-22.226627349853516,10.85294516881307,1.6887023274797755e+18,15.494775472005209,-10.344172159830729,-28.701308568318684,11.379466692606607,1.688702327488426e+18,15.50342618815104,-1.9664315382639568,-9.549302419026692,-0.5114410618940989,1.688702327488426e+18,15.50342618815104,1.0367401118079822,5.712200959523519,-5.753077983856201,1.6887023274841016e+18,15.499101806640624,1.351615697145462,5.891871690750122,-5.953416347503662,,,,,,,,,,,,1.688702327489115e+18,15.50411484375,-22.243039703369146,42.43647842407226,13.673760032653808,1.688702327489115e+18,15.50411484375,-276.78383178710936,137.90148010253907,-119.53803863525393,1.6887023274797755e+18,15.494775472005209,0.6675859491030375,-0.7230589191118876,-0.14337403823932,0.08563444763422,2.1622016032536826,1.44493567943573,1.3060094714164734
0.55,1.6887023275403313e+18,15.555331217447916,-10.057718435923258,-11.740898450215658,-4.170759876569112,1.6887023275316785e+18,15.54667830403646,-14.864015261332192,-23.2753849029541,-2.092124621073405,1.6887023275403313e+18,15.555331217447916,-4.13457465171814,-8.879892985026041,0.3864356205643465,1.6887023275403313e+18,15.555331217447916,-2.7213029066721597,-0.240528126557668,-2.0465003152688346,1.6887023275273562e+18,15.542356119791668,-1.6640987694263458,2.164600928624471,-3.5030067364374795,,,,,,,,,,,,1.688702327539114e+18,15.5541140625,-6.827119827270508,46.347798919677736,15.689199447631836,1.688702327539114e+18,15.5541140625,-261.36790771484374,141.81279602050782,-117.52259521484376,1.6887023275316785e+18,15.54667830403646,0.5492040117581686,-0.7947416305541992,-0.212239330013593,0.1451588223377863,1.031896432240804,1.2071222861607869,0.5351521869500478
0.6,1.6887023275922388e+18,15.607238688151044,29.899989128112793,-7.72207768758138,-9.19908650716146,1.6887023275835855e+18,15.598585449218753,22.892732620239254,-16.25663725535075,-8.620342890421549,1.6887023275922388e+18,15.607238688151044,-5.629253546396892,-7.84945805867513,1.3429758548736572,1.6887023275922388e+18,15.607238688151044,-5.485468069712321,-5.134780486424764,-4.819726963837941,1.688702327579261e+18,15.594260660807292,-5.460320631663005,-5.586668173472087,-4.3122506241003675,,,,,,,,,,,,1.6887023275891185e+18,15.604118603515625,-0.4074800014495849,48.341278076171875,4.545719826221466,1.6887023275891185e+18,15.604118603515625,-254.94826965332032,143.8062744140625,-128.66607971191405,1.6887023275835855e+18,15.598585449218753,0.4917289018630981,-0.856424868106842,-0.0773961022496223,0.1147616753975549,-2.912535826365153,1.0439958572387695,0.0527538061141967
0.65,1.6887023276354916e+18,15.650491577148436,14.993499279022217,-5.712552309036255,-7.747326850891113,1.6887023276354908e+18,15.650490641276042,10.43170960744222,-12.557533264160156,-5.448855876922607,1.6887023276354916e+18,15.650491577148436,-5.97122597694397,-7.39726710319519,2.3809478282928467,1.6887023276354916e+18,15.650491577148436,-2.1600958704948425,3.0658563375473022,2.533792734146118,1.6887023276311624e+18,15.64616251627604,-2.581821918487549,1.4321735699971516,1.6130406161149342,,,,,,,,,,,,1.688702327639115e+18,15.654114892578123,2.886519968509674,48.41447830200195,-6.409879875183106,1.688702327639115e+18,15.654114892578123,-251.6542755126953,143.87947692871094,-139.62167663574218,1.6887023276354908e+18,15.650490641276042,0.4492688179016113,-0.8835107088088989,0.0260941963642835,0.1256326884031295,-2.7280807495117188,0.9060554504394532,-0.264576365550359
0.7,1.6887023276787405e+18,15.693740559895836,-0.6877843538920084,4.760677973429362,-6.298623561859131,1.6887023276873953e+18,15.702395263671876,-4.5419762134552,-1.70149627327919,-2.773879647254944,1.6887023276787405e+18,15.693740559895836,-4.9280344645182295,-7.935597737630208,2.9791051546732583,1.6887023276787405e+18,15.693740559895836,-0.3820962111155192,-0.1414152880509694,2.720386584599813,1.6887023276830671e+18,15.698067220052083,-0.3360267877578735,-0.5168938040733337,2.709238290786743,1.688702327674421e+18,15.6894208984375,0.0,0.0,1.0451921224594116,25.99799919128418,2.534111976623535,177.57789611816406,43.400001525878906,-122.7537485,49.1875696,1.6887023276891154e+18,15.704115380859374,-4.365159893035889,48.64139938354492,-8.679079818725587,1.6887023276891154e+18,15.704115380859374,-258.90595703125,144.1063995361328,-141.89088134765626,1.6887023276873953e+18,15.702395263671876,0.5069023370742798,-0.8466608126958212,0.0398425273597239,0.1555399298667907,-2.532999277114868,1.008877952893575,-0.4379460116227467
0.75,1.68870232773065e+18,15.745650065104169,3.1082626978556314,10.054790496826172,-4.588423411051433,1.6887023277393006e+18,15.754300455729163,-1.1445668538411458,1.9864415725072224,-2.122633139292399,1.68870232773065e+18,15.745650065104169,-4.261666615804036,-8.438481648763021,2.613272746404012,1.68870232773065e+18,15.745650065104169,-0.3037527402242024,-2.199013074239095,1.9629136721293132,1.6887023277349755e+18,15.749975830078125,-0.3387247870365779,-2.224414825439453,1.897652904192607,,,,,,,,,,,,1.688702327739114e+18,15.7541140625,-8.7815598487854,47.81179962158203,-10.135759925842285,1.688702327739114e+18,15.7541140625,-263.3223571777344,143.27680053710938,-143.34755859375,1.6887023277393006e+18,15.754300455729163,0.5483487844467163,-0.824906587600708,0.0793084849913914,0.1101640860239664,-2.5177788734436035,1.0920342206954956,-0.5788094600041708
0.8,1.6887023277825505e+18,15.797550455729166,2.5304272969563804,8.673941453297934,-5.880639553070068,1.688702327791202e+18,15.806201822916668,-1.2987045049667358,-1.6486547787984211,-3.791826327641805,1.6887023277825505e+18,15.797550455729166,-3.867679754892985,-8.706486701965332,2.335597515106201,1.6887023277825505e+18,15.797550455729166,-0.932434896628062,-2.5873707135518393,1.697950839996338,1.688702327786881e+18,15.801881022135415,-0.9354892174402872,-2.6139942010243735,1.7319556872049968,,,,,,,,,,,,1.688702327789115e+18,15.80411474609375,-11.67295970916748,46.464918518066405,-13.056439781188963,1.688702327789115e+18,15.80411474609375,-266.21375732421876,141.92991638183594,-146.2682342529297,1.688702327791202e+18,15.806201822916668,0.5744117895762125,-0.8049317002296448,0.1336379051208495,0.0608955870072046,-2.4922098318735757,1.1406184434890747,-0.754695991675059
0.85,1.688702327834459e+18,15.849459065755209,8.447817325592041,-21.267449061075848,-7.137327750523885,1.6887023278344594e+18,15.849459350585938,5.486443281173706,-29.236403465270996,-8.02074122428894,1.688702327834459e+18,15.849459065755209,-3.2026143074035645,-9.065608660380043,1.9107296864191692,1.688702327834459e+18,15.849459065755209,2.7415632208188376,3.655468463897705,1.147561286886533,1.6887023278387855e+18,15.853785481770831,3.5987598399321237,5.182428002357483,0.937678150832653,,,,,,,,,,,,1.6887023278391148e+18,15.854114746093751,-15.447639465332031,45.42304000854492,-12.441559982299804,1.6887023278391148e+18,15.854114746093751,-269.9884338378906,140.888037109375,-145.65335693359376,1.6887023278344594e+18,15.849459350585938,0.6016090512275696,-0.7861280739307404,0.1348070353269576,0.0352197652682661,-2.4704372882843018,1.2139285802841189,-0.8145348131656647
0.9,1.688702327886365e+18,15.901365071614585,0.448356946309407,-27.16004753112793,4.594443003336589,1.688702327877713e+18,15.892712972005208,-4.442075769106547,-42.93980026245117,4.758127927780151,1.688702327886365e+18,15.901365071614585,-2.7082415421803794,-9.410898526509603,-0.0298102547725041,1.688702327886365e+18,15.901365071614585,9.18033758799235,17.49665641784668,-0.4330016399423281,1.68870232789069e+18,15.905690185546876,8.703557332356771,17.96921157836914,-0.6684902062018713,,,,,,,,,,,,1.6887023278891146e+18,15.90411474609375,-13.378519916534424,44.49339828491211,15.008439683914183,1.6887023278891146e+18,15.90411474609375,-267.9193176269531,139.9583984375,-118.20335693359377,1.688702327877713e+18,15.892712972005208,0.6056382656097412,-0.7533518075942993,-0.1642918026385207,0.141364075243473,-0.9853181838989258,1.329110304514567,0.3805466393629709
0.95,1.6887023279382702e+18,15.953270182291666,1.451410214106242,2.383519013722738,2.697248935699463,1.6887023279296202e+18,15.944620279947918,0.4428715985268354,-9.275577704111734,2.7347968419392905,1.6887023279382702e+18,15.953270182291666,-3.740806659062704,-9.058340390523275,-0.3693070362011592,1.6887023279382702e+18,15.953270182291666,-0.2821179628372194,-1.0163272221883135,-1.6593136290709178,1.6887023279425925e+18,15.957592692057291,-0.8034914334615072,-3.4122932751973476,-1.0638218919436138,,,,,,,,,,,,1.6887023279391117e+18,15.954111767578128,4.589639961719513,40.62600021362304,28.918879318237305,1.6887023279391117e+18,15.954111767578128,-249.9511535644531,136.09100036621095,-104.29291687011718,1.6887023279296202e+18,15.944620279947918,0.5008711616198221,-0.6744399070739746,-0.462689330180486,0.2808522582054138,2.8936456044514975,1.2131603956222534,1.3762083053588867
1.0,1.6887023279901678e+18,16.005167805989583,4.099825382232666,8.843555291493734,3.9500269095102944,1.6887023279815237e+18,15.996523600260415,0.6827520479758581,-1.3960126241048176,3.455834150314331,1.6887023279901678e+18,16.005167805989583,-2.8502371311187744,-9.35287062327067,-0.7205891807874044,1.6887023279901678e+18,16.005167805989583,-3.123812198638916,-9.355095545450846,1.5437583128611247,1.688702327985849e+18,16.000849365234377,-3.046995759010315,-9.636781215667725,1.6424639225006104,,,,,,,,,,,,1.6887023279891144e+18,16.004114306640624,-8.844999814033509,43.34171981811524,24.021799850463868,1.6887023279891144e+18,16.004114306640624,-263.38579711914065,138.8067169189453,-109.18999633789062,1.6887023279815237e+18,15.996523600260415,0.5792643229166666,-0.7262812852859497,-0.3175575236479441,0.1762065639098484,2.7438364028930664,1.2810089190800984,1.1213201681772869
1.05,1.6887023280420792e+18,16.057079182942708,5.2773598829905195,11.014800389607748,1.2858771085739136,1.6887023280334257e+18,16.04842578125,4.196213334798813,1.5888342261314392,1.987637996673584,1.6887023280420792e+18,16.057079182942708,-2.1739323139190674,-9.55063533782959,0.3122538675864537,1.6887023280420792e+18,16.057079182942708,-3.977343479792277,-4.542953888575236,0.468075489004453,1.6887023280290982e+18,16.044098388671873,-3.867744286855062,-5.725639979044597,0.7673994600772858,,,,,,,,,,,,1.6887023280391163e+18,16.054116357421876,-18.75139923095703,45.82807998657226,11.236199855804443,1.6887023280391163e+18,16.054116357421876,-273.2921936035156,141.29307861328124,-121.97559814453123,1.6887023280334257e+18,16.04842578125,0.6358834107716879,-0.7528834541638693,-0.127310204009215,0.103758859137694,1.03087321917216,1.3941096464792888,0.3461087023218472
1.1,1.6887023280853268e+18,16.10032666015625,2.230166018009186,9.660816192626951,-1.6899516582489014,1.6887023280853332e+18,16.10033349609375,0.2476571003595985,-0.0263210460543632,0.0917248527208964,1.6887023280853268e+18,16.10032666015625,-2.1591426134109497,-9.429752349853516,1.6126081943511963,1.6887023280853268e+18,16.10032666015625,-3.4821609258651733,-2.6254988312721252,0.5287038683891296,1.6887023280810117e+18,16.096011393229166,-3.5531485080718994,-2.7554604212443032,0.4579962318142255,,,,,,,,,,,,1.6887023280891151e+18,16.104115185546874,-21.052319717407222,46.53567886352539,-1.3176000237464904,1.6887023280891151e+18,16.104115185546874,-275.593115234375,142.00067749023438,-134.5293975830078,1.6887023280853332e+18,16.10033349609375,0.6395460963249207,-0.7614160577456156,0.0064999647438525,0.1017618974049885,-2.364521026611328,1.3370107809702556,-0.6413410604000092
1.15,1.6887023281285868e+18,16.143586832682292,0.8255418539047241,6.011390050252278,-2.101661284764608,1.6887023281372378e+18,16.152238037109374,-1.1389835874239604,-3.6472599506378174,0.6847460667292277,1.6887023281285868e+18,16.143586832682292,-2.123910903930664,-9.30734666188558,2.256720701853434,1.6887023281285868e+18,16.143586832682292,-1.079704316643377,-1.034296674033006,0.1824959913889567,1.6887023281329098e+18,16.147909505208332,-0.8225809335708618,-0.8011497954527537,0.1007927628234028,,,,,,,,,,,,1.6887023281391168e+18,16.15411669921875,-22.484600067138672,45.63043899536133,-7.807999801635742,1.6887023281391168e+18,16.15411669921875,-277.0253967285156,141.09544067382814,-141.0197967529297,1.6887023281372378e+18,16.152238037109374,0.6401399175326029,-0.758571207523346,0.0670303801695505,0.1013872375090916,-2.159139394760132,1.2785821358362834,-0.9333394169807434
1.2,1.6887023281804882e+18,16.195488118489582,-3.3851195573806763,0.1450738906860351,2.070715347925822,1.688702328189143e+18,16.20414306640625,-7.459624608357747,-14.215360641479492,5.429713249206543,1.6887023281804882e+18,16.195488118489582,-2.0542283058166504,-9.364264170328775,2.0673968394597373,1.6887023281804882e+18,16.195488118489582,1.6321810086568196,1.4491759936014812,0.3020219604174296,1.6887023281848184e+18,16.199818277994794,1.885791877905528,1.5125023126602173,0.4066835294167201,1.6887023281934715e+18,16.2084716796875,0.0,0.0,1.061672568321228,26.695999145507812,2.132654190063477,177.30201721191406,43.400001525878906,-122.7537445,49.1875706,1.6887023281891164e+18,16.204116308593747,-22.916479873657227,45.76463851928711,-5.748639941215515,1.6887023281891164e+18,16.204116308593747,-277.457275390625,141.229638671875,-138.96043701171874,1.688702328189143e+18,16.20414306640625,0.6454348762830099,-0.7556707064310709,0.0312337046489118,0.1047366087635357,-2.2052009105682373,1.3223752975463867,-0.8316130836804708
1.25,1.6887023282323955e+18,16.247395589192706,-7.63904603322347,-27.77846018473307,4.453122238318126,1.6887023282410442e+18,16.256044352213543,-7.704888741175334,-35.438700358072914,3.956332842508952,1.6887023282323955e+18,16.247395589192706,-1.7133650382359822,-9.609635670979818,0.9517900745073954,1.6887023282323955e+18,16.247395589192706,2.2449297780791917,3.15211554368337,-0.1680388450622557,1.6887023282367194e+18,16.251719482421876,1.838348110516866,3.390862067540487,-0.4306600093841553,,,,,,,,,,,,1.6887023282391153e+18,16.254115185546873,-24.51223945617676,45.78659896850586,3.0524399772286417,1.6887023282391153e+18,16.254115185546873,-279.05303344726565,141.25159606933593,-130.15935668945312,1.6887023282410442e+18,16.256044352213543,0.6535769502321879,-0.7457114458084106,-0.0607632168879111,0.1100453734397887,-2.5282150904337564,1.4221254587173462,-0.3704273303349812
1.3,1.6887023282843026e+18,16.299302571614586,-1.6051939328511555,-4.632126172383626,-1.6487155357996623,1.688702328284302e+18,16.299302124023438,-4.477868556976318,-13.214662551879885,0.2102692872285843,1.6887023282843026e+18,16.299302571614586,-2.5567855834960938,-9.287564277648926,1.751531720161438,1.6887023282843026e+18,16.299302571614586,-2.374789595603943,3.427564938863118,-3.1736485958099365,1.6887023282886277e+18,16.30362752278646,-2.5033257802327475,3.14208722114563,-3.244661728541056,,,,,,,,,,,,1.6887023282891208e+18,16.304120703125,-17.348399925231934,48.0777587890625,4.80435996055603,1.6887023282891208e+18,16.304120703125,-271.8891967773437,143.54275512695312,-128.40743865966795,1.688702328284302e+18,16.299302124023438,0.6008000373840332,-0.7696603536605835,-0.1045217216014861,0.1876060962677002,-2.476106643676758,1.3037895560264587,-0.2453823685646056
1.35,1.6887023283362025e+18,16.351202473958335,10.06021730105082,-4.601068655649821,2.6627132097880044,1.6887023283275525e+18,16.342552327473957,-9.484152078628542,-9.23828943570455,-0.5794618527094523,1.6887023283362025e+18,16.351202473958335,-5.045123338699341,-7.955710252126058,2.141401469707489,1.6887023283362025e+18,16.351202473958335,-2.951649904251098,-10.872637867927551,-6.325814962387085,1.6887023283405268e+18,16.35552685546875,-2.9112819035847983,-11.963643312454224,-6.321997165679932,,,,,,,,,,,,1.6887023283391132e+18,16.35411328125,-3.093920040130615,50.26887969970703,-2.1008399963378905,1.6887023283391132e+18,16.35411328125,-257.634716796875,145.73388061523437,-135.31263427734376,1.6887023283275525e+18,16.342552327473957,0.5087779064973196,-0.8324041167894999,-0.0673267443974812,0.1924771020809809,-2.561312516530355,1.0717121958732605,-0.1992878268162409
1.4,1.6887023283881083e+18,16.403108072916666,35.62803602218628,-2.6525017420450845,2.555005550384522,1.6887023283794575e+18,16.39445768229167,41.33222321669261,-11.36211903889974,6.412166357040405,1.6887023283881083e+18,16.403108072916666,-6.901864528656006,-6.945950190226237,-0.1261662145455678,1.6887023283881083e+18,16.403108072916666,-2.2455915609995523,-1.1483248074849446,0.3733405073483785,1.6887023283924378e+18,16.40743798828125,-2.195144216219584,0.7812457084655762,0.8683449427286783,,,,,,,,,,,,1.6887023283891172e+18,16.404117089843748,8.854759979248048,49.50271911621094,-6.256159973144531,1.6887023283891172e+18,16.404117089843748,-245.68603515625,144.96771850585938,-139.46795654296875,1.6887023283794575e+18,16.39445768229167,-0.4021718402703602,0.9072258472442628,-0.108710154891014,0.0484918057918548,-1.047500451405843,0.8343000014623007,-0.2387122561534245
1.45,1.6887023284400166e+18,16.455016438802087,-0.2410945892333984,4.084720134735107,-2.6293696562449136,1.6887023284313618e+18,16.446361816406252,-6.5663042068481445,-4.872783899307251,-1.1314063270886738,1.6887023284400166e+18,16.455016438802087,-5.836738268534343,-7.714874267578125,1.5541195074717205,1.6887023284400166e+18,16.455016438802087,-0.6659449438254038,2.1221967736879983,3.134451389312744,1.688702328435693e+18,16.450693115234376,-0.7721336483955383,2.5150848627090454,3.1131982803344727,,,,,,,,,,,,1.6887023284391132e+18,16.454113134765624,0.6514799475669861,49.63447952270508,-10.86531982421875,1.6887023284391132e+18,16.454113134765624,-253.88931579589843,145.09947509765624,-144.07711791992188,1.6887023284313618e+18,16.446361816406252,0.4598402480284373,-0.8795280853907267,0.1148271262645721,0.0315291853621601,-2.865351994832357,0.9304209152857462,-0.4006370107332865
1.5,1.6887023284919214e+18,16.506921223958333,0.5331281026204426,7.876578330993652,-3.6414483388264975,1.688702328483271e+18,16.49827091471354,-3.8731822967529297,-0.6309075752894084,-1.7555342117945354,1.6887023284919214e+18,16.506921223958333,-4.489923159281413,-8.589482943216959,1.4405746459960938,1.6887023284919214e+18,16.506921223958333,0.3169881602128346,-1.558317224184672,3.5304956436157227,1.688702328478946e+18,16.493946044921874,0.2110539463659127,-0.8521570190787315,3.408169984817505,,,,,,,,,,,,1.6887023284891154e+18,16.5041154296875,-7.973919868469238,49.09279937744141,-10.91655979156494,1.6887023284891154e+18,16.5041154296875,-262.51471557617185,144.55779418945312,-144.12835693359375,1.688702328483271e+18,16.49827091471354,0.5320426225662231,-0.8376550277074178,0.1173593600591023,0.0288183828815817,-2.758589267730713,1.0868135690689087,-0.5119807620843252
1.55,1.68870232853517e+18,16.550170043945315,0.3358960151672363,-0.5916295051574707,-7.9028120040893555,1.688702328535176e+18,16.550175944010416,-1.4592230319976809,-12.07896900177002,-7.165905714035034,1.68870232853517e+18,16.550170043945315,-3.1015639305114746,-9.259763717651367,0.851287841796875,1.68870232853517e+18,16.550170043945315,0.0845284797251224,-3.0869311094284058,4.4875688552856445,1.6887023285308508e+18,16.545850830078127,0.1696678201357523,-2.707711100578308,4.335107088088989,,,,,,,,,,,,1.6887023285391094e+18,16.55410927734375,-16.540760040283203,46.696719360351565,-11.585119819641111,1.6887023285391094e+18,16.55410927734375,-271.08155517578126,142.16171875,-144.7969177246094,1.688702328535176e+18,16.550175944010416,-0.6052810351053873,0.7806833982467651,-0.1452108522256215,0.04113506556799,-2.7272382577260337,1.280733068784078,-0.6814764738082886
1.6,1.6887023285784292e+18,16.593429280598958,14.876700242360434,-36.35813522338867,0.7684082984924322,1.6887023285870769e+18,16.60207682291667,4.401198387145996,-43.75515492757162,3.2033910751342787,1.6887023285784292e+18,16.593429280598958,-1.5752625862757366,-9.667451858520508,0.310479591290156,1.6887023285784292e+18,16.593429280598958,3.9756127198537192,14.335683663686115,1.859372079372406,1.6887023285827556e+18,16.597755859375,4.3816854159037275,16.216843446095783,1.355509916941325,,,,,,,,,,,,1.6887023285891195e+18,16.60411953125,-26.122639465332032,43.63207931518555,1.361519974470139,1.6887023285891195e+18,16.60411953125,-280.663427734375,139.09707641601562,-131.85027465820312,1.6887023285870769e+18,16.60207682291667,0.2207692265510559,-0.2353991866111755,-0.121434237807989,0.0831583676238854,-0.9361948172251384,1.4606469074885051,0.0384549212952454
1.65,1.6887023286303334e+18,16.64533341471354,-0.0182130336761474,-6.042316436767578,0.9670945008595784,1.688702328638987e+18,16.65398681640625,-3.0412777066230774,-12.230115254720053,-0.4466602603594462,1.6887023286303334e+18,16.64533341471354,-2.887734055519104,-9.336996078491213,-0.24752838909626,1.6887023286303334e+18,16.64533341471354,2.084730364382267,10.230974679191908,-4.412279685338338,1.6887023286346575e+18,16.649657389322915,1.6175711701313658,8.157138268152872,-4.346509734789531,,,,,,,,,,,,1.688702328639115e+18,16.654114990234376,-5.902359688282013,42.18027954101562,26.76435966491699,1.688702328639115e+18,16.654114990234376,-260.4431579589844,137.64527587890626,-106.4474380493164,1.688702328638987e+18,16.65398681640625,0.5433010458946228,-0.7102715373039246,-0.3756281336148579,0.2402253299951553,2.9074901739756265,1.2651726802190144,1.147578477859497
1.7,1.6887023286822392e+18,16.697239257812498,1.835471232732137,3.3754421869913735,2.974464535713196,1.6887023286908905e+18,16.705890462239584,-1.5625131726264954,-4.455635190010071,2.6783661047617593,1.6887023286822392e+18,16.697239257812498,-3.44311261177063,-9.158538500467936,-0.6182076136271158,1.6887023286822392e+18,16.697239257812498,-1.008996665477753,-6.7589694658915205,1.151430105169614,1.6887023286865585e+18,16.70155859375,-1.1551971038182576,-7.170132478078206,1.3636039694150288,,,,,,,,,,,,1.6887023286891172e+18,16.704117041015625,-5.699840022623539,42.66583938598633,26.332479095458982,1.6887023286891172e+18,16.704117041015625,-260.2406433105469,138.13084106445314,-106.8793167114258,1.6887023286908905e+18,16.705890462239584,0.571530838807424,-0.7395407756169637,-0.3088291188081105,0.1663345048824945,2.784374396006266,1.2578803300857544,1.0528929034868877
1.75,1.6887023287341466e+18,16.749146565755208,2.7456308205922446,9.790179570515951,2.9722989400227866,1.6887023287341445e+18,16.749144653320315,0.6469594240188599,0.4648057930171489,2.3641088008880615,1.6887023287341466e+18,16.749146565755208,-2.346890449523926,-9.496503829956056,-0.6662914752960205,1.6887023287341466e+18,16.749146565755208,-2.670702854792277,-7.057529767354329,1.4462743997573853,1.688702328738471e+18,16.753470621744793,-2.75082794825236,-6.897432168324788,1.3525065382321677,1.6887023287125204e+18,16.7275205078125,0.0,0.0,1.0593278408050537,26.26499938964844,1.8678008317947388,176.61767578125,43.400001525878906,-122.7537361,49.1875605,1.6887023287391168e+18,16.754116845703123,-18.339039421081544,44.06639938354492,17.648519706726074,1.6887023287391168e+18,16.754116845703123,-272.8798400878906,139.53139953613282,-115.5632781982422,1.6887023287341445e+18,16.749144653320315,0.6332643628120422,-0.7491645216941833,-0.1706282719969749,0.0872810371220111,2.7093242406845093,1.3681564927101135,0.8012171685695648
1.8,1.6887023287860436e+18,16.801043457031252,1.369461456934611,10.749740600585938,1.6520953178405762,1.688702328777399e+18,16.79239900716146,-0.1453639715909958,1.0362915992736816,2.013959050178528,1.6887023287860436e+18,16.801043457031252,-1.8584582408269248,-9.626153945922852,0.2194155504306157,1.6887023287860436e+18,16.801043457031252,-2.887254556020101,-5.837835470835368,0.4246022552251816,1.6887023287903754e+18,16.80537540690104,-2.8461739222208657,-5.771505673726399,0.3605632086594899,,,,,,,,,,,,1.6887023287891154e+18,16.80411513671875,-24.360959625244146,44.7105598449707,3.2842398166656492,1.6887023287891154e+18,16.80411513671875,-278.90175170898436,140.1755584716797,-129.92756042480468,1.688702328777399e+18,16.79239900716146,0.6567207972208658,-0.7511264880498251,-0.0345842447131872,0.0351070600251356,-0.9846288363138832,1.4317346413930256,0.0363669494787851
1.85,1.6887023288379543e+18,16.852954427083333,10.524744510650637,7.159889856974284,-0.2202639579772949,1.6887023288293028e+18,16.84430281575521,7.088737318913142,-1.5206388731797535,0.9194421271483104,1.6887023288379543e+18,16.852954427083333,-1.8316832780838013,-9.585656801859535,0.9759218891461692,1.6887023288379543e+18,16.852954427083333,-1.4179200927416484,-1.576388676961263,0.650215153892835,1.6887023288422807e+18,16.85728068033854,-1.176221025486787,-0.6603453159332275,0.8135198056697845,,,,,,,,,,,,1.6887023288391173e+18,16.8541171875,-24.33899955749512,44.56659927368164,-7.681119728088379,1.6887023288391173e+18,16.8541171875,-278.8797973632812,140.03159790039064,-140.89291687011718,1.6887023288293028e+18,16.84430281575521,-0.656285027662913,0.7468797365824381,-0.1019118924935658,0.0176774405408649,-2.484986225763957,1.3945506811141968,-0.8266769647598267
1.9,1.6887023288898588e+18,16.90485872395833,-2.18936820824941,5.094618320465088,3.636561950047811,1.688702328881206e+18,16.896205973307293,-1.479562024275462,-3.9641093413035073,3.880958875020345,1.6887023288898588e+18,16.90485872395833,-1.0049140254656477,-9.69546095530192,1.0919791062672932,1.6887023288898588e+18,16.90485872395833,1.4148657123247783,6.8799716631571455,0.4839580059051513,1.688702328885536e+18,16.900536010742186,1.357266187667847,7.049461364746094,0.7654905244708061,,,,,,,,,,,,1.6887023288891205e+18,16.9041201171875,-28.26739921569824,42.924478912353514,-1.8104798793792725,1.6887023288891205e+18,16.9041201171875,-282.8081970214844,138.3894805908203,-135.02227478027345,1.688702328881206e+18,16.896205973307293,0.6849683920542399,-0.7239896456400553,0.050435246725101,0.0389952251377204,-1.9815211296081543,1.4323585828145344,-1.176380634307861
1.95,1.6887023289417562e+18,16.956755940755205,-7.709263165791829,-10.709501266479492,12.051154136657717,1.6887023289331057e+18,16.948105712890627,-8.65982453028361,-15.064613024393717,10.882158597310385,1.6887023289417562e+18,16.956755940755205,-1.4684714078903198,-9.6690149307251,0.6720064282417297,1.6887023289417562e+18,16.956755940755205,1.1223630507787068,4.4000624020894366,-2.5679756800333657,1.6887023289287852e+18,16.94378507486979,1.5510377486546834,5.261738618214925,-1.871182103951772,,,,,,,,,,,,1.6887023289391112e+18,16.954111181640624,-24.70499954223633,43.68087921142578,8.986519813537598,1.6887023289391112e+18,16.954111181640624,-279.24578857421875,139.1458770751953,-124.22527770996092,1.6887023289331057e+18,16.948105712890627,0.668813169002533,-0.7262524565060934,-0.0903993174433708,0.1250986655553181,-2.3981218338012695,1.4702836275100708,-0.4369306468094389
2.0,1.6887023289850112e+18,17.00001135253906,-6.095486640930176,-21.180161952972412,8.92827033996582,1.6887023289850122e+18,17.000012369791666,-8.579665184020996,-29.793632507324215,10.297711451848349,1.6887023289850112e+18,17.00001135253906,-2.588230013847351,-9.386794567108154,1.1552081406116486,1.6887023289850112e+18,17.00001135253906,-1.9412533640861511,2.3000603318214417,-2.503020405769348,1.6887023289806856e+18,16.99568546549479,-1.5350534891088805,2.487697760264078,-2.688468893369039,,,,,,,,,,,,1.6887023289891098e+18,17.00410961914063,-16.035679626464844,46.50883865356445,11.67052001953125,1.6887023289891098e+18,17.00410961914063,-270.57647094726565,141.97383728027344,-121.54127807617188,1.6887023289850122e+18,17.000012369791666,0.6010796229044596,-0.7627898454666138,-0.1491174697875976,0.1840334236621856,-2.704380989074707,1.335434158643087,0.0420094951987266
2.05,1.688702329028264e+18,17.043263916015626,-2.500159581502279,-5.039495468139648,-1.49619726339976,1.6887023290369157e+18,17.051915771484374,-5.75812832514445,-13.506686210632324,0.3563311596711476,1.688702329028264e+18,17.043263916015626,-3.3140641848246255,-8.897542635599772,2.419153412183126,1.688702329028264e+18,17.043263916015626,-3.5378260612487793,-1.571501741806666,-1.6023504336675007,1.68870232903259e+18,17.047590087890626,-3.5535048643747964,-2.069662302422026,-1.6205745935440063,,,,,,,,,,,,1.68870232903911e+18,17.054110156249997,-10.921439743041992,48.80243835449219,4.330999925732613,1.68870232903911e+18,17.054110156249997,-265.4622375488281,144.26743774414064,-128.88079833984375,1.6887023290369157e+18,17.051915771484374,0.547115166982015,-0.802696704864502,-0.0889468428989251,0.2171500921249389,-2.457844893137614,1.1632493336995442,-0.2380111664533615
2.1,1.6887023290801692e+18,17.095169189453127,29.81403875350952,-9.398827075958252,-6.783886432647705,1.6887023290888215e+18,17.103821451822917,40.37728706995646,-17.897117614746094,-7.411568641662598,1.6887023290801692e+18,17.095169189453127,-5.613691171010335,-7.542399883270264,2.480319857597351,1.6887023290801692e+18,17.095169189453127,-3.901443560918172,-8.821454048156738,-4.471686204274495,1.6887023290844992e+18,17.09949943033854,-3.825340032577514,-8.592888673146566,-4.486449013153711,,,,,,,,,,,,1.68870232908911e+18,17.10411005859375,0.5831600189208984,49.112318420410155,-7.305359649658203,1.68870232908911e+18,17.10411005859375,-253.95762939453124,144.5773162841797,-140.51715698242188,1.6887023290888215e+18,17.103821451822917,0.4459956387678781,-0.8824548721313477,0.0697571216151118,0.1067294726769129,-2.724796692530314,0.8907097776730856,-0.3629911442597707
2.15,1.688702329132075e+18,17.147074869791666,11.675769646962484,-4.971248467763265,-6.511879762013753,1.688702329140726e+18,17.15572599283854,-3.224926630655924,-10.217352708180746,-3.1890344619750977,1.688702329132075e+18,17.147074869791666,-5.666060129801433,-7.455918471018474,2.809110800425211,1.688702329132075e+18,17.147074869791666,-0.1038470895340044,4.461607058842977,3.550196091334025,1.6887023291364014e+18,17.1514013671875,0.1544980059067408,4.673475503921509,3.660049994786581,,,,,,,,,,,,1.6887023291391112e+18,17.15411103515625,-1.6128399848937989,48.660919952392575,-10.9385196685791,1.6887023291391112e+18,17.15411103515625,-256.1536346435547,144.12591857910155,-144.1503143310547,1.688702329140726e+18,17.15572599283854,0.4831766585508982,-0.8597384293874105,0.0874650577704111,0.1346146365006764,-2.56921911239624,0.9408247868220012,-0.5026059846083323
2.2,1.6887023291839782e+18,17.198978352864582,-2.055647611618042,6.8719414075215655,-4.985792636871338,1.6887023291926316e+18,17.207631429036457,-5.443671544392903,-0.6454639037450155,-2.0973090728123984,1.6887023291839782e+18,17.198978352864582,-3.8692440191904702,-8.53140672047933,2.8678699334462485,1.6887023291839782e+18,17.198978352864582,1.3938926855723064,-0.5033020575841268,3.625943342844645,1.6887023291883077e+18,17.20330769856771,1.3753631114959717,-0.8482881585756937,3.588527838389078,,,,,,,,,,,,1.6887023291891103e+18,17.204110693359375,-12.3854398727417,47.63855895996094,-8.130079746246338,1.6887023291891103e+18,17.204110693359375,-266.9262329101563,143.10355529785156,-141.3418762207031,1.6887023291926316e+18,17.207631429036457,0.5683133602142334,-0.809579054514567,0.0639924456675847,0.1292970726887384,-2.41598129272461,1.1297674973805745,-0.6307505369186401
2.25,1.6887023292358848e+18,17.25088484700521,-3.0882009665171304,9.197627385457356,-6.391536235809326,1.6887023292358835e+18,17.250883422851565,-6.154339790344238,0.4223331809043884,-4.288835525512695,1.6887023292358848e+18,17.25088484700521,-2.72382918993632,-9.197470982869469,2.02615487575531,1.6887023292358848e+18,17.25088484700521,0.0175114721059799,-4.525035301844279,3.3140457471211753,1.6887023292402117e+18,17.25521150716146,-0.1435024241606394,-4.810258309046428,3.2999958197275796,1.6887023292315648e+18,17.246564697265626,0.0,0.0,1.0697076320648191,26.73500061035156,1.895686149597168,176.11900329589844,43.400001525878906,-122.7537299,49.1875513,1.68870232923911e+18,17.254109716796876,-19.778639602661137,45.56943893432617,-8.091039848327636,1.68870232923911e+18,17.254109716796876,-274.31943969726564,141.03443908691406,-141.3028350830078,1.6887023292358835e+18,17.250883422851565,0.6205651760101318,-0.7750541865825653,0.099486906081438,0.0600662678480148,-2.365808129310608,1.255118906497955,-0.8321899473667145
2.3,1.6887023292877883e+18,17.30278824869792,5.880473693211873,-7.958291371663411,-8.469136555989584,1.6887023292791396e+18,17.294139404296875,1.3752747178077696,-12.900304953257242,-6.614160537719727,1.6887023292877883e+18,17.30278824869792,-1.7670753796895344,-9.533285140991213,1.4509127537409463,1.6887023292877883e+18,17.30278824869792,0.6709336936473846,-3.081560691197714,2.4516058762868247,1.6887023292921132e+18,17.307113037109374,1.0722721417744954,-1.9863301912943525,2.253278215726217,,,,,,,,,,,,1.6887023292891118e+18,17.304111767578128,-23.445959854125977,42.10220031738281,-13.773799896240234,1.6887023292891118e+18,17.304111767578128,-277.98674926757815,137.56719970703125,-146.9855987548828,1.6887023292791396e+18,17.294139404296875,-0.2243777513504028,0.2335585157076517,-0.0781694501638412,0.0355195738375186,-2.224163373311361,1.333517034848531,-1.2223823070526123
2.35,1.688702329339696e+18,17.35469620768229,9.912965138753256,-29.583153406778973,7.003903865814209,1.6887023293310446e+18,17.346044514973958,10.090732733408608,-37.29194132486979,3.688536087671915,1.688702329339696e+18,17.35469620768229,-1.8482197125752768,-9.617504755655924,0.1132725700736045,1.688702329339696e+18,17.35469620768229,5.700238227844238,18.853744506835938,-2.5127432545026145,1.6887023293353764e+18,17.350376220703126,6.569092035293579,19.017303943634033,-2.93558931350708,,,,,,,,,,,,1.6887023293391127e+18,17.354112646484374,-24.783079528808592,42.260799407958984,0.4977601170539856,1.6887023293391127e+18,17.354112646484374,-279.32387084960936,137.72579956054688,-132.71403961181642,1.6887023293310446e+18,17.346044514973958,-0.2367202639579773,0.2364983161290486,-0.1083075273782014,0.0571543717912087,-0.7084519863128662,1.433398167292277,-0.3332321345806122
2.4,1.6887023293916063e+18,17.4066064453125,2.0760680039723716,-6.249783198038737,0.5524436632792155,1.6887023293829578e+18,17.397957600911457,0.9084750413894652,-20.824735005696613,2.6059831380844116,1.6887023293916063e+18,17.4066064453125,-3.653799136479696,-9.081672350565592,0.4135833283265431,1.6887023293916063e+18,17.4066064453125,1.1022554536660512,5.937915484110515,-3.450523247321447,1.6887023293786284e+18,17.39362825520833,2.1804326673348746,12.597670435905457,-4.0759983857472735,,,,,,,,,,,,1.688702329389121e+18,17.4041208984375,-4.35295991897583,41.8923583984375,23.9851993560791,1.688702329389121e+18,17.4041208984375,-258.8937561035156,137.35735778808595,-109.22659759521484,1.6887023293829578e+18,17.397957600911457,0.5262558062871298,-0.7236411174138387,-0.3590763906637828,0.256658062338829,-1.0659315586090088,1.2548087040583291,0.9347302516301472
2.45,1.688702329434856e+18,17.449855712890624,2.5946390628814697,4.631727457046509,2.573242604732513,1.6887023294348613e+18,17.449861165364585,-0.7976075286666552,-4.592225472132365,2.3052852153778076,1.688702329434856e+18,17.449855712890624,-3.71195125579834,-9.076837062835692,-0.1372249836567789,1.688702329434856e+18,17.449855712890624,-1.4937946200370789,-8.22751498222351,1.7562376260757446,1.688702329430536e+18,17.445535807291666,-1.2907582422097523,-7.463449478149414,1.3434962779283524,,,,,,,,,,,,1.6887023294391155e+18,17.45411552734375,-4.1577598571777346,42.28275833129883,23.902239990234374,1.6887023294391155e+18,17.45411552734375,-258.6985565185547,137.7477569580078,-109.30955810546877,1.6887023294348613e+18,17.449861165364585,0.5401449998219808,-0.7510441939036051,-0.3182133336861928,0.1977739582459131,3.0032877127329507,1.225566824277242,0.8989903529485067
2.5,1.6887023294781115e+18,17.493111572265622,3.394449472427368,9.18846035003662,2.7677594820658364,1.688702329486762e+18,17.50176212565104,1.1714860995610554,0.329212506612142,2.467997153600057,1.6887023294781115e+18,17.493111572265622,-2.8323989709218345,-9.385313034057615,-0.2081127086033423,1.6887023294781115e+18,17.493111572265622,-2.9133690198262534,-7.723423798878987,1.726712425549825,1.6887023294824374e+18,17.4974375,-2.977102756500244,-7.512675126393636,1.6361515919367473,,,,,,,,,,,,1.688702329489115e+18,17.50411494140625,-16.755479431152345,44.31284027099609,13.749399757385254,1.688702329489115e+18,17.50411494140625,-271.29627685546876,139.77784118652343,-119.46239776611328,1.688702329486762e+18,17.50176212565104,0.6164639790852865,-0.7675503492355347,-0.1378040090203285,0.093777410686016,0.9463043212890624,1.345385988553365,0.4326314528783162
2.55,1.6887023295300206e+18,17.54502042643229,3.7029576301574703,10.889324188232422,0.9601827263832092,1.6887023295386673e+18,17.55366707356771,-0.2141576608022054,1.1613165537516277,1.444068471590678,1.6887023295300206e+18,17.54502042643229,-2.3361210028330484,-9.502127965291342,0.629972110191981,1.6887023295300206e+18,17.54502042643229,-3.175990263621012,-4.810920079549153,0.5794565776983897,1.688702329534346e+18,17.54934611002604,-3.152777353922526,-4.651535193125407,0.5319618284702301,,,,,,,,,,,,1.6887023295391163e+18,17.554116357421872,-20.698519897460933,44.7764389038086,1.6250400066375732,1.6887023295391163e+18,17.554116357421872,-275.23931274414065,140.24143676757814,-131.58675842285157,1.6887023295386673e+18,17.55366707356771,0.6378564039866129,-0.767820139726003,0.0160783858348925,0.0433531875411669,-2.706387758255005,1.364959756533305,-0.3964535122116406
2.6,1.6887023295819256e+18,17.596925618489582,3.290107091267904,9.469216664632162,-0.9199205040931702,1.6887023295905702e+18,17.60557014973958,0.8223333992063999,-0.4017947961886723,0.4410769740740458,1.6887023295819256e+18,17.596925618489582,-2.3838888804117837,-9.389299392700195,1.535199522972107,1.6887023295819256e+18,17.596925618489582,-2.3325380086898804,-3.629048744837443,0.40261110663414,1.6887023295862497e+18,17.601249267578126,-2.210212230682373,-3.4022648334503174,0.3906992177168528,,,,,,,,,,,,1.6887023295891154e+18,17.60411533203125,-20.949839782714843,43.88827972412109,-8.569279956817628,1.6887023295891154e+18,17.60411533203125,-275.4906311035156,139.35328063964843,-141.78107604980468,1.6887023295905702e+18,17.60557014973958,0.6361602147420248,-0.7595814863840739,0.1327346588174501,0.0105310576812674,-2.373058795928955,1.3018495241800945,-0.9432377616564432
2.65,1.688702329633825e+18,17.648825032552082,1.9200836817423503,5.809374968210856,-1.0829212268193562,1.6887023296424768e+18,17.657477132161457,-1.591825306415558,-4.017549276351929,1.5916258494059246,1.688702329633825e+18,17.648825032552082,-2.4230385621388755,-9.317495346069336,1.8836439847946167,1.688702329633825e+18,17.648825032552082,-0.0673987915118535,0.5199481248855592,-0.3524183308084805,1.6887023296381563e+18,17.65315616861979,0.122682104508082,0.9088147481282552,-0.4234823375009,,,,,,,,,,,,1.6887023296391132e+18,17.65411318359375,-19.93967933654785,43.47835922241211,-12.12679977416992,1.6887023296391132e+18,17.65411318359375,-274.4804748535156,138.943359375,-145.3385986328125,1.6887023296424768e+18,17.657477132161457,0.2100917299588521,-0.2550091544787089,0.0441042979558309,0.0095400636006766,-2.3216870625813804,1.277106523513794,-1.0306211511294048
2.7,1.6887023296857354e+18,17.7007353515625,-5.694141705830892,-8.864396413167318,5.832885464032491,1.6887023296857293e+18,17.700729125976565,-7.733004570007324,-15.745969772338867,6.830013036727905,1.6887023296857354e+18,17.7007353515625,-2.334041118621826,-9.384308179219564,1.6304527123769124,1.6887023296857354e+18,17.7007353515625,2.3451117277145386,3.814293543497721,0.0419969807068506,1.6887023296900608e+18,17.705060791015626,2.6060529947280884,4.110054095586141,0.0768672103683153,,,,,,,,,,,,1.6887023296891182e+18,17.704118359375,-20.76440010070801,44.049319458007815,-7.512759780883789,1.6887023296891182e+18,17.704118359375,-275.30518798828126,139.51431579589843,-140.72455444335938,1.6887023296857293e+18,17.700729125976565,0.6368671953678131,-0.7636698484420776,0.0962107069790363,0.0392537601292133,-2.366219639778137,1.307450830936432,-0.8567058145999908
2.75,1.6887023297376415e+18,17.75264152018229,-4.714444160461426,-23.673850695292156,6.139135042826335,1.68870232972899e+18,17.74398974609375,-7.610372543334961,-36.80061594645182,9.410373210906982,1.6887023297376415e+18,17.75264152018229,-2.293399175008138,-9.463594118754068,1.1531160672505696,1.6887023297376415e+18,17.75264152018229,1.0178033510843914,7.6679368019104,-1.675552447636922,1.6887023297419656e+18,17.75696573893229,0.4517348458369573,7.665391763051351,-1.8526015679041543,1.6887023297506191e+18,17.765619140625,0.0,0.0,1.0697076320648191,24.23699951171875,1.9492591619491575,175.06460571289062,43.400001525878906,-122.7537175,49.1875338,1.688702329739115e+18,17.754114990234378,-19.695679092407225,44.849639129638675,3.8210399627685545,1.688702329739115e+18,17.754114990234378,-274.236474609375,140.31463623046875,-129.39075622558593,1.68870232972899e+18,17.74398974609375,0.6338272492090861,-0.7637131015459696,-0.0377518869936466,0.1006168064971764,-2.590531349182129,1.3652129968007405,-0.3536385893821716
2.8,1.6887023297895442e+18,17.804544108072918,-4.299464861551921,0.2981626192728678,-5.449926376342773,1.688702329780894e+18,17.795893961588543,-7.410970369974772,-10.265209118525188,-2.237289081017176,1.6887023297895442e+18,17.804544108072918,-3.109973748524984,-8.845766385396322,2.786440054575602,1.6887023297895442e+18,17.804544108072918,-3.7833938598632817,0.6893613338470459,-3.4857497612635293,1.6887023297852058e+18,17.800205566406248,-3.232546091079712,3.4401638507843018,-2.1278727054595947,,,,,,,,,,,,1.688702329789117e+18,17.8041169921875,-12.631879806518556,46.965119171142575,4.870239853858948,1.688702329789117e+18,17.8041169921875,-267.17267456054685,142.43011779785155,-128.3415542602539,1.688702329780894e+18,17.795893961588543,0.567382295926412,-0.7781596779823303,-0.1193609312176704,0.2387190063794453,-2.373704115549723,1.2260197401046755,-0.2475053121646244
2.85,1.688702329841452e+18,17.85645206705729,40.52429978052775,-8.055921872456869,5.35198450088501,1.688702329832794e+18,17.84779402669271,18.55035622914632,-14.718252182006836,4.368496596813202,1.688702329841452e+18,17.85645206705729,-6.637011845906575,-6.941934426625569,1.3091594328482945,1.688702329841452e+18,17.85645206705729,-3.7409896850585938,-14.625336011250814,-3.772398213545481,1.688702329828474e+18,17.843473795572915,-4.5951828956604,-15.154090563456217,-5.8339158693949384,,,,,,,,,,,,1.6887023298391127e+18,17.8541126953125,4.0918798193335535,47.68735961914062,-5.477799868583679,1.6887023298391127e+18,17.8541126953125,-250.44891357421875,143.15235595703126,-138.68959350585936,1.688702329832794e+18,17.84779402669271,0.1697131196657816,-0.2785882353782654,-0.0489061164359251,0.123805580039819,-2.7908687591552734,0.8752578695615133,-0.2607325861851374
2.9,1.688702329884698e+18,17.899697998046875,12.064934730529783,-0.4392104148864746,-2.3737414479255676,1.6887023298847048e+18,17.899704833984377,10.973085562388102,-8.379864374796549,-0.5276174147923788,1.688702329884698e+18,17.899697998046875,-6.756920337677002,-7.0094895362854,1.079348623752594,1.688702329884698e+18,17.899697998046875,-1.355891764163971,6.182643413543701,1.6922494769096377,1.6887023298803786e+18,17.89537882486979,-1.5231925249099731,3.398294369379679,1.5305737853050232,,,,,,,,,,,,1.6887023298891192e+18,17.904119189453123,7.917799949645996,46.935839080810545,-9.628239822387696,1.6887023298891192e+18,17.904119189453123,-246.622998046875,142.4008361816406,-142.8400390625,1.6887023298847048e+18,17.899704833984377,0.1539501746495565,-0.293672780195872,0.0375441561142603,0.0377636865402261,-2.946481704711914,0.8432877659797668,-0.3990328411261241
2.95,1.6887023299279572e+18,17.942957112630207,-1.30411958694458,3.990201473236084,-3.697986364364624,1.6887023299366054e+18,17.951605631510414,-6.437490304311116,-2.534198582172394,-1.544566988945007,1.6887023299279572e+18,17.942957112630207,-5.780294259389241,-7.591442584991455,2.2480599880218506,1.6887023299279572e+18,17.942957112630207,-0.2569706464807192,1.4634804526964824,2.6255497137705484,1.688702329932276e+18,17.947276041666665,-0.1722640047470728,0.9497936367988586,2.673553546269735,,,,,,,,,,,,1.6887023299391153e+18,17.954115234375003,-0.5392400026321413,47.6336784362793,-12.429359817504883,1.6887023299391153e+18,17.954115234375003,-255.0800323486328,143.0986785888672,-145.6411560058594,1.6887023299366054e+18,17.951605631510414,0.4806227087974548,-0.8650159438451132,0.1220592235525448,0.074018729229768,-2.704370896021525,0.9503942926724752,-0.5085485875606537
3.0,1.6887023299798625e+18,17.994862223307294,-1.318459669748942,7.0703193346659345,-5.175930341084798,1.6887023299885135e+18,18.00351359049479,-5.857230981190999,-2.130210429430008,-3.7840495904286704,1.6887023299798625e+18,17.994862223307294,-4.769941647847493,-8.37305482228597,1.783231496810913,1.6887023299798625e+18,17.994862223307294,-0.033852116515239,-3.482441027959188,3.256878932317098,1.6887023299841894e+18,17.999189453125002,-0.0774271711707115,-3.83801547686259,3.334662437438965,,,,,,,,,,,,1.6887023299891205e+18,18.004120556640622,-6.912519836425782,47.34087905883789,-12.995439720153808,1.6887023299891205e+18,18.004120556640622,-261.45330810546875,142.80587768554688,-146.20723876953124,1.6887023299885135e+18,18.00351359049479,0.1671971082687378,-0.2867574095726013,0.0363811900218327,0.029453118952612,-2.72927196820577,1.0927969217300415,-0.628841499487559
3.05,1.6887023300317622e+18,18.046762044270835,7.230525016784668,-7.154861291249593,-5.838313579559326,1.6887023300404183e+18,18.055418294270833,17.59422516822815,-26.104697227478027,-0.8271188735961914,1.6887023300317622e+18,18.046762044270835,-3.394295612970988,-9.160642623901367,0.6585747301578522,1.6887023300317622e+18,18.046762044270835,0.6701700886090597,-3.3893858591715493,3.920176903406779,1.6887023300360876e+18,18.05108748372396,1.0536916454633076,-1.9793052673339844,3.839593489964803,,,,,,,,,,,,1.6887023300391117e+18,18.054111572265622,-13.929959487915038,46.02572021484375,-15.106039810180665,1.6887023300391117e+18,18.054111572265622,-268.470751953125,141.49071655273437,-148.31783752441407,1.6887023300404183e+18,18.055418294270833,-0.5944917798042297,0.7714237173398336,-0.1998207817475,0.1012915348013241,-2.8588756720225015,1.2830362717310588,-0.7167044878005981
3.1,1.6887023300836728e+18,18.098672770182297,8.33817688624064,-33.42776234944662,9.413931369781494,1.6887023300923228e+18,18.10732275390625,-7.5086774826049805,-36.92922846476237,7.046663261950016,1.6887023300836728e+18,18.098672770182297,-1.9932725032170613,-9.601610819498696,0.1483104427655537,1.6887023300836728e+18,18.098672770182297,5.215058326721191,22.695170720418293,1.3457870185375214,1.6887023300879946e+18,18.10299495442709,5.090798219045003,23.184371948242188,0.6236934264500936,,,,,,,,,,,,1.6887023300891192e+18,18.10411918945313,-20.696079444885253,44.91551971435547,8.615639972686768,1.6887023300891192e+18,18.10411918945313,-275.23687744140625,140.38052062988282,-124.59615783691406,1.6887023300923228e+18,18.10732275390625,0.6279778083165487,-0.7311586141586304,-0.1572190951555967,0.1347159308691819,1.04525883992513,1.4152527650197346,0.4248622705539067
3.15,1.6887023301355735e+18,18.15057356770833,-3.119511127471924,-3.576990127563477,-2.8421875834465027,1.688702330135578e+18,18.150578125000003,-1.4847464263439178,-12.796815395355225,-3.3765718042850494,1.6887023301355735e+18,18.15057356770833,-2.9842437903086343,-9.337316513061523,-0.0023555035392443,1.6887023301355735e+18,18.15057356770833,0.9450594286123912,1.1604403257369995,-2.899675597747167,1.6887023301399032e+18,18.15490348307292,0.695419192314148,-0.8016587893168131,-2.411034246285757,,,,,,,,,,,,1.6887023301391163e+18,18.154116357421877,-6.2976397514343265,44.13227920532226,25.60779914855957,1.6887023301391163e+18,18.154116357421877,-260.838427734375,139.59727783203124,-107.60399627685548,1.688702330135578e+18,18.150578125000003,0.5441790223121643,-0.7144131660461426,-0.3604984879493713,0.251601867377758,3.0263431072235107,1.2839531302452087,1.0205366611480713
3.2,1.688702330187481e+18,18.20248103841146,1.2757134437561035,6.135834852854411,3.3408138751983643,1.6887023301788314e+18,18.19383129882813,-1.3796616196632383,-4.779862642288208,2.399402936299642,1.688702330187481e+18,18.20248103841146,-2.4903337160746255,-9.44754441579183,-0.7977174520492554,1.688702330187481e+18,18.20248103841146,-1.082911362250646,-7.907039642333984,1.83295206228892,1.6887023301918052e+18,18.206805013020837,-1.2876021365324657,-7.858577728271484,1.852805217107137,,,,,,,,,,,,1.6887023301891164e+18,18.20411635742187,-15.76240005493164,44.06883850097656,21.886799240112303,1.6887023301891164e+18,18.20411635742187,-270.3031921386719,139.5338348388672,-111.3249969482422,1.6887023301788314e+18,18.19383129882813,0.5995890498161316,-0.7328185041745504,-0.2751482377449671,0.1556392187873522,2.717092514038086,1.3166240453720093,1.050144950548808
