seconds_elapsed_rounded,accelerometer_time,accelerometer_seconds_elapsed,accelerometer_z,accelerometer_y,accelerometer_x,accelerometeruncalibrated_time,accelerometeruncalibrated_seconds_elapsed,accelerometeruncalibrated_z,accelerometeruncalibrated_y,accelerometeruncalibrated_x,gravity_time,gravity_seconds_elapsed,gravity_z,gravity_y,gravity_x,gyroscope_time,gyroscope_seconds_elapsed,gyroscope_z,gyroscope_y,gyroscope_x,gyroscopeuncalibrated_time,gyroscopeuncalibrated_seconds_elapsed,gyroscopeuncalibrated_z,gyroscopeuncalibrated_y,gyroscopeuncalibrated_x,location_time,location_seconds_elapsed,location_bearingAccuracy,location_speedAccuracy,location_verticalAccuracy,location_horizontalAccuracy,location_speed,location_bearing,location_altitude,location_longitude,location_latitude,magnetometer_time,magnetometer_seconds_elapsed,magnetometer_z,magnetometer_y,magnetometer_x,magnetometeruncalibrated_time,magnetometeruncalibrated_seconds_elapsed,magnetometeruncalibrated_z,magnetometeruncalibrated_y,magnetometeruncalibrated_x,orientation_time,orientation_seconds_elapsed,orientation_qz,orientation_qy,orientation_qx,orientation_qw,orientation_roll,orientation_pitch,orientation_yaw
0.0,1.688702896246171e+18,75.0011709798177,5.954763412475586,-9.199217478434244,8.970482349395752,1.688702896246171e+18,75.0011709798177,3.698904991149902,-17.916658719380695,12.880365053812662,1.688702896246171e+18,75.0011709798177,-2.261704126993815,-8.699937502543131,3.8471949895222983,1.688702896246171e+18,75.0011709798177,2.8158342043558755,6.832476774851481,-8.452134927113852,1.688702896246171e+18,75.0011709798177,2.814917961756388,6.836905638376872,-8.449844201405844,,,,,,,,,,,,1.6887028962467825e+18,75.00178242187499,-14.801039791107176,47.7800796508789,4.782400012016296,1.6887028962467825e+18,75.00178242187499,-272.2210388183594,142.4032775878906,-128.0999984741211,1.688702896246171e+18,75.0011709798177,0.5148965716362,-0.7634098529815674,-0.1497148200869559,0.3518735766410827,-2.0726327498753867,1.101314663887024,-0.3207860983287294
0.05,1.688702896298069e+18,75.05306901041666,-1.6199308236440022,4.132447401682536,0.5914817651112875,1.688702896298069e+18,75.05306901041666,-5.060022354125977,-4.464608271916707,3.9250267346700034,1.688702896298069e+18,75.05306901041666,-3.4459375540415444,-8.579551060994467,3.270857572555542,1.688702896298069e+18,75.05306901041666,1.2884675711393356,-0.8810712893803915,-0.2711732834577561,1.688702896298069e+18,75.05306901041666,1.2874494244654973,-0.8766425450642904,-0.2688825502991676,,,,,,,,,,,,1.6887028962967752e+18,75.05177514648437,1.393239963054657,49.32215957641601,12.758759880065918,1.6887028962967752e+18,75.05177514648437,-256.02675476074216,143.9453582763672,-120.12363739013672,1.688702896298069e+18,75.05306901041666,0.4445817867914836,-0.7744919657707214,-0.2648053069909413,0.3633682330449422,-2.37609068552653,1.0787179470062256,0.1861600677172342
0.1,1.6887028963499704e+18,75.10497021484376,2.0470550855000815,9.781187057495115,-0.5650169452031454,1.6887028963499704e+18,75.10497021484376,-1.0077771544456482,0.8769695162773132,2.298306107521057,1.6887028963499704e+18,75.10497021484376,-3.060678243637085,-8.886713027954102,2.800635655721029,1.6887028963499704e+18,75.10497021484376,-1.2287045518557231,-4.680653095245361,3.1086932023366294,1.6887028963499704e+18,75.10497021484376,-1.2297226587931316,-4.67622439066569,3.110983928044637,,,,,,,,,,,,1.6887028963467832e+18,75.101783203125,-5.514399933815002,48.968359375,12.504999732971193,1.6887028963467832e+18,75.101783203125,-262.93438720703125,143.5915557861328,-120.37739715576171,1.6887028963499704e+18,75.10497021484376,0.5086623132228851,-0.7824908097585043,-0.1896340996026992,0.3024919132391612,-2.383456548055013,1.147606372833252,-0.0296988232682148
0.15,1.6887028964018737e+18,75.15687361653646,1.667125662167867,11.981744130452476,-1.9707750876744587,1.6887028964018737e+18,75.15687361653646,-0.6085745493570963,2.936791022618612,1.1710872650146484,1.6887028964018737e+18,75.15687361653646,-2.2815462748209634,-9.027448336283364,3.0791749954223633,1.6887028964018737e+18,75.15687361653646,-2.1349740028381348,-4.99759038289388,3.315216620763143,1.6887028964018737e+18,75.15687361653646,-2.136043071746826,-4.993161519368489,3.317507346471151,,,,,,,,,,,,1.688702896396781e+18,75.15178120117187,-16.030799674987794,47.314039611816405,5.951159858703614,1.688702896396781e+18,75.15178120117187,-273.4507995605469,141.93723754882814,-126.93123931884766,1.6887028964018737e+18,75.15687361653646,0.5742568969726562,-0.7764387329419454,-0.0632313409199316,0.2480184882879257,-2.1748926639556885,1.178826649983724,-0.5137424767017365
0.2,1.688702896445123e+18,75.20012316894531,2.116124749183655,10.550572872161863,-2.3832671642303467,1.688702896445123e+18,75.20012316894531,0.3831507265567779,1.5535401105880735,1.2233306169509888,1.688702896445123e+18,75.20012316894531,-1.7388200759887695,-8.979527950286865,3.5439103841781616,1.688702896445123e+18,75.20012316894531,-2.0618229508399963,-4.779027938842773,3.120070695877075,1.688702896445123e+18,75.20012316894531,-2.062891900539398,-4.774599075317383,3.122361421585083,,,,,,,,,,,,1.68870289644678e+18,75.20177978515625,-24.595199203491212,43.727238464355466,-5.260639894008636,1.68870289644678e+18,75.20177978515625,-282.01519775390625,138.35043640136718,-138.14303588867188,1.688702896445123e+18,75.20012316894531,0.6166323125362396,-0.7597028017044067,0.0511590922251342,0.1983456090092658,-1.9858301877975464,1.160489559173584,-0.9427217543125154
0.25,1.688702896488377e+18,75.24337687174479,8.429453194141388,6.15980593363444,-3.15735133488973,1.688702896488377e+18,75.24337687174479,7.687341729799907,-2.7938199043273926,0.861216758688291,1.688702896488377e+18,75.24337687174479,-0.7479574382305144,-8.936121304829916,3.955880721410116,1.688702896488377e+18,75.24337687174479,-0.597986176609993,2.364404797554016,1.9802215496699016,1.688702896488377e+18,75.24337687174479,-0.5990042611956596,2.368833621342977,1.9825631380081177,,,,,,,,,,,,1.68870289649678e+18,75.251780078125,-30.373119354248047,39.80127944946289,-8.308199691772462,1.68870289649678e+18,75.251780078125,-287.793115234375,134.42447814941406,-141.1905944824219,1.688702896488377e+18,75.24337687174479,0.6530483762423197,-0.7233180403709412,0.0829405387242634,0.2069420764843622,-1.7190993626912434,1.1442508300145466,-1.2427852153778076
0.3,1.688702896540276e+18,75.29527612304688,-2.8643051385879517,-2.6525955200195312,7.438330014546712,1.688702896540276e+18,75.29527612304688,-2.5704898039499917,-11.64506999651591,11.448858737945557,1.688702896540276e+18,75.29527612304688,0.2879693458477656,-8.974970181783041,3.94784148534139,1.688702896540276e+18,75.29527612304688,0.396706074476242,4.07304573059082,-1.144608736038208,1.688702896540276e+18,75.29527612304688,0.3956370453039805,4.077474594116211,-1.1423180103302002,,,,,,,,,,,,1.68870289654678e+18,75.301780078125,-32.059159469604495,39.47187881469726,-2.0959599554538726,1.68870289654678e+18,75.301780078125,-289.4791625976562,134.09508056640624,-134.97835693359374,1.688702896540276e+18,75.29527612304688,0.6696771581967672,-0.6900914708773295,0.0206573245426018,0.2717970609664917,-1.4584447940190632,1.1529105106989543,-1.3179374138514202
0.35,1.688702896592182e+18,75.34718180338541,-5.189350446065267,-21.76661968231201,16.89388910929362,1.688702896592182e+18,75.34718180338541,-7.03350289662679,-30.28136952718099,21.367906252543133,1.688702896592182e+18,75.34718180338541,-1.8499985138575237,-8.497244834899902,4.411329746246338,1.688702896592182e+18,75.34718180338541,-2.0680333773295083,0.9172650575637816,-7.841575304667155,1.688702896592182e+18,75.34718180338541,-2.0689496596654258,0.9216938515504202,-7.839284578959147,,,,,,,,,,,,1.6887028965967775e+18,75.35177734375,-17.877879524230956,47.10907897949219,-1.581119954586029,1.6887028965967775e+18,75.35177734375,-275.2978759765625,141.73228149414064,-134.46351623535156,1.688702896592182e+18,75.34718180338541,0.5502962867418925,-0.763459046681722,-0.0501462593674659,0.3288441002368927,-1.916560133298238,1.0602030356725056,-0.6630438764890034
0.4,1.6887028966440817e+18,75.39908146158855,0.7823913892110189,-1.568595250447591,-1.943701187769572,1.6887028966440817e+18,75.39908146158855,-3.572882970174154,-8.748359044392904,3.1786654392878213,1.6887028966440817e+18,75.39908146158855,-4.361120382944743,-7.162259101867676,5.05967919031779,1.6887028966440817e+18,75.39908146158855,-2.238312005996704,-1.411251425743103,-3.5185328324635825,1.6887028966440817e+18,75.39908146158855,-2.239228367805481,-1.406822681427002,-3.5162421067555747,,,,,,,,,,,,1.6887028966467832e+18,75.40178315429688,-4.133359980583191,50.07367858886719,-6.705119895935058,1.6887028966467832e+18,75.40178315429688,-261.55335693359376,144.6968780517578,-139.58751525878907,1.6887028966440817e+18,75.39908146158855,0.4198164840539296,-0.8444180289904276,-0.0454943490525086,0.3283175528049469,-2.2647377649943032,0.8320928812026978,-0.3020379245281219
0.45,1.6887028966959828e+18,75.45098266601563,27.610280513763428,-9.617165565490724,-2.6458852291107178,1.6887028966959828e+18,75.45098266601563,21.300706545511883,-15.243277708689371,2.264208416144053,1.6887028966959828e+18,75.45098266601563,-6.3154191970825195,-5.608607769012451,4.847406307856242,1.6887028966959828e+18,75.45098266601563,-4.709312915802002,-8.550586104393005,-1.1176797946294148,1.6887028966959828e+18,75.45098266601563,-4.710330883661906,-8.546157558759054,-1.115389068921407,,,,,,,,,,,,1.6887028966967813e+18,75.45178120117188,5.450959898531437,48.26319808959961,-15.159719848632813,1.6887028966967813e+18,75.45178120117188,-251.96903076171876,142.8863983154297,-148.0421173095703,1.6887028966959828e+18,75.45098266601563,0.3380427161852519,-0.899174710114797,0.0647384163845951,0.2556455979744593,-2.468579053878784,0.6204955379168192,-0.36925275127093
0.5,1.6887028967478863e+18,75.50288631184895,13.411775906880695,-5.326164881388347,-4.234478871027629,1.6887028967478863e+18,75.50288631184895,7.001997788747151,-10.987841765085856,0.603390097618103,1.6887028967478863e+18,75.50288631184895,-6.415624141693115,-5.644172191619873,4.775181611378987,1.6887028967478863e+18,75.50288631184895,-1.1909835934638977,3.157817006111145,2.4095071156819663,1.6887028967478863e+18,75.50288631184895,-1.1920017004013062,3.162245829900106,2.411797841389974,,,,,,,,,,,,1.688702896746777e+18,75.50177739257813,5.233799958229065,46.09403991699219,-21.437839126586915,1.688702896746777e+18,75.50177739257813,-252.18619384765623,140.7172393798828,-154.3202392578125,1.6887028967478863e+18,75.50288631184895,0.3625705937544505,-0.8932555317878723,0.153657113512357,0.2143177638451258,-2.4861390590667725,0.6206354896227518,-0.5591049989064535
0.55,1.68870289679979e+18,75.5547899576823,0.2019120852152506,1.4533724784851074,-6.896522045135498,1.68870289679979e+18,75.5547899576823,-4.749154726664226,-5.0039903322855634,-1.354138175646464,1.68870289679979e+18,75.5547899576823,-4.956912835439046,-6.439858118693034,5.479696591695149,1.68870289679979e+18,75.5547899576823,0.7222972611586252,1.3333660860856371,2.667444944381714,1.68870289679979e+18,75.5547899576823,0.7212282319863638,1.337794880072276,2.6697866121927896,,,,,,,,,,,,1.6887028967967813e+18,75.55178149414061,-4.196799874305725,45.77683944702149,-22.038079452514648,1.6887028967967813e+18,75.55178149414061,-261.616796875,140.40003662109376,-154.92047424316405,1.68870289679979e+18,75.5547899576823,0.4318671921888987,-0.8518623312314352,0.1443677296241124,0.2579538822174071,-2.288419723510742,0.7226759791374207,-0.676714281241099
0.6,1.6887028968516872e+18,75.60668709309896,-1.5753281116485596,-3.9185824394226074,-7.791826566060384,1.6887028968516872e+18,75.60668709309896,-5.29013204574585,-11.409775733947754,-2.606581449508667,1.6887028968516872e+18,75.60668709309896,-3.720649957656861,-7.47368860244751,5.122557799021403,1.6887028968516872e+18,75.60668709309896,0.7938194076220194,-0.5558364590009053,4.277940114339192,1.6887028968516872e+18,75.60668709309896,0.7928521831830343,-0.5514076948165894,4.2802308400472,,,,,,,,,,,,1.6887028968467791e+18,75.60177915039063,-11.914519691467286,45.2009994506836,-20.02507972717285,1.6887028968467791e+18,75.60177915039063,-269.3345153808594,139.8241973876953,-152.90747680664063,1.6887028968516872e+18,75.60668709309896,0.5113312701384226,-0.8138299584388733,0.1435586909453073,0.2334385414918263,-2.175330638885498,0.8716769218444824,-0.830591102441152
0.65,1.6887028968949448e+18,75.64994458007811,20.29573345184326,-21.40351676940918,5.981350421905518,1.6887028968949448e+18,75.64994458007811,18.084354877471924,-29.719454765319824,10.769795894622805,1.6887028968949448e+18,75.64994458007811,-2.2172241806983948,-8.298433303833008,4.725757837295532,1.6887028968949448e+18,75.64994458007811,2.5323418378829956,6.13117802143097,0.9091202020645142,1.6887028968949448e+18,75.64994458007811,2.5312728881835938,6.135606884956359,0.911410927772522,,,,,,,,,,,,1.68870289689678e+18,75.65178002929687,-22.1869197845459,43.08795852661133,-16.63591957092285,1.68870289689678e+18,75.65178002929687,-279.6069091796875,137.7111572265625,-149.5183135986328,1.6887028968949448e+18,75.64994458007811,0.5835481882095337,-0.7694404423236847,0.1149703264236449,0.2289948910474777,-1.9819679856300352,1.01050066947937,-0.9917620420455932
0.7,1.6887028969381967e+18,75.69319669596354,3.051875273386637,-20.640679359436035,15.566754023234049,1.6887028969381967e+18,75.69319669596354,1.228913942972819,-29.18485959370931,20.074984232584637,1.6887028969381967e+18,75.69319669596354,-1.8288074334462483,-8.5266752243042,4.445543130238851,1.6887028969381967e+18,75.69319669596354,2.79455574353536,10.07652791341146,-8.048760414123535,1.6887028969381967e+18,75.69319669596354,2.793537696202596,10.08095645904541,-8.046469688415527,,,,,,,,,,,,1.688702896946781e+18,75.70178110351563,-15.46715955734253,48.0582389831543,1.1882799983024597,1.688702896946781e+18,75.70178110351563,-272.887158203125,142.68143615722656,-131.6941162109375,1.6887028969381967e+18,75.69319669596354,0.5188120603561401,-0.7536460161209106,-0.1174313084532816,0.3749741713205973,-1.9369373718897505,1.061504642168681,-0.4660989791154861
0.75,1.6887028969900982e+18,75.74509814453126,4.181326150894166,2.642274856567383,2.399928569793701,1.6887028969900982e+18,75.74509814453126,0.6685946782430013,-5.576672633488973,6.532206376393636,1.6887028969900982e+18,75.74509814453126,-3.5185775756835938,-8.201443036397299,4.069590250651042,1.6887028969900982e+18,75.74509814453126,1.8997909625371296,2.14540966351827,-2.7713937759399414,1.6887028969900982e+18,75.74509814453126,1.898874560991923,2.149838368097941,-2.7691030502319336,,,,,,,,,,,,1.688702896996776e+18,75.75177587890624,4.95319983959198,50.45431900024414,10.057679843902587,1.688702896996776e+18,75.75177587890624,-252.4667938232422,145.0775177001953,-122.82471618652345,1.6887028969900982e+18,75.74509814453126,0.3898719350496927,-0.7664897640546163,-0.2946509122848511,0.4161323010921478,-2.278653383255005,1.0029776096343994,0.2393422077099482
0.8,1.6887028970420012e+18,75.79700105794271,1.933878501256307,9.44846248626709,-1.0593316952387493,1.6887028970420012e+18,75.79700105794271,-1.418744405110677,0.8486544291178384,2.354736844698588,1.6887028970420012e+18,75.79700105794271,-3.358468929926554,-8.582303365071615,3.3513811429341636,1.6887028970420012e+18,75.79700105794271,-0.3988441030184428,-4.849048296610515,3.3026938438415527,1.6887028970420012e+18,75.79700105794271,-0.399811307589213,-4.844619592030843,3.3050355911254883,,,,,,,,,,,,1.6887028970467812e+18,75.80178120117188,-0.6246399879455566,49.92239990234375,12.08775978088379,1.6887028970467812e+18,75.80178120117188,-258.0446319580078,144.54559631347655,-120.79463806152344,1.6887028970420012e+18,75.79700105794271,0.4492010871569316,-0.7747970223426819,-0.253709152340889,0.3629884322484334,-2.348310391108195,1.0795116821924846,0.1404068171977996
0.85,1.6887028970938982e+18,75.84889803059896,1.3652664422988892,12.788190205891928,-2.5135514736175537,1.6887028970938982e+18,75.84889803059896,-1.1694920460383098,3.87597386042277,0.8061818281809489,1.6887028970938982e+18,75.84889803059896,-2.540604511896769,-8.89471181233724,3.2570459047953286,1.6887028970938982e+18,75.84889803059896,-1.825825333595276,-5.105764547983806,3.789197127024333,1.6887028970938982e+18,75.84889803059896,-1.8268434206644697,-5.101335684458415,3.7915387948354087,,,,,,,,,,,,1.688702897096777e+18,75.85177680664063,-15.088960075378418,48.57551879882813,6.441599988937378,1.688702897096777e+18,75.85177680664063,-272.5089538574219,143.19871826171874,-126.4407974243164,1.6887028970938982e+18,75.84889803059896,0.5351030230522156,-0.7768118580182394,-0.1312808245420455,0.3012605607509613,-2.2083205382029214,1.147593100865682,-0.2962419042984645
0.9,1.6887028971458048e+18,75.90080485026041,2.2525628407796225,11.033509572347006,-3.0647262732187905,1.6887028971458048e+18,75.90080485026041,0.4636093849937121,2.1310079097747803,0.7403792118032771,1.6887028971458048e+18,75.90080485026041,-1.794799566268921,-8.884997367858887,3.742418050765991,1.6887028971458048e+18,75.90080485026041,-2.250936587651571,-4.967912515004476,3.4957781632741294,1.6887028971458048e+18,75.90080485026041,-2.2518529097239175,-4.963483810424805,3.498068888982137,,,,,,,,,,,,1.6887028971467812e+18,75.90178120117187,-24.675719451904296,45.12535934448242,-4.152879978716373,1.6887028971467812e+18,75.90178120117187,-282.0957092285156,139.7485565185547,-137.0352783203125,1.6887028971458048e+18,75.90080485026041,0.5997925798098246,-0.762573778629303,0.016192586471637,0.237507790327072,-1.9827758471171064,1.1390186150868733,-0.8368295033772787
0.95,1.688702897197709e+18,75.9527089029948,4.286362965901692,6.944645245869954,-4.391818841298421,1.688702897197709e+18,75.9527089029948,2.7649065454800925,-1.8658034801483152,-0.2566302220026652,1.688702897197709e+18,75.9527089029948,-1.5273024241129558,-8.792944272359213,4.072501182556152,1.688702897197709e+18,75.9527089029948,-0.4530584067106247,-2.4868323802948,0.9305005073547364,1.688702897197709e+18,75.9527089029948,-0.4539746890465418,-2.4824036359786987,0.9327912628650664,1.6887028972150088e+18,75.9700087890625,0.0,0.0,4.836791515350342,7.321000099182129,2.6085879802703857,193.4441680908203,43.400001525878906,-122.7536228,49.1881712,1.688702897196776e+18,75.95177592773437,-27.78915901184082,41.5556396484375,-12.43179988861084,1.688702897196776e+18,75.95177592773437,-285.2091552734375,136.17884216308593,-145.31419677734374,1.688702897197709e+18,75.9527089029948,0.6290371219317118,-0.7462760011355082,0.1153151467442511,0.1840517868598301,-1.8941009442011516,1.112099051475525,-1.1476097106933594
1.0,1.688702897249607e+18,76.00460701497396,2.1506877342859902,1.8867363929748535,1.476223071416219,1.688702897249607e+18,76.00460701497396,0.623330314954122,-6.996214548746745,5.448656678199768,1.688702897249607e+18,76.00460701497396,-1.5332034428914387,-8.865446408589682,3.9097460905710855,1.688702897249607e+18,76.00460701497396,0.7789549926916758,2.7794368392787874,-1.0721703469753263,1.688702897249607e+18,76.00460701497396,0.7778860032558441,2.7838656728466353,-1.06987959643205,,,,,,,,,,,,1.6887028972467845e+18,76.00178427734375,-27.457319259643555,41.658118438720706,-12.25611991882324,1.6887028972467845e+18,76.00178427734375,-284.8773193359375,136.28131713867188,-145.13851623535157,1.688702897249607e+18,76.00460701497396,0.628339409828186,-0.7485633691151937,0.1017450913786887,0.1836285591125487,-1.9103578329086304,1.1291953325271606,-1.1124634742736816
1.05,1.6887028973015058e+18,76.0565056966146,-5.518765767415364,-29.51777712504069,23.805138905843098,1.6887028973015058e+18,76.0565056966146,-7.157929340998332,-38.12763468424479,28.27997398376465,1.6887028973015058e+18,76.0565056966146,-1.6450095971425374,-8.592352549235025,4.412147760391235,1.6887028973015058e+18,76.0565056966146,-1.003549834092458,8.172460714975992,-5.173264980316162,1.6887028973015058e+18,76.0565056966146,-1.004618763923645,8.176889578501383,-5.170974254608154,,,,,,,,,,,,1.6887028972967793e+18,76.051779296875,-23.575279235839844,45.89883880615234,-3.8991198778152465,1.6887028972967793e+18,76.051779296875,-280.9952758789062,140.52203674316405,-136.7815155029297,1.6887028973015058e+18,76.0565056966146,0.5622106989224752,-0.757691224416097,-0.0366588517402609,0.3213963905970255,-1.8997735977172852,1.0756380558013916,-0.711250106493632
1.1,1.6887028973447644e+18,76.09976440429688,-2.6800684928894043,-4.173601150512695,0.6160343885421753,1.6887028973447644e+18,76.09976440429688,-5.192724108695984,-11.848061084747314,6.257231116294861,1.6887028973447644e+18,76.09976440429688,-2.51850163936615,-7.656955242156982,5.578509092330933,1.6887028973447644e+18,76.09976440429688,-2.87167751789093,1.4678328782320025,-4.115170001983643,1.6887028973447644e+18,76.09976440429688,-2.872593879699707,1.4722615778446198,-4.112879276275635,,,,,,,,,,,,1.68870289734678e+18,76.101780078125,-11.719319915771484,49.99803848266602,-3.3281598567962645,1.68870289734678e+18,76.101780078125,-269.1393127441406,144.621240234375,-136.21055908203124,1.6887028973447644e+18,76.09976440429688,0.4548791795969009,-0.7835718393325806,-0.0897151045501231,0.4130342006683349,-1.977354884147644,0.9062634706497192,-0.3929002285003662
1.15,1.6887028973880123e+18,76.14301228841146,-6.088439464569092,0.3716716766357422,-7.420141061147054,1.6887028973880123e+18,76.14301228841146,-10.376874128977455,-5.8568322857220965,-1.260818084081014,1.6887028973880123e+18,76.14301228841146,-4.294281005859375,-6.210999329884847,6.096635500590007,1.6887028973880123e+18,76.14301228841146,-4.180609146753947,-7.930659731229146,-3.9024108250935874,1.6887028973880123e+18,76.14301228841146,-4.181576251983643,-7.92623096704483,-3.9000691572825112,,,,,,,,,,,,1.6887028973967803e+18,76.1517802734375,0.1488400459289547,49.96875915527344,-11.467999839782715,1.6887028973967803e+18,76.1517802734375,-257.2711547851562,144.59195861816406,-144.35039672851562,1.6887028973880123e+18,76.14301228841146,0.3627129395802815,-0.8419380982716879,-0.0381726305931806,0.3890979985396067,-2.1622865200042725,0.6994327902793884,-0.3002933065096537
1.2,1.6887028974399127e+18,76.19491251627603,57.6927719116211,-8.021877765655518,3.810099283854166,1.6887028974399127e+18,76.19491251627603,50.63930606842041,-14.246466954549154,6.542176445325215,1.6887028974399127e+18,76.19491251627603,-7.059313774108887,-6.207085132598877,2.669389565785726,1.6887028974399127e+18,76.19491251627603,-2.844595750172933,-6.605642000834147,5.779396057128906,1.6887028974399127e+18,76.19491251627603,-2.845613956451416,-6.601213296254476,5.781686782836914,,,,,,,,,,,,1.6887028974467812e+18,76.20178120117188,6.136599963903427,48.38031845092773,-16.452919960021973,1.6887028974467812e+18,76.20178120117188,-251.28339538574215,143.003515625,-149.33531799316407,1.6887028974399127e+18,76.19491251627603,0.3658116459846496,-0.9122353792190552,0.149399327735106,0.0923780997594197,-2.764604091644287,0.6958518425623575,-0.4651143650213877
1.25,1.6887028974918218e+18,76.24682185872395,-0.0409518877665202,0.4981358846028645,-2.5806455612182617,1.6887028974918218e+18,76.24682185872395,-4.961517810821533,-6.8000030517578125,1.7812570333480835,1.6887028974918218e+18,76.24682185872395,-4.926411946614583,-7.28063424428304,4.299215157826741,1.6887028974918218e+18,76.24682185872395,-0.2127847373485565,5.076799233754476,2.833651145299276,1.6887028974918218e+18,76.24682185872395,-0.2137010196844736,5.081227938334147,2.8359418710072837,,,,,,,,,,,,1.6887028974967777e+18,76.2517775390625,-7.84215989112854,47.12127914428711,-18.329279708862305,1.6887028974967777e+18,76.2517775390625,-265.26215209960935,141.74447631835938,-151.21167907714843,1.6887028974918218e+18,76.24682185872395,0.4689825375874837,-0.8512156009674072,0.1438141812880833,0.1824579685926437,-2.403268893559774,0.8424327373504639,-0.6801332831382751
1.3,1.688702897543719e+18,76.29871858723959,-3.199816624323527,-4.555413246154784,-4.235706726710002,1.688702897543719e+18,76.29871858723959,-6.147959073384603,-12.755938212076822,0.3154537950952847,1.688702897543719e+18,76.29871858723959,-2.953988472620646,-8.18302059173584,4.488473097483317,1.688702897543719e+18,76.29871858723959,1.5957327683766682,1.936391870180766,3.728161573410034,1.688702897543719e+18,76.29871858723959,1.594714641571045,1.9408206939697263,3.7305031617482505,,,,,,,,,,,,1.6887028975467776e+18,76.30177768554688,-18.44639949798584,45.66215896606445,-13.93727970123291,1.6887028975467776e+18,76.30177768554688,-275.86639404296875,140.2853576660156,-146.819677734375,1.688702897543719e+18,76.29871858723959,0.5524625778198242,-0.7966797749201456,0.0966142316659291,0.2229409118493397,-2.124216397603353,0.9924701849619548,-0.8307502468427023
1.35,1.688702897595618e+18,76.35061783854167,6.837880492210388,-22.976065317789715,8.745266278584799,1.688702897595618e+18,76.35061783854167,5.838686625162761,-31.78386243184407,13.03330628077189,1.688702897595618e+18,76.35061783854167,-1.0050397912661235,-8.790292421976725,4.225352605183919,1.688702897595618e+18,76.35061783854167,0.4170173307259877,2.5924103260040283,1.062650998433431,1.688702897595618e+18,76.35061783854167,0.4160501261552174,2.5968390703201294,1.0649417241414387,,,,,,,,,,,,1.6887028975967772e+18,76.35177719726563,-28.491879272460935,41.8313591003418,-9.906399917602538,1.6887028975967772e+18,76.35177719726563,-285.91187744140626,136.45456237792968,-142.7887969970703,1.688702897595618e+18,76.35061783854167,0.6314053138097128,-0.734864334265391,0.0676351065436998,0.2368241349856058,-1.774574081103007,1.111023743947347,-1.120624542236328
1.4,1.6887028976475282e+18,76.40252815755208,11.0427614847819,-7.415700912475586,8.036579608917236,1.6887028976475282e+18,76.40252815755208,8.9906325340271,-16.159528732299805,12.066805203755695,1.6887028976475282e+18,76.40252815755208,-2.057975053787231,-8.726323445638021,3.967537800470988,1.6887028976475282e+18,76.40252815755208,3.0738739172617593,8.937111059824625,-7.324987093607585,1.6887028976475282e+18,76.40252815755208,3.072906732559204,8.941539923350016,-7.322645346323649,,,,,,,,,,,,1.688702897646783e+18,76.40178286132813,-19.029560089111328,46.8089599609375,0.0561200141906738,1.688702897646783e+18,76.40178286132813,-276.4495483398438,141.43215637207032,-132.82627563476564,1.6887028976475282e+18,76.40252815755208,0.536212315162023,-0.7635777393976847,-0.1027755690738558,0.3322643140951792,-2.027517318725586,1.1035404205322266,-0.4680687934160232
1.45,1.6887028976994263e+18,76.45442635091145,-5.946657419204712,4.615214029947917,0.9966723918914796,1.6887028976994263e+18,76.45442635091145,-8.786245346069336,-4.27617343266805,4.103491465250651,1.6887028976994263e+18,76.45442635091145,-2.8454339504241943,-8.873882929484049,3.0441316763559976,1.6887028976994263e+18,76.45442635091145,2.4242695569992065,-0.4380412499109904,-0.7613925933837891,1.6887028976994263e+18,76.45442635091145,2.4233533143997192,-0.4336125850677492,-0.7591018676757812,,,,,,,,,,,,1.6887028976967764e+18,76.45177636718749,-3.891799974441528,48.98543853759766,13.671319770812987,1.6887028976967764e+18,76.45177636718749,-261.3117980957031,143.60863647460937,-119.21107788085938,1.6887028976994263e+18,76.45442635091145,0.4748251934846241,-0.7557898163795471,-0.2618762552738189,0.366469144821167,-2.3159899711608887,1.1427122354507446,0.1186215082804361
1.5,1.6887028977513326e+18,76.50633235677083,0.4872416655222575,10.653416633605955,-0.2665975491205851,1.6887028977513326e+18,76.50633235677083,-1.9986050923665364,1.462413435180982,2.209572354952494,1.6887028977513326e+18,76.50633235677083,-2.4916927814483643,-9.1734987894694,2.4134825070699057,1.6887028977513326e+18,76.50633235677083,-0.7167994317909082,-4.090200901031494,2.7516424655914307,1.6887028977513326e+18,76.50633235677083,-0.7178175604591767,-4.085772275924683,2.7539331912994385,1.6887028977340314e+18,76.48903125,0.0,0.0,4.836791515350342,7.330999851226807,2.5777177810668945,191.96560668945312,43.400001525878906,-122.7536198,49.1881516,1.688702897746781e+18,76.50178110351563,-10.409039783477784,47.723958587646486,14.613159561157229,1.688702897746781e+18,76.50178110351563,-267.82903442382815,142.34715881347657,-118.2692367553711,1.6887028977513326e+18,76.50633235677083,0.5345586935679117,-0.7596716086069742,-0.2074936777353286,0.3047382732232411,-2.353267272313436,1.2211139996846516,-0.0345065587510665
1.55,1.6887028977945836e+18,76.54958374023437,0.1711695194244384,11.930099964141846,-1.1589761972427368,1.6887028977945836e+18,76.54958374023437,-1.5672988295555117,2.6288148164749146,1.5436697006225586,1.6887028977945836e+18,76.54958374023437,-1.7443143725395205,-9.283780574798584,2.6399585008621216,1.6887028977945836e+18,76.54958374023437,-1.7395151257514954,-4.63112211227417,3.480175614356994,1.6887028977945836e+18,76.54958374023437,-1.7405077815055847,-4.626693248748779,3.4824663400650024,,,,,,,,,,,,1.688702897796778e+18,76.55177797851562,-20.58871974945068,45.78659896850586,8.022719860076904,1.688702897796778e+18,76.55177797851562,-278.0087097167969,140.40979614257813,-124.85967712402343,1.6887028977945836e+18,76.54958374023437,0.5903224647045135,-0.7543829381465912,-0.1107391528785227,0.263539656996727,-2.119820237159729,1.2512056231498718,-0.4788379818201065
1.6,1.688702897837836e+18,76.59283585611979,1.1006138324737549,11.209023793538412,-1.530566970507304,1.688702897837836e+18,76.59283585611979,0.3060818860928218,1.9134605328241985,1.595613916714986,1.688702897837836e+18,76.59283585611979,-0.8003780245780945,-9.278058687845864,3.063493490219116,1.688702897837836e+18,76.59283585611979,-1.3179417451222737,-4.504621982574463,3.904650608698527,1.688702897837836e+18,76.59283585611979,-1.3189090092976887,-4.500193277994792,3.9069413344065342,,,,,,,,,,,,1.688702897846778e+18,76.6017779296875,-29.994919967651366,41.31163940429688,-1.1931599974632263,1.688702897846778e+18,76.6017779296875,-287.4149108886719,135.9348388671875,-134.0755584716797,1.688702897837836e+18,76.59283585611979,0.6478066444396973,-0.7294650475184122,-0.0017709567133957,0.2153638650973638,-1.7830023368199666,1.2423630952835083,-1.0458972652753191
1.65,1.6887028978897385e+18,76.64473844401043,2.3654708365599313,8.503316879272461,-2.3046477238337197,1.6887028978897385e+18,76.64473844401043,2.311865508556366,-0.6683951218922933,1.280758301417033,1.6887028978897385e+18,76.64473844401043,-0.0594513701895872,-9.154207547505695,3.522718667984009,1.6887028978897385e+18,76.64473844401043,-0.6927211980024973,-4.505894819895427,1.581988304853439,1.6887028978897385e+18,76.64473844401043,-0.693688377737999,-4.501465956370036,1.584279040495555,,,,,,,,,,,,1.6887028978967795e+18,76.65177963867187,-34.35031967163086,36.541439819335935,-10.018639659881591,1.6887028978967795e+18,76.65177963867187,-291.77031860351565,131.16463928222657,-142.90104064941406,1.6887028978897385e+18,76.64473844401043,0.6931488116582235,-0.6951803763707479,0.1103364055355389,0.1513250271479288,-1.5496005217234294,1.1984418630599976,-1.533031344413757
1.7,1.6887028979416374e+18,76.69663736979167,2.5959192911783853,5.608846028645833,-0.0178029537200926,1.6887028979416374e+18,76.69663736979167,1.7242281436920166,-3.5345978339513144,3.5230325063069663,1.6887028979416374e+18,76.69663736979167,-0.8775371114412943,-9.12593936920166,3.4781480630238852,1.6887028979416374e+18,76.69663736979167,0.5910121202468872,-0.6009386976559957,-2.044565955797831,1.6887028979416374e+18,76.69663736979167,0.5900958279768626,-0.5965098738670349,-2.0422751903533936,,,,,,,,,,,,1.6887028979467802e+18,76.70178017578125,-30.895279693603516,38.30555877685547,-15.254879760742188,1.6887028979467802e+18,76.70178017578125,-288.3152770996094,132.928759765625,-148.13727416992188,1.6887028979416374e+18,76.69663736979167,0.6711064378420512,-0.7166455388069153,0.158310572306315,0.1033217633763948,-1.7830942074457805,1.191622972488403,-1.437705437342326
1.75,1.688702897993533e+18,76.74853279622396,-2.364781538645426,-25.401416778564453,25.74076779683431,1.688702897993533e+18,76.74853279622396,-4.3234316905339565,-34.098520278930664,29.884361267089844,1.688702897993533e+18,76.74853279622396,-1.964496334393819,-8.679599126180014,4.080907106399536,1.688702897993533e+18,76.74853279622396,-0.8911505887905756,10.256936391194662,-6.870299657185872,1.688702897993533e+18,76.74853279622396,-0.8920668512582779,10.261365254720053,-6.8680087725321455,,,,,,,,,,,,1.688702897996774e+18,76.75177373046874,-24.05595932006836,44.70811920166015,-8.588799858093262,1.688702897996774e+18,76.75177373046874,-281.4759582519531,139.33131408691406,-141.47119750976563,1.688702897993533e+18,76.74853279622396,0.586558481057485,-0.7673555413881937,0.0441672218342622,0.2349110941092172,-1.992440899213155,1.0934775670369468,-0.8677878777186075
1.8,1.688702898045438e+18,76.80043806966147,-6.7153871059417725,-7.0107526779174805,2.2131217320760093,1.688702898045438e+18,76.80043806966147,-9.278568426767984,-14.370893478393556,8.220542271931967,1.688702898045438e+18,76.80043806966147,-2.5690275033315024,-7.342636585235596,5.9447329839070635,1.688702898045438e+18,76.80043806966147,-2.976339101791382,4.6508225202560425,-4.479882001876831,1.688702898045438e+18,76.80043806966147,-2.977306286493937,4.655251344045003,-4.477591276168823,,,,,,,,,,,,1.6887028980467748e+18,76.80177490234375,-10.099159908294675,50.037078857421875,-4.706759881973267,1.6887028980467748e+18,76.80177490234375,-267.51915283203124,144.6602783203125,-137.5891571044922,1.688702898045438e+18,76.80043806966147,0.4363532165686289,-0.7867678006490072,-0.0792078847686449,0.4270577430725097,-1.9651286999384563,0.8569370110829672,-0.3908587098121643
1.85,1.6887028980973402e+18,76.85234016927083,33.417264540990196,-7.0090562502543134,-10.954603830973308,1.6887028980973402e+18,76.85234016927083,28.811379114786785,-12.425130367279053,-4.374279260635376,1.6887028980973402e+18,76.85234016927083,-4.611730496088664,-5.398569424947103,6.5176370938618975,1.6887028980973402e+18,76.85234016927083,-5.6823703447977705,-9.883392641941706,-1.0394381284713743,1.6887028980973402e+18,76.85234016927083,-5.683337529500325,-9.878963808218638,-1.0370964606602986,,,,,,,,,,,,1.688702898096775e+18,76.85177485351562,-0.0902798652648925,49.236758422851565,-13.732319641113282,1.688702898096775e+18,76.85177485351562,-257.51026611328126,143.85995483398438,-146.61471557617188,1.6887028980973402e+18,76.85234016927083,0.3275627593199412,-0.8508267998695374,0.0081443578625718,0.3942073086897532,-2.1649621725082397,0.5945306817690531,-0.3486277560393016
1.9,1.68870289814924e+18,76.90424007161458,14.14727512995402,-9.322988192240397,-5.769025484720866,1.68870289814924e+18,76.90424007161458,8.93440039952596,-14.48714542388916,0.7585247854391733,1.68870289814924e+18,76.90424007161458,-5.21872091293335,-5.146652539571126,6.464862823486328,1.68870289814924e+18,76.90424007161458,-2.011273761590322,3.347439765930176,4.797786553700765,1.68870289814924e+18,76.90424007161458,-2.01229190826416,3.3518683910369873,4.8001283009847,,,,,,,,,,,,1.688702898146775e+18,76.90177504882813,1.8641600131988525,44.939918518066406,-23.52647933959961,1.688702898146775e+18,76.90177504882813,-255.55583801269532,139.56311950683593,-156.40888061523438,1.68870289814924e+18,76.90424007161458,0.3642722467581431,-0.8595738013585409,0.1465171327193577,0.3240557511647542,-2.2361079851786294,0.5583939353624979,-0.6175257166226705
1.95,1.6887028982011433e+18,76.95614314778646,0.2387750148773193,0.4891821543375651,-8.581145445505777,1.6887028982011433e+18,76.95614314778646,-3.0269206364949546,-5.673781236012776,-1.6243277589480083,1.6887028982011433e+18,76.95614314778646,-3.271541674931844,-6.145458698272705,6.8941300710042315,1.6887028982011433e+18,76.95614314778646,0.9292278289794922,0.6688465476036072,3.9820777575174966,1.6887028982011433e+18,76.95614314778646,0.9282606641451516,0.6732753217220306,3.984368483225504,,,,,,,,,,,,1.6887028981967744e+18,76.9517744140625,-11.860839748382569,42.61703872680664,-24.573239517211913,1.6887028981967744e+18,76.9517744140625,-269.2808349609375,137.2402374267578,-157.45563659667968,1.6887028982011433e+18,76.95614314778646,0.4657600820064544,-0.7967461148897806,0.1617349286874135,0.3482272823651631,-1.997850775718689,0.6808121204376221,-0.8502830862998962
2.0,1.688702898244397e+18,76.99939697265626,2.226320505142212,-1.92503023147583,-10.421605110168455,1.688702898244397e+18,76.99939697265626,-0.253040999174118,-8.914759874343872,-3.924229145050049,1.688702898244397e+18,76.99939697265626,-2.4852075576782227,-6.972224950790405,6.434688568115234,1.688702898244397e+18,76.99939697265626,1.5958091020584106,-0.0603229403495788,1.9784398674964905,1.688702898244397e+18,76.99939697265626,1.5948164463043213,-0.0558941811323165,1.9808069467544556,1.6887028982530447e+18,77.00804467773438,0.0,0.0,4.941127300262451,7.290999889373779,2.5540621280670166,191.4172210693359,43.400001525878906,-122.753619,49.1881477,1.6887028982467748e+18,77.0017748046875,-19.771319580078124,41.594679260253905,-21.99903984069824,1.6887028982467748e+18,77.0017748046875,-277.1913146972656,136.21788024902344,-154.88143615722657,1.688702898244397e+18,76.99939697265626,0.5264548361301422,-0.772004634141922,0.1580512300133704,0.3189920485019684,-1.9225676655769348,0.7924439907073975,-0.9723756909370422
2.05,1.688702898287648e+18,77.04264819335937,6.078203201293945,-11.346333503723145,-4.00583283106486,1.688702898287648e+18,77.04264819335937,4.29770893851916,-19.065611839294434,1.8450656334559123,1.688702898287648e+18,77.04264819335937,-1.7863404353459675,-7.70177427927653,5.788211027781169,1.688702898287648e+18,77.04264819335937,2.742886781692505,2.6892323891321817,0.5142467220624287,1.688702898287648e+18,77.04264819335937,2.741868654886882,2.693661173184713,0.5165374676386515,,,,,,,,,,,,1.688702898296774e+18,77.05177431640625,-23.968119430541993,42.64387893676758,-14.566799354553222,1.688702898296774e+18,77.05177431640625,-281.38812255859375,137.26707458496094,-147.4491973876953,1.688702898287648e+18,77.04264819335937,0.5645755926767985,-0.756625235080719,0.1107118452588716,0.3092147310574849,-1.8499110142389936,0.905342936515808,-0.9937296907107036
2.1,1.68870289833955e+18,77.09455004882813,-0.4474786122639974,-23.41453043619792,13.99514357248942,1.68870289833955e+18,77.09455004882813,-1.4725828170776367,-31.88176981608073,18.91187349955241,1.68870289833955e+18,77.09455004882813,-1.0309501886367798,-8.449735323588053,4.854042689005534,1.68870289833955e+18,77.09455004882813,3.096374193827311,9.612982908884684,-6.966154495875041,1.68870289833955e+18,77.09455004882813,3.0953051249186196,9.617411772410074,-6.963863690694173,,,,,,,,,,,,1.688702898346774e+18,77.10177412109375,-15.881959915161133,47.89963836669922,2.8084400415420534,1.688702898346774e+18,77.10177412109375,-273.3019592285156,142.52283935546876,-130.07395935058594,1.68870289833955e+18,77.09455004882813,0.5289127628008524,-0.7280255556106567,-0.1075658071786165,0.4125063518683116,-1.7633570830027263,1.043350617090861,-0.5942017833391825
2.15,1.6887028983914496e+18,77.14644962565104,9.917555570602415,0.6254639625549316,4.224276701609294,1.6887028983914496e+18,77.14644962565104,6.911269187927246,-7.595417340596517,8.73759126663208,1.6887028983914496e+18,77.14644962565104,-3.0121325651804605,-8.203376770019531,4.450626850128174,1.6887028983914496e+18,77.14644962565104,1.2459614674250286,3.298417796691259,-5.0289989709854135,1.6887028983914496e+18,77.14644962565104,1.2449434002240498,3.302846630414327,-5.026708245277405,,,,,,,,,,,,1.688702898396775e+18,77.15177509765626,5.699840009212494,49.93459854125977,10.003999710083008,1.688702898396775e+18,77.15177509765626,-251.72015380859375,144.55779724121095,-122.8783966064453,1.6887028983914496e+18,77.14644962565104,0.3812011778354645,-0.7476478815078735,-0.3000604708989461,0.4517718056837718,-2.159221649169922,1.0010512669881184,0.1929267520705858
2.2,1.688702898443365e+18,77.198365234375,3.80633274714152,8.588481426239014,-1.6506967544555664,1.688702898443365e+18,77.198365234375,0.5651049613952637,0.2997010747591653,2.5663022994995117,1.688702898443365e+18,77.198365234375,-3.2470737298329673,-8.271275838216146,4.154311656951904,1.688702898443365e+18,77.198365234375,-0.7483099036229154,-4.588972409566243,2.559525450070699,1.688702898443365e+18,77.198365234375,-0.7492771465331316,-4.584543704986572,2.561816175778707,,,,,,,,,,,,1.6887028984467835e+18,77.20178344726563,2.8157599925994874,49.96144027709961,10.40903968811035,1.6887028984467835e+18,77.20178344726563,-254.60423583984377,144.5846374511719,-122.47335815429688,1.688702898443365e+18,77.198365234375,0.4020787974198659,-0.7636206150054932,-0.2782349834839502,0.4197072784105937,-2.228060483932495,1.0140815178553264,0.1655972773830095
2.25,1.6887028984952648e+18,77.25026456705729,4.906644741694133,11.444907188415527,-4.102824529012044,1.6887028984952648e+18,77.25026456705729,2.1692930857340493,3.0488548278808594,0.2576272307584683,1.6887028984952648e+18,77.25026456705729,-2.7431976000467935,-8.378547668457031,4.297764301300049,1.6887028984952648e+18,77.25026456705729,-2.075618267059326,-3.524132490158081,2.952566305796305,1.6887028984952648e+18,77.25026456705729,-2.0765854914983115,-3.5197037855784097,2.9549079736073813,,,,,,,,,,,,1.6887028984967803e+18,77.25178037109376,-7.241920089721679,50.141999053955075,5.890159749984742,1.6887028984967803e+18,77.25178037109376,-264.66192016601565,144.76520080566405,-126.992236328125,1.6887028984952648e+18,77.25026456705729,0.4704174200693766,-0.7786352435747782,-0.1659052371978759,0.3790473639965057,-2.1257994969685874,1.0330519278844197,-0.1930391639471053
2.3,1.6887028985471703e+18,77.30217032877603,3.1690473159154258,9.77463165918986,-5.631494204203288,1.6887028985471703e+18,77.30217032877603,0.7738787134488424,1.559123396873474,-0.7481558918952942,1.6887028985471703e+18,77.30217032877603,-2.401014725367228,-8.198003768920898,4.8206508954366045,1.6887028985471703e+18,77.30217032877603,-2.1056015888849893,-3.314911206563314,2.568739334742228,1.6887028985471703e+18,77.30217032877603,-2.106619715690613,-3.3104823430379233,2.571030060450236,,,,,,,,,,,,1.688702898546779e+18,77.30177905273437,-14.254479598999025,48.97567901611328,-1.7299599051475525,1.688702898546779e+18,77.30177905273437,-271.6744689941406,143.598876953125,-134.61235961914062,1.6887028985471703e+18,77.30217032877603,0.5131031970183054,-0.7831620176633199,-0.0506625448664029,0.3460377951463063,-2.015435695648194,0.996060828367869,-0.5322777926921844
2.35,1.688702898599069e+18,77.35406892903646,2.5654537677764893,6.1698635419209795,-4.415373802185059,1.688702898599069e+18,77.35406892903646,0.4632105628649393,-1.9954146544138591,0.6865406632423401,1.688702898599069e+18,77.35406892903646,-2.108089248339335,-8.147773742675781,5.0392271677653,1.688702898599069e+18,77.35406892903646,-0.7149668633937836,-1.3034846168011427,1.5200872818628948,1.688702898599069e+18,77.35406892903646,-0.7160359025001526,-1.2990558228145044,1.5223780075709026,,,,,,,,,,,,1.6887028985967816e+18,77.35178164062499,-18.936839294433593,46.530799102783206,-7.278520011901856,1.6887028985967816e+18,77.35178164062499,-276.35682983398436,141.15400085449218,-140.16091613769532,1.688702898599069e+18,77.35406892903646,0.5461259881655375,-0.7754113674163818,0.0224645246441165,0.315911849339803,-1.9477901061375935,0.9841105937957764,-0.7567897836367289
2.4,1.6887028986509714e+18,77.40597143554687,-1.2986774444580078,-19.85274346669515,13.008860270182293,1.6887028986509714e+18,77.40597143554687,-2.6923242807388306,-28.05105972290039,18.29352792104085,1.6887028986509714e+18,77.40597143554687,-1.399492859840393,-8.180812199910482,5.2219804128011065,1.6887028986509714e+18,77.40597143554687,-0.2411899591485659,2.5030713081359863,0.5581780970096588,1.6887028986509714e+18,77.40597143554687,-0.2422080648442109,2.5074999729792276,0.5604688872893652,,,,,,,,,,,,1.688702898646777e+18,77.40177709960938,-21.9746395111084,45.31079940795898,-7.86899995803833,1.688702898646777e+18,77.40177709960938,-279.39463500976564,139.93399658203126,-140.75139770507812,1.6887028986509714e+18,77.40597143554687,0.5648496150970459,-0.751837432384491,0.0209136418998241,0.3388192852338155,-1.8132556676864624,0.9889444907506308,-0.8545118570327759
2.45,1.6887028986942218e+18,77.4492216796875,-2.9969552159309387,-20.94517183303833,11.436621904373167,1.6887028986942218e+18,77.4492216796875,-4.139583230018616,-28.878677368164062,17.175381660461426,1.6887028986942218e+18,77.4492216796875,-1.1484739184379578,-7.916000843048096,5.676072359085083,1.6887028986942218e+18,77.4492216796875,-1.4534010887145996,0.862389026209712,-1.88543564081192,1.6887028986942218e+18,77.4492216796875,-1.4543938040733335,0.8668177854269742,-1.8831447958946228,,,,,,,,,,,,1.6887028986967793e+18,77.45177915039062,-21.62327919006348,45.71583862304688,-7.344399738311767,1.6887028986967793e+18,77.45177915039062,-279.04328002929685,140.3390350341797,-140.22679748535157,1.6887028986942218e+18,77.4492216796875,0.5455378592014313,-0.7437273561954498,0.0033503259764984,0.3861586302518844,-1.7522671818733215,0.9422465264797212,-0.8120492398738861
2.5,1.6887028987374758e+18,77.49247607421876,0.7553119659423828,0.5080649058024088,-2.9351507822672525,1.6887028987374758e+18,77.49247607421876,-1.5684951941172285,-6.840282281239827,3.192424217859904,1.6887028987374758e+18,77.49247607421876,-2.329653183619181,-7.3308424949646,6.064887523651123,1.6887028987374758e+18,77.49247607421876,-1.701005180676778,-2.2068015336990356,-2.5504132906595864,1.6887028987374758e+18,77.49247607421876,-1.7020233074824016,-2.2023728688557944,-2.5480716228485107,,,,,,,,,,,,1.688702898746776e+18,77.5017759765625,-15.32807960510254,47.26035919189453,-11.90719985961914,1.688702898746776e+18,77.5017759765625,-272.7480773925781,141.88355712890626,-144.7895935058594,1.6887028987374758e+18,77.49247607421876,0.4907273848851521,-0.782751222451528,0.0231119518478711,0.3810324569543202,-1.9202630917231245,0.8490637938181559,-0.6735187768936157
2.55,1.6887028987893773e+18,77.54437744140625,25.34372329711914,-2.6153109073638916,-1.1896153291066487,1.6887028987893773e+18,77.54437744140625,20.099908749262493,-8.585048993428549,4.365106562773387,1.6887028987893773e+18,77.54437744140625,-5.249660571416219,-5.952233950297038,5.492034276326497,1.6887028987893773e+18,77.54437744140625,-2.0114265282948813,-9.032864252726236,-5.449172496795654,1.6887028987893773e+18,77.54437744140625,-2.0124446153640747,-9.028435468673706,-5.4468817710876465,1.6887028987720768e+18,77.52707690429688,0.0,0.0,4.95078182220459,7.308000087738037,2.5285725593566895,190.65988159179688,43.400001525878906,-122.7536215,49.1881301,1.6887028987967775e+18,77.55177763671875,-1.5786798954010006,47.47751846313477,-18.429319763183592,1.6887028987967775e+18,77.55177763671875,-258.99867858886716,142.10072021484376,-151.31171875,1.6887028987893773e+18,77.54437744140625,0.3822027047475179,-0.8677170276641846,0.088487417747577,0.2901089737812677,-2.3092211882273355,0.6605816880861918,-0.515499214331309
2.6,1.6887028988412751e+18,77.59627514648437,19.03580888112386,-5.333439032236735,-3.333127657572428,1.6887028988412751e+18,77.59627514648437,12.74616714566946,-10.71466096242269,1.9411773184935253,1.6887028988412751e+18,77.59627514648437,-6.295487880706787,-5.363717238108317,5.211617628733317,1.6887028988412751e+18,77.59627514648437,-0.765108714501063,3.9237910509109497,2.6939666668574014,1.6887028988412751e+18,77.59627514648437,-0.7660249968369802,3.92821987469991,2.696257392565409,,,,,,,,,,,,1.68870289884678e+18,77.60178002929688,5.502199947834015,46.24531860351563,-22.05759963989258,1.68870289884678e+18,77.60178002929688,-251.9177978515625,140.86851501464844,-154.93999633789062,1.6887028988412751e+18,77.59627514648437,0.3458141187826791,-0.8938150803248087,0.1336390127738316,0.2487483074267705,-2.438194751739502,0.5839231610298157,-0.5186034440994263
2.65,1.68870289889318e+18,77.64818001302082,1.5721258719762166,2.182933568954468,-6.305275122324626,1.68870289889318e+18,77.64818001302082,-2.5551357666651406,-4.212165355682373,-0.0697906538844108,1.68870289889318e+18,77.64818001302082,-4.133107662200928,-6.3775943120320635,6.172797044118245,1.68870289889318e+18,77.64818001302082,0.4945463140805562,2.4590380986531577,3.8619410196940103,1.68870289889318e+18,77.64818001302082,0.4935791095097859,2.4634668429692588,3.864231745402018,,,,,,,,,,,,1.6887028988967777e+18,77.65177758789062,-7.847039794921875,45.5352783203125,-21.708679580688475,1.6887028988967777e+18,77.65177758789062,-265.26703491210935,140.15847778320312,-154.59107971191406,1.68870289889318e+18,77.64818001302082,0.4407575527826945,-0.8308068712552389,0.1254650031526883,0.3142393132050832,-2.1466101010640464,0.7117801904678345,-0.7003244558970133
2.7,1.6887028989450793e+18,77.70007926432292,1.6912403504053752,-3.244035085042318,-5.844598452250163,1.6887028989450793e+18,77.70007926432292,-0.8588239128390948,-10.571091810862224,0.2279163735608259,1.6887028989450793e+18,77.70007926432292,-2.555910348892212,-7.309552192687988,6.009827454884847,1.6887028989450793e+18,77.70007926432292,1.4033101797103882,0.8254316647847494,2.4433591763178506,1.6887028989450793e+18,77.70007926432292,1.4022411505381267,0.8298604389031728,2.4456499020258584,,,,,,,,,,,,1.688702898946783e+18,77.70178300781251,-18.80507926940918,44.24939804077148,-17.82907943725586,1.688702898946783e+18,77.70178300781251,-276.22507934570314,138.87259826660156,-150.71148071289062,1.6887028989450793e+18,77.70007926432292,0.5217121442159017,-0.7831717133522034,0.1105635340015093,0.3190888861815135,-1.9575838645299275,0.8430690765380859,-0.8670865893363953
2.75,1.6887028989969866e+18,77.75198640950521,7.800414085388184,-25.507081985473633,6.216318766276042,1.6887028989969866e+18,77.75198640950521,5.700501203536987,-33.573495864868164,11.46939738591512,1.6887028989969866e+18,77.75198640950521,-2.105759064356486,-8.048909187316895,5.190391381581624,1.6887028989969866e+18,77.75198640950521,2.707914670308431,3.001282704373201,-1.3805045286814372,1.6887028989969866e+18,77.75198640950521,2.7069474856058755,3.005711538096269,-1.3781629304091136,,,,,,,,,,,,1.6887028989967828e+18,77.75178295898436,-19.90063934326172,45.154638671875,-11.919399738311768,1.6887028989967828e+18,77.75178295898436,-277.3206298828125,139.7778350830078,-144.80179748535156,1.6887028989969866e+18,77.75198640950521,0.5504137078921,-0.7740528583526611,0.0509798068863649,0.3065634965896606,-1.940903027852376,0.9646780292193096,-0.8196898500124613
2.8,1.6887028990488852e+18,77.80388525390624,4.738820552825928,-10.74783452351888,10.89166498184204,1.6887028990488852e+18,77.80388525390624,2.4153550068537393,-19.097117106119793,15.559528986612955,1.6887028990488852e+18,77.80388525390624,-2.3293114503224692,-8.331777890523275,4.605176607767741,1.6887028990488852e+18,77.80388525390624,3.298672358194987,7.32681957880656,-6.506020228068034,1.6887028990488852e+18,77.80388525390624,3.2977051734924316,7.33124844233195,-6.503729502360026,,,,,,,,,,,,1.6887028990467753e+18,77.80177548828125,-10.87995991706848,49.58079833984375,0.7222399711608887,1.6887028990467753e+18,77.80177548828125,-268.299951171875,144.20399780273436,-132.1601577758789,1.6887028990488852e+18,77.80388525390624,0.476985494295756,-0.7671640912691752,-0.1497361461321512,0.3951467672983805,-2.026482661565145,1.0204417705535889,-0.2895208274324735
2.85,1.688702899100795e+18,77.85579500325521,-1.4840887387593586,5.373176256815593,1.651452859242757,1.688702899100795e+18,77.85579500325521,-4.917250474294026,-2.949153979619344,5.634100278218587,1.688702899100795e+18,77.85579500325521,-3.4390077590942383,-8.304825782775879,3.919960021972656,1.688702899100795e+18,77.85579500325521,1.3648765583833058,-1.2188289165496826,-0.7988081177075702,1.688702899100795e+18,77.85579500325521,1.3638584514458971,-1.2144001324971516,-0.7964664498964947,,,,,,,,,,,,1.688702899096783e+18,77.85178315429687,2.6107999801635744,50.38111877441406,9.079239749908448,1.688702899096783e+18,77.85178315429687,-254.8092010498047,145.0043151855469,-123.80316009521484,1.688702899100795e+18,77.85579500325521,0.4122729897499084,-0.7750113407770792,-0.2664813101291656,0.3975176314512889,-2.2855486075083413,1.018006483713786,0.1638555427392323
2.9,1.6887028991526935e+18,77.90769376627604,1.4021809101104736,11.249153772989908,-1.0096315542856853,1.6887028991526935e+18,77.90769376627604,-1.7485551834106443,2.5537399848302207,2.3535405000050864,1.6887028991526935e+18,77.90769376627604,-3.1565821170806885,-8.67790953318278,3.3004846572875977,1.6887028991526935e+18,77.90769376627604,-0.7664322654406229,-4.893794218699138,3.635615428288778,1.6887028991526935e+18,77.90769376627604,-0.7673485477765402,-4.889365514119466,3.6379061539967856,,,,,,,,,,,,1.6887028991467791e+18,77.90177929687499,-3.864959871768951,49.673519897460935,9.616039848327636,1.6887028991467791e+18,77.90177929687499,-261.2849609375,144.29671325683594,-123.2663589477539,1.6887028991526935e+18,77.90769376627604,0.4819618463516235,-0.7856580217679342,-0.195748617251714,0.3318802813688914,-2.3222440083821616,1.0946059226989746,-0.0302490337441364
2.95,1.6887028991959444e+18,77.95094433593749,2.0893054008483887,12.705504417419434,-1.2021121978759766,1.6887028991959444e+18,77.95094433593749,-0.2195414751768112,3.7040895223617554,2.0422741174697876,1.6887028991959444e+18,77.95094433593749,-2.3146928548812866,-8.98391056060791,3.1816989183425903,1.6887028991959444e+18,77.95094433593749,-1.2719741463661194,-5.06430196762085,4.380056619644165,1.6887028991959444e+18,77.95094433593749,-1.2730432152748108,-5.059873104095459,4.382423639297485,,,,,,,,,,,,1.688702899196779e+18,77.95177915039062,-16.160120010375977,47.94599990844726,4.526199913024902,1.688702899196779e+18,77.95177915039062,-273.5801147460937,142.56919860839844,-128.3561981201172,1.6887028991959444e+18,77.95094433593749,0.5586736798286438,-0.7773946523666382,-0.0903683602809905,0.2729634642601013,-2.178400993347168,1.1640173196792605,-0.4320904314517975
3.0,1.688702899239197e+18,77.99419710286459,1.8229141632715864,11.389191309611002,-2.172364672025045,1.688702899239197e+18,77.99419710286459,0.7292127112547556,2.2071795066197715,1.184447209040324,1.688702899239197e+18,77.99419710286459,-1.0995475053787231,-9.164507230122885,3.2941245237986245,1.688702899239197e+18,77.99419710286459,-0.7819584210713705,-4.021682262420654,4.618446667989095,1.688702899239197e+18,77.99419710286459,-0.7829765280087789,-4.017253398895264,4.620737393697103,,,,,,,,,,,,1.6887028992467727e+18,78.00177290039062,-27.406079864501955,42.77319869995117,-2.615679904818535,1.6887028992467727e+18,78.00177290039062,-284.82607421875,137.39639892578126,-135.49807434082032,1.688702899239197e+18,77.99419710286459,0.6326931715011597,-0.7414702971776327,0.0086518811682859,0.2190345625082651,-1.8612709045410156,1.207575837771098,-0.9764352043469748
3.05,1.688702899291094e+18,78.04609399414062,1.5024305582046509,8.701391220092773,-2.295466343561808,1.688702899291094e+18,78.04609399414062,1.4235300421714785,-0.4761716872453689,1.2765708764394124,1.688702899291094e+18,78.04609399414062,-0.0847465246915817,-9.160058657328287,3.509349822998047,1.688702899291094e+18,78.04609399414062,-0.2990185382465521,-3.5231143633524575,2.1394028266270957,1.688702899291094e+18,78.04609399414062,-0.3000366439421971,-3.5186856587727866,2.1416935523351035,1.6887028992910994e+18,78.04609936523437,0.0,0.0,4.95078182220459,7.330999851226807,2.531801700592041,190.396728515625,43.400001525878906,-122.7536217,49.1881242,1.6887028992967818e+18,78.05178188476563,-32.85459976196289,37.88587875366211,-9.689239692687988,1.6887028992967818e+18,78.05178188476563,-290.27459106445315,132.5090759277344,-142.57163696289064,1.688702899291094e+18,78.04609399414062,0.6895092129707336,-0.6990110675493876,0.103061556816101,0.1565771947304407,-1.569496472676595,1.2008783022562664,-1.4950759808222454
3.1,1.6887028993430016e+18,78.09800154622395,0.8863229552904764,-1.6022548675537116,6.545664628346761,1.6887028993430016e+18,78.09800154622395,0.6125626166661581,-10.754541635513306,10.16570790608724,1.6887028993430016e+18,78.09800154622395,-0.2796063646674155,-9.134782473246256,3.557356039683024,1.6887028993430016e+18,78.09800154622395,-0.0603229403495788,3.043076127767563,-2.694730281829834,1.6887028993430016e+18,78.09800154622395,-0.0612392375866572,3.0475048820177713,-2.692439546187719,,,,,,,,,,,,1.6887028993467763e+18,78.101776171875,-32.74235954284668,37.766319274902344,-11.33135986328125,1.6887028993467763e+18,78.101776171875,-290.1623596191406,132.38952026367187,-144.21376037597656,1.6887028993430016e+18,78.09800154622395,0.6824057102203369,-0.7053013245264689,0.1087540015578269,0.1537374158700306,-1.6239148775736492,1.1941702763239543,-1.4528250694274902
3.15,1.6887028993949018e+18,78.14990161132812,-6.895814577738444,-22.239755630493164,20.257190704345703,1.6887028993949018e+18,78.14990161132812,-8.851848284403482,-30.702905019124348,24.839094479878742,1.6887028993949018e+18,78.14990161132812,-1.961880048116048,-8.44564406077067,4.519216219584147,1.6887028993949018e+18,78.14990161132812,-1.9392935037612915,6.837465604146321,-8.03084166844686,1.6887028993949018e+18,78.14990161132812,-1.940311590830485,6.841894467671712,-8.028500080108643,,,,,,,,,,,,1.6887028993967788e+18,78.15177871093749,-21.85752010345459,45.78903884887696,-4.9971198558807375,1.6887028993967788e+18,78.15177871093749,-279.2775146484375,140.4122344970703,-137.8795166015625,1.6887028993949018e+18,78.14990161132812,0.5533253053824106,-0.7705390453338623,-0.0146866093079248,0.3067993720372517,-1.953250567118327,1.0448670387268066,-0.7107780973116556
3.2,1.6887028994468078e+18,78.20180777994791,-2.897495746612549,-3.389897028605143,-2.0980122884114585,1.6887028994468078e+18,78.20180777994791,-6.515655994415283,-10.40897782643636,3.771886150042216,1.6887028994468078e+18,78.20180777994791,-3.624006350835165,-7.001576105753581,5.807211081186931,1.6887028994468078e+18,78.20180777994791,-3.109609524408976,0.0250454843044281,-3.368361751238505,1.6887028994468078e+18,78.20180777994791,-3.11062757174174,0.0294742385546365,-3.366020162900289,,,,,,,,,,,,1.68870289944678e+18,78.20178002929687,-6.468439960479737,50.13955841064453,-6.819799947738647,1.68870289944678e+18,78.20178002929687,-263.8884338378906,144.76275939941405,-139.702197265625,1.6887028994468078e+18,78.20180777994791,0.4128892918427785,-0.823198159535726,-0.0505956063667933,0.3851732313632965,-2.1172378063201904,0.802869995435079,-0.3465450505415599
3.25,1.688702899498704e+18,78.25370434570313,51.354562759399414,-10.80876382191976,-7.108904600143433,1.688702899498704e+18,78.25370434570313,45.17529424031576,-16.217754125595093,-1.8117657105127971,1.688702899498704e+18,78.25370434570313,-6.185113906860352,-5.3914863268534345,5.234450976053874,1.688702899498704e+18,78.25370434570313,-4.956967830657959,-9.130195498466492,0.8502225081125895,1.688702899498704e+18,78.25370434570313,-4.957985957463582,-9.12576667467753,0.852513313293457,,,,,,,,,,,,1.6887028994967793e+18,78.25177915039062,3.3989198446273803,48.19731826782227,-17.106839752197267,1.6887028994967793e+18,78.25177915039062,-254.0210754394531,142.82051696777344,-149.98923950195314,1.688702899498704e+18,78.25370434570313,0.3341274460156758,-0.8935809334119161,0.0950979087501763,0.2671895672877629,-2.426568587621053,0.587710460027059,-0.4379565914471944
