seconds_elapsed_rounded,accelerometer_time,accelerometer_seconds_elapsed,accelerometer_z,accelerometer_y,accelerometer_x,accelerometeruncalibrated_time,accelerometeruncalibrated_seconds_elapsed,accelerometeruncalibrated_z,accelerometeruncalibrated_y,accelerometeruncalibrated_x,gravity_time,gravity_seconds_elapsed,gravity_z,gravity_y,gravity_x,gyroscope_time,gyroscope_seconds_elapsed,gyroscope_z,gyroscope_y,gyroscope_x,gyroscopeuncalibrated_time,gyroscopeuncalibrated_seconds_elapsed,gyroscopeuncalibrated_z,gyroscopeuncalibrated_y,gyroscopeuncalibrated_x,location_time,location_seconds_elapsed,location_bearingAccuracy,location_speedAccuracy,location_verticalAccuracy,location_horizontalAccuracy,location_speed,location_bearing,location_altitude,location_longitude,location_latitude,magnetometer_time,magnetometer_seconds_elapsed,magnetometer_z,magnetometer_y,magnetometer_x,magnetometeruncalibrated_time,magnetometeruncalibrated_seconds_elapsed,magnetometeruncalibrated_z,magnetometeruncalibrated_y,magnetometeruncalibrated_x,orientation_time,orientation_seconds_elapsed,orientation_qz,orientation_qy,orientation_qx,orientation_qw,orientation_roll,orientation_pitch,orientation_yaw
0.0,,,,,,,,,,,,,,,,1.6887025207715858e+18,0.066585693359375,1.4373658895492554,2.579531192779541,-1.7301230430603027,,,,,,,,,,,,,,,,,,,,,,,,,,,,,,,,,,,
0.05,,,,,,1.6887025208061883e+18,0.1011885986328125,7.055835723876953,2.2085753083229065,-1.3950155973434448,,,,,,1.6887025208061893e+18,0.1011893717447916,0.9618582328160604,2.6133833726247153,-2.321898857752482,1.6887025208061893e+18,0.1011893717447916,0.9457212090492249,2.629978577295939,-2.3438899517059326,,,,,,,,,,,,1.6887025208036588e+18,0.09865869140625,-49.20991821289063,-20.50819969177246,5.29967999458313,1.6887025208036588e+18,0.09865869140625,-303.75071411132814,74.95679931640625,-127.91211700439452,,,,,,,,,
0.1,1.688702520849436e+18,0.1444359537760416,-3.4234299659729004,-1.3081506490707395,-0.4268389542897542,1.688702520849436e+18,0.1444359537760416,5.63370148340861,1.6382859150568645,-2.7044878005981445,1.688702520849436e+18,0.1444359537760416,9.05128542582194,2.9639410177866616,-2.340336243311564,1.6887025208580908e+18,0.1530908203125,0.2285654097795486,1.361516813437144,-0.6670648604631425,1.6887025208580908e+18,0.1530908203125,0.2275473028421402,1.3662001291910808,-0.664723202586174,,,,,,,,,,,,1.6887025208536517e+18,0.14865166015625,-49.96875839233398,-16.250399780273437,10.391959762573242,1.6887025208536517e+18,0.14865166015625,-304.5095581054687,79.2145980834961,-122.81983947753906,1.688702520849436e+18,0.1444359537760416,-0.8735646406809489,-0.0774501338601112,0.1808164815107981,0.4450157284736633,0.2615945041179656,-0.3008509675661722,2.2390336990356445
0.15,1.6887025209013435e+18,0.196343505859375,-3.974676767985026,-1.0577553510665894,-0.6467026074727377,1.6887025209013435e+18,0.196343505859375,4.917848666508992,2.0953150192896524,-3.260420242945353,1.6887025209013435e+18,0.196343505859375,8.886679331461588,3.1705748240152993,-2.6764050324757895,1.688702520909994e+18,0.2049939778645833,0.4996368785699208,0.4170682430267334,1.5306246876716614,1.688702520909994e+18,0.2049939778645833,0.4987205763657887,0.4217006464799245,1.5329663554827373,,,,,,,,,,,,1.6887025209036536e+18,0.19865361328125,-49.94679946899414,-16.496839904785155,11.946239852905274,1.6887025209036536e+18,0.19865361328125,-304.48759765625,78.96815643310546,-121.26555786132812,1.6887025209013435e+18,0.196343505859375,-0.8646820783615112,-0.0772537713249524,0.2031642695267994,0.4527213871479034,0.3013477027416229,-0.3231907784938812,2.226475556691488
0.2,1.6887025209532567e+18,0.2482565104166666,-3.10006332397461,0.0405981540679931,-1.4708003203074138,1.6887025209532567e+18,0.2482565104166666,5.378068288167317,4.159722805023193,-4.102494319279988,1.6887025209532567e+18,0.2482565104166666,8.472285588582357,4.1366292635599775,-2.6943813959757485,1.688702520961906e+18,0.2569059244791666,0.9700031081835429,0.2349285955230394,1.5604552427927654,1.688702520961906e+18,0.2569059244791666,0.969086786111196,0.2396627888083457,1.5628478229045868,,,,,,,,,,,,1.6887025209536612e+18,0.248661279296875,-48.36567840576172,-21.369519805908205,12.439119911193847,1.6887025209536612e+18,0.248661279296875,-302.90647583007814,74.09547729492188,-120.77267608642578,1.6887025209532567e+18,0.2482565104166666,-0.8507970372835795,-0.1207275142272313,0.2312734375397364,0.4559108316898346,0.3170777062575022,-0.4294873078664143,2.227458238601685
0.25,1.6887025210051525e+18,0.30015234375,-2.4040637016296387,0.2696163654327392,-1.8948193391164143,1.6887025210051525e+18,0.30015234375,6.09751017888387,4.521038929621379,-4.227319876352946,1.6887025210051525e+18,0.30015234375,8.49572785695394,4.268927176793416,-2.3951879342397056,1.688702521005158e+18,0.3001580810546875,0.9722684025764464,-0.7723627239465714,-1.7869334816932678,1.688702521005158e+18,0.3001580810546875,0.9712757170200348,-0.7677049040794373,-1.78464275598526,,,,,,,,,,,,1.688702521003654e+18,0.298653955078125,-48.22416000366211,-23.38739891052246,10.936079597473144,1.688702521003654e+18,0.298653955078125,-302.76495971679685,72.07759857177734,-122.27571716308594,1.6887025210051525e+18,0.30015234375,-0.8380751212437948,-0.1282190233469009,0.2244133998950322,0.4801408251126607,0.2846589585145314,-0.4448706209659576,2.1662322680155435
0.3,1.6887025210570598e+18,0.3520599772135417,-1.9539372126261392,-3.530336300532023,0.3358180920283,1.6887025210570598e+18,0.3520599772135417,7.155337333679199,-0.5004987120628357,-1.5633107672135036,1.6887025210570598e+18,0.3520599772135417,9.103428522745768,3.04734214146932,-1.9618162711461384,1.6887025210484052e+18,0.3434054361979166,0.391870046655337,-0.6079127192497253,-3.099224805831909,1.6887025210484052e+18,0.3434054361979166,0.3909537444512049,-0.6032803455988566,-3.096934080123902,,,,,,,,,,,,1.6887025210536596e+18,0.348659521484375,-51.2741584777832,-16.574919509887696,8.283799934387208,1.6887025210536596e+18,0.348659521484375,-305.81495361328126,78.89007873535157,-124.92799835205078,1.6887025210570598e+18,0.3520599772135417,-0.842235287030538,-0.0791273539264996,0.1714359472195307,0.5043483773867289,0.2219333698352177,-0.3113174438476562,2.0978400707244873
0.35,1.6887025211089585e+18,0.4039586588541666,-1.2012135187784831,-4.534934679667155,1.8579323093096416,1.6887025211089585e+18,0.4039586588541666,8.418149630228678,-3.4460633993148804,0.4103690882523854,1.6887025211089585e+18,0.4039586588541666,9.613517125447592,1.106375734011332,-1.510250687599182,1.6887025211003156e+18,0.3953157552083333,-0.8185594230890274,-1.1408926645914714,-4.0262636343638105,1.6887025211003156e+18,0.3953157552083333,-0.8195775498946508,-1.1362093687057495,-4.023972908655803,,,,,,,,,,,,1.6887025211036575e+18,0.398657470703125,-53.155398559570315,-7.034519910812378,6.195159912109375,1.6887025211036575e+18,0.398657470703125,-307.69619140625,88.43047943115235,-127.01663665771484,1.6887025211089585e+18,0.4039586588541666,-0.855504055817922,-0.0048082009889185,0.0983564803997675,0.5075143575668335,0.1650577634572982,-0.10843538492918,2.0801106293996177
0.4,1.68870252116087e+18,0.455869873046875,0.2657359441121419,-5.7358317375183105,-2.277763525644938,1.68870252116087e+18,0.455869873046875,9.996415138244627,-6.173681735992432,-3.3862428665161133,1.68870252116087e+18,0.455869873046875,9.724833170572916,-0.4203453037577371,-1.1711667776107788,1.6887025211522202e+18,0.4472202962239583,-2.178854505221049,-0.4586579902097583,-2.3781493504842124,1.6887025211522202e+18,0.4472202962239583,-2.1798216899236045,-0.4539746884256602,-2.375807682673136,,,,,,,,,,,,1.6887025211536614e+18,0.448661279296875,-53.87519912719726,1.1638799846172332,4.099199962615967,1.6887025211536614e+18,0.448661279296875,-308.4159851074219,96.62887725830078,-129.1125915527344,1.68870252116087e+18,0.455869873046875,-0.8795570333798727,0.0517287167410055,0.0453749870260556,0.4702367683251698,0.1285274376471837,0.048328020920356,2.1566073894500732
0.45,1.688702521204125e+18,0.4991248779296875,0.0527868270874023,-5.12726616859436,-5.108744859695435,1.688702521204125e+18,0.4991248779296875,9.672686576843262,-6.6281187534332275,-6.2928242683410645,1.688702521204125e+18,0.4991248779296875,9.614053726196287,-1.4833478331565857,-1.2467668056488037,1.6887025212041206e+18,0.49912060546875,-1.9711094697316487,0.7298312584559122,-2.3001622358957925,1.6887025212041206e+18,0.49912060546875,-1.972025712331136,0.7345654765764872,-2.2978715101877847,,,,,,,,,,,,1.6887025212036577e+18,0.4986575683593749,-53.17491912841797,7.3443998336792,4.204119873046875,1.6887025212036577e+18,0.4986575683593749,-307.71571044921876,102.8093978881836,-129.00767822265624,1.688702521204125e+18,0.4991248779296875,-0.8974427878856659,0.100647147744894,0.027293873950839,0.4284164756536484,0.1372488588094711,0.1579790785908699,2.23990249633789
0.5,1.6887025212473713e+18,0.5423711751302084,-0.1064087549845377,-1.6884842713673909,-5.111599127451579,1.6887025212473713e+18,0.5423711751302084,9.2496550877889,-4.1796629428863525,-6.649454911549886,1.6887025212473713e+18,0.5423711751302084,9.350217819213867,-2.4736741383870444,-1.6005431413650513,1.6887025212560282e+18,0.5510283203125,-1.982970396677653,1.632028301556905,-2.0390172799428306,1.6887025212560282e+18,0.5510283203125,-1.98388671875,1.636711597442627,-2.0367265542348227,,,,,,,,,,,,1.6887025212536604e+18,0.548660498046875,-51.41079864501953,12.658719635009763,6.736839866638183,1.6887025212536604e+18,0.548660498046875,-305.95159301757815,108.12371826171876,-126.47495727539062,1.6887025212473713e+18,0.5423711751302084,-0.905829389890035,0.1544926762580871,0.0273676042755444,0.3928709328174591,0.1777295470237731,0.2616696407397588,2.2994658946990967
0.55,1.688702521299279e+18,0.594279052734375,-1.7443230946858723,-2.362538496653239,-8.003947416941324,1.688702521299279e+18,0.594279052734375,7.124430020650228,-6.079165458679199,-9.90588665008545,1.688702521299279e+18,0.594279052734375,8.86290709177653,-3.699122269948324,-1.964626948038737,1.688702521307936e+18,0.6029358723958333,-2.425898551940918,1.0763445695241292,-2.159866730372111,1.688702521307936e+18,0.6029358723958333,-2.426865816116333,1.081027865409851,-2.157576004664103,,,,,,,,,,,,1.6887025213036554e+18,0.59865537109375,-49.58811950683594,18.509839248657222,8.278919792175293,1.6887025213036554e+18,0.59865537109375,-304.12890625,113.97483825683594,-124.93287658691406,1.688702521299279e+18,0.594279052734375,-0.9163814783096312,0.2213909129301706,0.0330860993514458,0.3308911323547363,0.2258313596248626,0.3943176567554474,2.4032952785491943
0.6,1.6887025213511803e+18,0.6461805826822916,0.033888816833496,-2.2349602381388345,-10.55241839090983,1.6887025213511803e+18,0.6461805826822916,8.338189442952475,-7.0937221844991045,-12.44387404123942,1.6887025213511803e+18,0.6461805826822916,8.298454602559408,-4.841257254282634,-1.954143484433492,1.6887025213598362e+18,0.6548362630208334,-0.6571892102559408,0.9638435542583466,-2.2873849074045816,1.6887025213598362e+18,0.6548362630208334,-0.6581563949584961,0.9684759477774302,-2.285043239593506,,,,,,,,,,,,1.6887025213536576e+18,0.64865751953125,-46.63327865600586,24.197479248046875,8.32283992767334,1.6887025213536576e+18,0.64865751953125,-301.1740783691406,119.66247863769532,-124.88895721435549,1.6887025213511803e+18,0.6461805826822916,-0.9150616327921548,0.2808317939440409,0.0235397443175315,0.2879747947057088,0.2390025109052657,0.5242450634638468,2.467240254084269
0.65,1.688702521403091e+18,0.6980909830729166,1.3412577311197915,1.7100440661112468,-8.324371655782064,1.688702521403091e+18,0.6980909830729166,8.794620354970297,-4.096512317657471,-10.91386349995931,1.688702521403091e+18,0.6980909830729166,7.4475166002909345,-5.7890518506368,-2.652179797490438,1.6887025214117407e+18,0.7067408040364583,-0.1162680213650067,3.1807243824005127,-1.8544341325759888,1.6887025214117407e+18,0.7067408040364583,-0.1172352184851964,3.185356775919596,-1.8520925045013428,,,,,,,,,,,,1.688702521403656e+18,0.698655908203125,-42.32667922973633,28.87007942199707,11.375279808044434,1.688702521403656e+18,0.698655908203125,-296.8674743652344,124.33507843017578,-121.83651733398438,1.688702521403091e+18,0.6980909830729166,-0.8978595932324728,0.3471039930979411,0.0511027115086714,0.2646972239017486,0.3513428370157878,0.6391492287317911,2.450155735015869
0.7,1.6887025214549947e+18,0.7499946289062501,-0.0546237627665201,2.844888607660929,-4.611871719360352,1.6887025214549947e+18,0.7499946289062501,6.346962134043376,-3.5080774625142417,-8.422735850016275,1.6887025214549947e+18,0.7499946289062501,6.395739873250325,-6.335461616516113,-3.873552004496256,1.6887025214549888e+18,0.7499887695312499,0.4090506285429001,3.054555296897888,-1.4408783912658691,1.6887025214549888e+18,0.7499887695312499,0.4080579727888107,3.059289574623108,-1.438511312007904,,,,,,,,,,,,1.688702521453656e+18,0.74865595703125,-37.12704010009766,31.77611885070801,17.37279930114746,1.688702521453656e+18,0.74865595703125,-291.66783447265624,127.2411163330078,-115.83899688720705,1.6887025214549947e+18,0.7499946289062501,-0.8741980592409769,0.4047129948933919,0.1167266567548115,0.240470066666603,0.5544482171535492,0.7094906171162924,2.3941306273142495
0.75,1.688702521506891e+18,0.8018912760416667,4.927957852681478,5.317241509755452,-1.0877116521199544,1.688702521506891e+18,0.8018912760416667,10.439486344655355,-1.1712866400678952,-5.918248017628987,1.688702521506891e+18,0.8018912760416667,5.505682468414307,-6.471023718516032,-4.893223762512207,1.68870252149825e+18,0.793249755859375,0.6355543831984202,2.5740843613942466,-0.5544620156288147,1.68870252149825e+18,0.793249755859375,0.6345871786276499,2.5787676175435386,-0.5521712799866995,,,,,,,,,,,,1.6887025215036575e+18,0.79865732421875,-32.43491897583008,33.15959930419922,22.835959243774415,1.6887025215036575e+18,0.79865732421875,-286.9757141113281,128.62459716796874,-110.37583618164062,1.688702521506891e+18,0.8018912760416667,-0.8504400849342346,0.4384216070175171,0.1760926644007364,0.230460688471794,0.7364746530850729,0.7271534403165182,2.3208394845326743
0.8,1.6887025215587973e+18,0.8537972005208333,1.2760286331176758,2.3720203240712485,-0.3017187118530273,1.6887025215587973e+18,0.8537972005208333,6.158128420511882,-3.920839309692383,-5.984648863474528,1.6887025215587973e+18,0.8537972005208333,4.876253763834636,-6.2753550211588545,-5.745617548624675,1.6887025215501524e+18,0.8451525065104167,0.0422006050745646,3.009783983230591,0.8560258150100708,1.6887025215501524e+18,0.8451525065104167,0.0412334005037943,3.014467239379883,0.8583165804545084,,,,,,,,,,,,1.688702521553658e+18,0.8486578125000002,-29.27999954223633,32.29095993041992,27.813559341430665,1.688702521553658e+18,0.8486578125000002,-283.8207946777344,127.75595550537108,-105.39823608398436,1.6887025215587973e+18,0.8537972005208333,-0.8404727379480997,0.440819909175237,0.2471953133742014,0.19449844956398,0.8763372103373209,0.701188882191976,2.3475677172342935
0.85,1.6887025216107077e+18,0.9057076009114584,-0.8672712643941244,1.9448142846425376,-1.6437368392944336,1.6887025216107077e+18,0.9057076009114584,3.814358711242676,-3.7770704428354898,-8.043672561645508,1.6887025216107077e+18,0.9057076009114584,4.6757839520772295,-5.70438019434611,-6.4626234372456866,1.6887025216020498e+18,0.8970496419270834,1.2411763668060305,1.2901474237442017,1.0356202324231465,1.6887025216020498e+18,0.8970496419270834,1.24020916223526,1.2947797775268557,1.0379109581311543,,,,,,,,,,,,1.6887025216036552e+18,0.898655322265625,-27.640319061279296,29.477639770507817,32.02499923706055,1.6887025216036552e+18,0.898655322265625,-282.1811096191406,124.94263916015623,-101.18679809570312,1.6887025216107077e+18,0.9057076009114584,-0.8351043264071146,0.4201827943325043,0.298511137564977,0.1917107303937275,0.9531129598617554,0.6278853019078573,2.358306964238485
0.9,1.6887025216626025e+18,0.9576024576822916,-2.8783466815948486,2.026925484339396,-2.764753977457682,1.6887025216626025e+18,0.9576024576822916,1.6789639194806416,-3.0484560330708823,-9.76550801595052,1.6887025216626025e+18,0.9576024576822916,4.551464557647705,-5.057877063751221,-7.063441912333171,1.6887025216539594e+18,0.9489593912760416,1.2736031611760457,0.9210320909818014,0.684474507967631,1.6887025216539594e+18,0.9489593912760416,1.2726358970006306,0.9257153669993082,0.6867652336756388,,,,,,,,,,,,1.6887025216536576e+18,0.948657666015625,-27.24503936767578,25.827399444580077,35.59227981567383,1.6887025216536576e+18,0.948657666015625,-281.78583374023435,121.29239807128906,-97.61951904296872,1.6887025216626025e+18,0.9576024576822916,-0.8281137347221375,0.3983957668145497,0.3365146418412526,0.2052899549404779,1.0067333777745564,0.5488602916399637,2.3480780919392905
0.95,1.6887025217058588e+18,1.0008587646484377,-2.4083083868026733,-0.3625991344451904,-4.590057611465454,1.6887025217058588e+18,1.0008587646484377,2.0485552549362183,-5.018347263336182,-11.93689489364624,1.6887025217058588e+18,1.0008587646484377,4.451017618179321,-4.6382434368133545,-7.409525156021118,1.688702521705861e+18,1.0008610026041669,1.0994555950164795,0.4554000397523244,0.177201822400093,1.688702521705861e+18,1.0008610026041669,1.098488450050354,0.4601342479387919,0.1794925679763158,,,,,,,,,,,,1.688702521703661e+18,0.9986609375,-26.720439910888672,23.311759567260744,37.920039367675784,1.688702521703661e+18,0.9986609375,-281.26123046875,118.7767562866211,-95.29175872802736,1.6887025217058588e+18,1.0008587646484377,-0.8209767043590546,0.3875642120838165,0.3562671095132828,0.2209914028644561,1.038204848766327,0.4994017779827118,2.3263280391693115
1.0,1.6887025217491116e+18,1.044111328125,-3.626415808995565,-1.8430307706197104,-3.911346276601156,1.6887025217491116e+18,1.044111328125,0.6506483654181162,-6.150950113932292,-11.566505750020346,1.6887025217491116e+18,1.044111328125,4.271218140920003,-4.290414651234944,-7.7178473472595215,1.6887025217577623e+18,1.0527623697916666,1.0895290970802307,0.3054835200309753,-0.4672610263029734,1.6887025217577623e+18,1.0527623697916666,1.0885109702746074,0.310166835784912,-0.4649702409903208,,,,,,,,,,,,1.688702521753658e+18,1.048657763671875,-25.37111968994141,20.99131965637207,40.12091979980469,1.688702521753658e+18,1.048657763671875,-279.9119140625,116.45631866455078,-93.09087829589843,1.6887025217491116e+18,1.044111328125,-0.8118936022122701,0.3810770610968272,0.3755634129047394,0.2334271917740503,1.073594371477763,0.4594225684801737,2.3051695028940835
1.05,1.6887025218010202e+18,1.0960199381510416,-5.164831638336182,-2.043577512105306,-0.4770959218343099,1.6887025218010202e+18,1.0960199381510416,-1.066800112525622,-6.041079680124919,-8.391628901163736,1.6887025218010202e+18,1.0960199381510416,4.0921854972839355,-3.979997475941976,-7.97722069422404,1.6887025218096722e+18,1.1046722819010415,1.1994338830312092,-0.1117374276121457,-1.5828536748886108,1.6887025218096722e+18,1.1046722819010415,1.1984157760938008,-0.1070541404187679,-1.580562909444173,,,,,,,,,,,,1.6887025218036567e+18,1.09865693359375,-24.52199935913086,19.69567947387695,41.25307922363281,1.6887025218036567e+18,1.09865693359375,-279.06279296875,115.16067810058594,-91.9587188720703,1.6887025218010202e+18,1.0960199381510416,-0.7938511967658997,0.3891734580198924,0.3795546193917592,0.2721970776716867,1.1055079301198325,0.423801839351654,2.2170356909434
1.1,1.6887025218529231e+18,1.1479234212239584,-6.667563756306966,-2.9845665295918784,2.705468018849691,1.6887025218529231e+18,1.1479234212239584,-3.041277488072714,-7.164709250132243,-5.34097957611084,1.6887025218529231e+18,1.1479234212239584,3.6204400857289634,-4.162638028462728,-8.109134991963705,1.6887025218615777e+18,1.1565773111979167,0.0584394385417302,-0.4288274198770523,-3.0828840732574463,1.6887025218615777e+18,1.1565773111979167,0.0574722339709599,-0.4241950108359257,-3.08054248491923,,,,,,,,,,,,1.6887025218536556e+18,1.148655419921875,-21.781879806518553,20.69851951599121,41.865518951416014,1.6887025218536556e+18,1.148655419921875,-276.3226745605469,116.16351776123048,-91.34627838134766,1.6887025218529231e+18,1.1479234212239584,-0.7638394435246786,0.4299320677916209,0.3669486045837402,0.3106943567593892,1.1605377594629924,0.4430956343809764,2.0754030545552573
1.15,1.6887025219048236e+18,1.1998236490885417,-0.3376149336496988,-0.9484092394510903,2.8694764773050943,1.6887025219048236e+18,1.1998236490885417,2.9455647468566895,-5.73679240544637,-4.986442883809407,1.6887025219048236e+18,1.1998236490885417,3.277333656946818,-4.7708784739176435,-7.918606758117676,1.688702521904831e+18,1.1998309326171874,-0.5729152411222458,-0.7914522886276245,-1.9872210025787351,1.688702521904831e+18,1.1998309326171874,-0.573907881975174,-0.7868708074092865,-1.9849302768707275,,,,,,,,,,,,1.6887025219036572e+18,1.1986572265625,-19.937239837646484,23.960799407958984,41.01639938354492,1.6887025219036572e+18,1.1986572265625,-274.47803955078126,119.42579650878906,-92.19539794921874,1.6887025219048236e+18,1.1998236490885417,-0.7409705718358358,0.4793130954106648,0.3279976546764374,0.3367497126261393,1.1888845364252727,0.511543353398641,1.938492735226949
1.2,1.6887025219567237e+18,1.251723388671875,-1.81144917011261,1.07965350151062,-1.3229188919067385,1.6887025219567237e+18,1.251723388671875,1.456830163796743,-4.032703797022502,-8.98245652516683,1.6887025219567237e+18,1.251723388671875,3.2624332904815674,-5.094852765401204,-7.722225348154704,1.6887025219480804e+18,1.2430804036458334,0.0977384398380915,-1.073290228843689,-1.5405512650807698,1.6887025219480804e+18,1.2430804036458334,0.0967712377508481,-1.0686578750610352,-1.538260539372762,,,,,,,,,,,,1.688702521953657e+18,1.248657373046875,-18.80752029418945,26.1982795715332,39.54020004272461,1.688702521953657e+18,1.248657373046875,-273.3483154296875,121.66327819824218,-93.67159881591796,1.6887025219567237e+18,1.251723388671875,-0.7286059856414795,0.5029109517733256,0.2921461363633473,0.3615773717562358,1.1820882558822632,0.5488066474596659,1.846892674763997
1.25,1.6887025220086362e+18,1.30363623046875,-4.14830740292867,-0.925035317738851,-5.834041595458984,1.6887025220086362e+18,1.30363623046875,-0.8963114977814257,-6.168497244517009,-13.412369092305502,1.6887025220086362e+18,1.30363623046875,3.2461498578389487,-5.2259572347005205,-7.641015370686849,1.688702521999988e+18,1.2949879557291668,-0.0390444714576006,-0.3618867546319961,-0.7130324443181356,1.688702521999988e+18,1.2949879557291668,-0.0399607662111521,-0.3572034537792206,-0.7106908162434896,,,,,,,,,,,,1.6887025220036567e+18,1.298656689453125,-19.00271987915039,27.07179946899414,39.19615859985352,1.6887025220036567e+18,1.298656689453125,-273.54351806640625,122.53679656982422,-94.01563873291016,1.6887025220086362e+18,1.30363623046875,-0.7208817799886068,0.5137335658073425,0.2742388546466827,0.3757278025150299,1.1802788178126018,0.5640363693237305,1.797284722328186
1.3,1.6887025220605435e+18,1.3555436197916666,1.1812102794647217,1.1334342956542969,-3.04439385732015,1.6887025220605435e+18,1.3555436197916666,3.893122434616089,-4.029912233352661,-10.877771695454916,1.6887025220605435e+18,1.3555436197916666,2.706066131591797,-5.145841916402181,-7.896065711975098,1.6887025220518884e+18,1.3468885091145832,0.5186245938142141,1.6502524216969807,-0.2367102776964505,1.6887025220518884e+18,1.3468885091145832,0.517708291610082,1.6549866795539856,-0.2343686297535896,,,,,,,,,,,,1.6887025220536612e+18,1.3486611328125,-16.97507953643799,27.325559616088867,39.898878479003905,1.6887025220536612e+18,1.3486611328125,-271.5158752441406,122.79055786132812,-93.31291961669922,1.6887025220605435e+18,1.3555436197916666,-0.7032180428504944,0.5294684171676636,0.2935589949289957,0.372388223807017,1.2516305049260457,0.5541034539540609,1.762315670649211
1.35,1.6887025221124457e+18,1.4074458821614584,-1.9210336605707805,4.992380777994792,3.1406099001566568,1.6887025221124457e+18,1.4074458821614584,0.0215354065100351,0.0047856668631235,-5.02851676940918,1.6887025221124457e+18,1.4074458821614584,1.936723033587138,-4.9700907071431475,-8.23181406656901,1.6887025221037965e+18,1.3987962239583334,0.1479821056127548,1.7851518392562866,0.3539454936981201,1.6887025221037965e+18,1.3987962239583334,0.1470658083756764,1.7898351748784382,0.3562362492084503,,,,,,,,,,,,1.6887025221036575e+18,1.398657470703125,-13.354119682312012,25.9762393951416,42.02411880493164,1.6887025221036575e+18,1.398657470703125,-267.894921875,121.4412368774414,-91.18767852783203,1.6887025221124457e+18,1.4074458821614584,-0.6873214642206827,0.5407063961029053,0.337025374174118,0.3486257493495941,1.3506902853647869,0.5332895716031393,1.7720012664794922
1.4,1.6887025221556954e+18,1.4506953125,-1.994295954704285,6.970464706420898,2.0405778884887695,1.6887025221556954e+18,1.4506953125,-0.2925225794315338,1.8221344351768496,-6.08405065536499,1.6887025221556954e+18,1.4506953125,1.695927381515503,-5.130825757980347,-8.187315940856934,1.6887025221556933e+18,1.450693359375,-0.5691736936569214,0.3026837358872096,-0.0417424601813157,1.6887025221556933e+18,1.450693359375,-0.5700899958610535,0.3073670168717702,-0.0394517133633295,,,,,,,,,,,,1.688702522153659e+18,1.44865888671875,-11.162999725341797,26.466679763793945,42.39743881225586,1.688702522153659e+18,1.44865888671875,-265.70379638671875,121.93167572021484,-90.81435546875,1.6887025221556954e+18,1.4506953125,-0.6869794428348541,0.5477962493896484,0.343785747885704,0.3313358426094055,1.377570390701294,0.5525221228599548,1.7841851115226746
1.45,1.6887025221989548e+18,1.49395458984375,-2.592479387919108,6.930661519368489,0.2613361676534016,1.6887025221989548e+18,1.49395458984375,-0.905085156361262,1.716850260893504,-7.8249287605285645,1.6887025221989548e+18,1.49395458984375,1.6815481980641682,-5.196306864420573,-8.14895248413086,1.6887025222076045e+18,1.5026044108072918,0.2015855237841606,-0.2913827250401178,0.0436768718063831,1.6887025222076045e+18,1.5026044108072918,0.200567419330279,-0.2867503265539805,0.0460185160239537,,,,,,,,,,,,1.688702522203655e+18,1.498654736328125,-10.711599731445313,27.393879318237303,41.95579833984375,1.688702522203655e+18,1.498654736328125,-265.25238647460935,122.85887908935548,-91.25599822998046,1.6887025221989548e+18,1.49395458984375,-0.6863690614700317,0.5511120359102885,0.3395124177138011,0.3315092821915944,1.3783611059188845,0.5602922240893046,1.77616290251414
1.5,1.6887025222508516e+18,1.5458518880208334,-2.947199503580729,6.103002548217773,-2.2122217814127603,1.6887025222508516e+18,1.5458518880208334,-0.9645069241523744,1.0390832448999088,-10.32542864481608,1.6887025222508516e+18,1.5458518880208334,1.9768466154734297,-5.046414852142334,-8.175894737243652,1.6887025222595085e+18,1.5545087890625,-0.2534072597821553,-0.532369057337443,0.932791233062744,1.6887025222595085e+18,1.5545087890625,-0.2543744693199793,-0.5276857415835062,0.9350819786389668,,,,,,,,,,,,1.6887025222536568e+18,1.548656884765625,-12.19755973815918,26.486199569702148,42.216878509521486,1.6887025222536568e+18,1.548656884765625,-266.7383544921875,121.9511962890625,-90.9949188232422,1.6887025222508516e+18,1.5458518880208334,-0.6927289366722107,0.5386513868967692,0.3372100591659546,0.3409123222033183,1.344389875729879,0.5425459146499634,1.7911875247955322
1.55,1.6887025223027638e+18,1.597763671875,-0.7331299781799316,1.1425174872080486,-2.8711244265238443,1.6887025223027638e+18,1.597763671875,1.839482458929221,-4.195415556430817,-10.6337038675944,1.6887025223027638e+18,1.597763671875,2.5667664210001626,-5.320428530375163,-7.825267314910889,1.688702522311409e+18,1.6064091796875,-2.288097620010376,-0.2911791078125437,2.2536855141321817,1.688702522311409e+18,1.6064091796875,-2.2890138626098633,-0.2864448937276999,2.2559762795766196,,,,,,,,,,,,1.6887025223036598e+18,1.598659765625,-15.969799423217774,27.69155960083008,40.081877899169925,1.6887025223036598e+18,1.598659765625,-270.510595703125,123.15655670166016,-93.12991943359376,1.6887025223027638e+18,1.597763671875,-0.7260725299517313,0.5167977611223856,0.3263820310433705,0.3141778906186421,1.2640490929285686,0.5765505035718282,1.8970938126246135
1.6,1.6887025223546668e+18,1.649666748046875,0.2582386334737142,-5.331362247467041,-2.513823668162028,1.6887025223546668e+18,1.649666748046875,3.5393834908803306,-11.277971267700195,-9.540184020996094,1.6887025223546668e+18,1.649666748046875,3.275298833847046,-5.929104328155518,-7.0890482266743975,1.688702522354666e+18,1.6496661376953126,-2.4640012979507446,0.1351539343595504,2.312888503074646,1.688702522354666e+18,1.6496661376953126,-2.4649176597595215,0.1398117914795875,2.315179228782654,,,,,,,,,,,,1.6887025223536558e+18,1.648655859375,-19.79571952819824,30.236478805541992,36.319400024414065,1.6887025223536558e+18,1.648655859375,-274.3365173339844,125.70147857666016,-96.89239807128908,1.6887025223546668e+18,1.649666748046875,-0.7755374908447266,0.4909319281578064,0.310257355372111,0.2463916887839634,1.1476697127024331,0.6539799571037292,2.094595988591512
1.65,1.6887025224065656e+18,1.7015655110677084,-3.68122673034668,-8.09163236618042,-0.925447940826416,1.6887025224065656e+18,1.7015655110677084,0.6360920121272405,-14.376277923583984,-7.045267422993978,1.6887025224065656e+18,1.7015655110677084,4.311472813288371,-6.267140706380208,-6.182506879170735,1.68870252239792e+18,1.6929197591145833,-1.7548631032307942,-1.7102190256118774,1.883857528368632,1.68870252239792e+18,1.6929197591145833,-1.7558303475379944,-1.7055866718292236,1.886199156443278,,,,,,,,,,,,1.6887025224036557e+18,1.69865556640625,-24.958759307861328,31.854198837280272,31.849319839477538,1.6887025224036557e+18,1.69865556640625,-279.4995544433594,127.31919860839844,-101.36247863769532,1.6887025224065656e+18,1.7015655110677084,-0.8211948275566101,0.4590023855368296,0.2707313100496928,0.2031571914752324,0.9709505041440328,0.6991631587346395,2.2761083443959556
1.7,1.688702522458467e+18,1.7534670410156252,-4.25973908106486,0.1975935300191243,0.7307678063710531,1.688702522458467e+18,1.7534670410156252,1.014756182829539,-5.89392105738322,-4.820141871770223,1.688702522458467e+18,1.7534670410156252,5.268649260203044,-6.074009895324707,-5.61359707514445,1.6887025224498225e+18,1.7448224283854168,0.2624684311449528,-2.2714006900787354,0.6083199679851532,1.6887025224498225e+18,1.7448224283854168,0.2614503254493077,-2.266768217086792,0.6106107383966447,,,,,,,,,,,,1.6887025224536586e+18,1.7486586425781252,-30.8049991607666,30.634199142456055,28.430879592895508,1.6887025224536586e+18,1.7486586425781252,-285.3457885742188,126.09919738769533,-104.78091888427734,1.688702522458467e+18,1.7534670410156252,-0.8460838993390402,0.4281587898731231,0.2273479650417963,0.2210212449232736,0.8255471189816793,0.6740837295850118,2.325944979985555
1.75,1.6887025225103716e+18,1.80537158203125,-4.085734208424886,0.9195566177368164,3.044548988342285,1.6887025225103716e+18,1.80537158203125,1.7938193480173747,-5.269593715667725,-1.7489539782206218,1.6887025225103716e+18,1.80537158203125,5.873707453409831,-6.171645641326904,-4.856190363566081,1.688702522501728e+18,1.79672802734375,-0.1847867394487062,-2.5220589637756348,-0.3774129090209802,1.688702522501728e+18,1.79672802734375,-0.185703037927548,-2.5174265702565513,-0.3751221764832735,,,,,,,,,,,,1.688702522503655e+18,1.798655029296875,-33.640280151367186,31.15391960144043,24.70499954223633,1.688702522503655e+18,1.798655029296875,-288.1810729980469,126.61891632080078,-108.50679779052734,1.6887025225103716e+18,1.80537158203125,-0.8573221762975057,0.4184403419494629,0.1698664327462513,0.246428350607554,0.6989852587381998,0.6867300669352213,2.3227864106496177
1.8,1.688702522562278e+18,1.8572782389322915,-3.563547690709432,-0.1795310974121093,0.3271903991699219,1.688702522562278e+18,1.8572782389322915,2.6031915744145713,-6.576473712921143,-3.800600051879883,1.688702522562278e+18,1.8572782389322915,6.160893281300862,-6.3794379234313965,-4.1904778480529785,1.688702522553628e+18,1.8486280924479168,-0.624966045220693,-1.2447906533877056,-0.2530509283145268,1.688702522553628e+18,1.8486280924479168,-0.6259332497914633,-1.2401582598686218,-0.2507601827383041,,,,,,,,,,,,1.6887025225536556e+18,1.84865546875,-35.240919494628905,32.020118713378906,20.581399536132817,1.6887025225536556e+18,1.84865546875,-289.78171997070314,127.48511657714845,-112.63040008544922,1.688702522562278e+18,1.8572782389322915,-0.8631774385770162,0.416690448919932,0.1256036733587582,0.2558501362800598,0.6054739554723104,0.7143003741900126,2.333300749460856
1.85,1.6887025226055373e+18,1.900537109375,-2.072662353515625,0.2995498180389404,0.2350602149963379,1.6887025226055373e+18,1.900537109375,3.8745779991149902,-6.455536603927612,-3.6412779092788696,1.6887025226055373e+18,1.900537109375,5.941394329071045,-6.737581729888916,-3.939025521278382,1.688702522605534e+18,1.9005339355468749,-0.7831292351086935,0.2935716509819031,-1.4661274552345276,1.688702522605534e+18,1.9005339355468749,-0.7841473619143168,0.2982040544350942,-1.4637858271598816,,,,,,,,,,,,1.6887025226036598e+18,1.8986596191406249,-34.86027908325195,33.99163970947266,18.443959045410157,1.6887025226036598e+18,1.8986596191406249,-289.40107421875,129.456640625,-114.76784057617188,1.6887025226055373e+18,1.900537109375,-0.859388679265976,0.4340081810951233,0.1107370518147945,0.246496021747589,0.5940445363521576,0.7634390294551849,2.3383798599243164
1.9,1.688702522648787e+18,1.943786865234375,-0.6749513943990072,4.057362874348958,-0.0837132136027017,1.688702522648787e+18,1.943786865234375,4.439683119455974,-3.48135757446289,-3.6733815670013423,1.688702522648787e+18,1.943786865234375,5.10878849029541,-7.521215915679932,-3.652355750401815,1.6887025226574408e+18,1.952440673828125,-2.2370903889338174,0.4593197504679362,-2.749759038289388,1.6887025226574408e+18,1.952440673828125,-2.2380066315333047,0.464003066221873,-2.7474683125813804,,,,,,,,,,,,1.6887025226536596e+18,1.948659765625,-29.650879287719725,38.13719940185547,17.23615951538086,1.6887025226536596e+18,1.948659765625,-284.1916748046875,133.60220031738282,-115.97563934326172,1.688702522648787e+18,1.943786865234375,-0.8414259155591329,0.4833910266558329,0.0963571319977441,0.2201050917307535,0.6307328939437866,0.8812358379364014,2.3245182037353516
1.95,1.6887025227006843e+18,1.995684814453125,2.388214906056722,0.4386895497639974,-3.524388074874878,1.6887025227006843e+18,1.995684814453125,6.609574317932129,-8.064809163411459,-5.958726723988851,1.6887025227006843e+18,1.995684814453125,4.215513388315837,-8.485994021097818,-2.497026205062866,1.6887025227093414e+18,2.0043414713541665,-2.699718952178955,-1.478802929321925,-0.1688533450166384,1.6887025227093414e+18,2.0043414713541665,-2.7006352742513022,-1.4740687906742096,-0.1665116697549819,,,,,,,,,,,,1.6887025227036623e+18,1.9986623535156252,-24.86847915649414,42.85615921020508,11.55095977783203,1.6887025227036623e+18,1.9986623535156252,-279.4092712402344,138.32115783691407,-121.6608383178711,1.6887025227006843e+18,1.995684814453125,-0.8253906965255737,0.5354421536127726,0.0439834849288065,0.1718145708243051,0.5431374609470367,1.052631378173828,2.411181529362997
2.0,1.6887025227525957e+18,2.0475956217447915,4.853813489278157,-2.135608990987142,-2.7779506842295327,1.6887025227525957e+18,2.0475956217447915,9.517452120780945,-10.616355895996094,-4.413760821024577,1.6887025227525957e+18,2.0475956217447915,4.657792409261067,-8.463242212931315,-1.6984974940617878,1.6887025227612488e+18,2.0562486165364584,-0.5378159284591674,3.3281975984573364,0.5829181571801504,1.6887025227612488e+18,2.0562486165364584,-0.538732240597407,3.3328808546066284,0.5852088928222656,,,,,,,,,,,,1.6887025227536604e+18,2.04866044921875,-27.342639541625974,43.1001594543457,6.517239952087403,1.6887025227536604e+18,2.04866044921875,-281.88343505859376,138.56515808105468,-126.6945587158203,1.6887025227525957e+18,2.0475956217447915,-0.8464644153912863,0.5152830680211385,0.0243184301070868,0.1294141511122385,0.3576432665189107,1.0484678745269775,2.62995179494222
2.05,1.6887025228045025e+18,2.0995026041666667,-7.300862153371175,3.017723719278971,-1.5715103149414062,1.6887025228045025e+18,2.0995026041666667,-3.1908289988835654,-5.5290153821309405,-4.068795522054036,1.6887025228045025e+18,2.0995026041666667,4.104186932245891,-8.529234568277994,-2.559972604115804,1.688702522804499e+18,2.0994990234375,0.539088562130928,2.3819162249565125,-1.2014955878257751,1.688702522804499e+18,2.0994990234375,0.5381722748279572,2.3864978551864624,-1.1991284489631653,,,,,,,,,,,,1.6887025228036577e+18,2.098657568359375,-25.593159103393553,42.76587829589844,10.670119857788086,1.6887025228036577e+18,2.098657568359375,-280.1339538574219,138.2308776855469,-122.5416763305664,1.6887025228045025e+18,2.0995026041666667,-0.8345465461413065,0.5339537064234415,0.0967433750629424,0.0935884490609168,0.567792942126592,1.0616446336110432,2.578371524810791
2.1,1.688702522856406e+18,2.1514061686197916,-5.043042023976644,6.49699068069458,0.6417207717895508,1.688702522856406e+18,2.1514061686197916,-1.9844475984573364,-2.507279316584269,-1.7355940490961077,1.688702522856406e+18,2.1514061686197916,3.052748441696167,-8.986765543619791,-2.440002202987671,1.6887025228477555e+18,2.1427556152343747,-1.768149435520172,1.8801414569218953,-1.9188295602798464,1.6887025228477555e+18,2.1427556152343747,-1.769065777460734,1.884773810704549,-1.9165388345718384,,,,,,,,,,,,1.688702522853661e+18,2.148660791015625,-20.049479675292968,45.32787933349609,10.916559600830078,1.688702522853661e+18,2.148660791015625,-274.59027709960935,140.79287719726562,-122.2952392578125,1.688702522856406e+18,2.1514061686197916,-0.8052489360173544,0.5783651868502299,0.1164198492964108,0.0528607945889234,0.6864652434984843,1.167633016904195,2.5468034744262695
2.15,1.6887025229083036e+18,2.2033036295572916,-8.599379857381185,-3.902592341105143,2.5091113249460855,1.6887025229083036e+18,2.2033036295572916,-6.640282392501831,-13.43669597307841,1.2861421704292295,1.6887025229083036e+18,2.2033036295572916,1.953251361846924,-9.516599337259928,-1.2856566111246746,1.6887025228996595e+18,2.1946595052083335,-3.14152725537618,1.9091575145721436,-1.6049975554148357,1.6887025228996595e+18,2.1946595052083335,-3.1424434979756675,1.9138408501942952,-1.602706829706828,,,,,,,,,,,,1.6887025229036529e+18,2.1986529296875,-14.59119987487793,48.09483947753906,5.90723991394043,1.6887025229036529e+18,2.1986529296875,-269.1319946289062,143.5598388671875,-127.30455780029295,1.6887025229083036e+18,2.2033036295572916,0.770968476931254,-0.6263113816579183,-0.1084744979937871,0.0300801385504503,0.5771668354670206,1.3361272811889648,2.7620489597320557
2.2,1.68870252296021e+18,2.255209716796875,-7.958364089330037,-15.768206278483072,2.843644102414449,1.68870252296021e+18,2.255209716796875,-6.147161523501079,-25.41357135772705,2.378266230225563,1.68870252296021e+18,2.255209716796875,1.8053563435872395,-9.62786070505778,-0.5280653138955435,1.688702522951564e+18,2.2465637207031253,-0.452192984521389,-1.4574226438999176,0.0938187191883723,1.688702522951564e+18,2.2465637207031253,-0.4532111113270123,-1.4527393728494644,0.0961094672481219,,,,,,,,,,,,1.6887025229536556e+18,2.248655615234375,-13.437079620361327,48.68043899536133,1.1126399755477905,1.6887025229536556e+18,2.248655615234375,-267.9778686523438,144.14543762207032,-132.09915771484376,1.68870252296021e+18,2.255209716796875,0.765558918317159,-0.6373547911643982,-0.0725490649541218,0.0461717626700798,0.286847581466039,1.38531231880188,3.0235867500305176
2.25,1.6887025230121157e+18,2.307115478515625,-1.6891388495763142,4.207595189412435,0.0912007888158162,1.6887025230121157e+18,2.307115478515625,0.0009970118602116,-5.451846917470296,-0.4989035129547119,1.6887025230121157e+18,2.307115478515625,1.684289773305257,-9.641937573750814,-0.652791698773702,1.6887025230034678e+18,2.298467854817708,0.5719225804011027,-2.1245383421579995,-0.5407175620396932,1.6887025230034678e+18,2.298467854817708,0.5710062781969706,-2.1198042233784995,-0.538426806529363,,,,,,,,,,,,1.688702523003652e+18,2.298652099609375,-12.917359733581543,48.841478729248045,1.3907999753952025,1.688702523003652e+18,2.298652099609375,-267.458154296875,144.30647888183594,-131.82099304199218,1.6887025230121157e+18,2.307115478515625,-0.252288818359375,0.2178982893625895,0.0038521302243073,0.012898599418501,0.3809415698051452,1.39262588818868,2.8040027618408203
2.3,1.688702523055367e+18,2.350366943359375,2.591470867395401,7.428895950317383,-0.2515374571084977,1.688702523055367e+18,2.350366943359375,3.8979081213474274,-2.2974088191986084,-0.7007979452610016,1.688702523055367e+18,2.350366943359375,1.3005912899971008,-9.708800315856934,-0.5119478851556778,1.6887025230553743e+18,2.3503741861979166,-0.3066543576618035,-1.8639534711837769,-1.8630880912144976,1.6887025230553743e+18,2.3503741861979166,-0.3076215634743373,-1.859219312667847,-1.860746443271637,,,,,,,,,,,,1.6887025230536596e+18,2.34865966796875,-10.42367992401123,49.34655914306641,0.3269599810242652,1.6887025230536596e+18,2.34865966796875,-264.9644775390625,144.81155700683593,-132.8848388671875,1.688702523055367e+18,2.350366943359375,-0.7489881813526154,0.6612583994865417,-0.0006353445351124,0.0399905964732169,0.3943026959896087,1.434696614742279,2.6897013187408447
2.35,1.688702523098623e+18,2.393623046875,1.294403076171875,1.890616575876872,-1.251927614212036,1.688702523098623e+18,2.393623046875,1.1481560468673706,-7.916254838307698,-1.3884353637695312,1.688702523098623e+18,2.393623046875,-0.1520931075016657,-9.789366722106934,-0.1991951589783032,1.6887025231072727e+18,2.402272867838542,-0.930958608786265,0.3338378419478734,-3.933055877685547,1.6887025231072727e+18,2.402272867838542,-0.9319767355918884,0.3385211626688639,-3.930765151977539,,,,,,,,,,,,1.6887025231036575e+18,2.3986575683593747,-1.6445600390434263,49.92727890014648,-1.564039957523346,1.6887025231036575e+18,2.3986575683593747,-256.1853546142578,145.39227905273438,-134.7758361816406,1.688702523098623e+18,2.393623046875,-0.6973142226537069,0.7143840591112772,-0.0280054161945978,0.0416205575068791,2.0406976342201233,1.508432944615682,1.002334926277399
2.4,1.6887025231505236e+18,2.4455238444010416,-1.9965187311172483,-3.6036609013875327,-2.5464986165364585,1.6887025231505236e+18,2.4455238444010416,-3.600799322128296,-13.28534984588623,-2.057628075281779,1.6887025231505236e+18,2.4455238444010416,-1.6101266145706177,-9.66418425242106,0.4261831839879353,1.68870252315918e+18,2.4541800130208333,-0.8920159637928009,1.3297518094380696,-1.243670731782913,1.68870252315918e+18,2.4541800130208333,-0.8929831882317861,1.3344351450602214,-1.24132905403773,,,,,,,,,,,,1.6887025231536543e+18,2.4486541992187503,6.004839992523193,49.59299926757812,-4.675039958953858,1.6887025231536543e+18,2.4486541992187503,-248.53595581054688,145.05799560546876,-137.8868377685547,1.6887025231505236e+18,2.4455238444010416,0.2080963055292765,-0.2603144248326619,0.0119526758790016,0.0101251854891112,-2.9020742575327554,1.3922287623087566,-0.2941550413767497
2.45,1.6887025232024333e+18,2.4974332682291664,-0.2130915323893228,0.7370344797770182,-3.51268736521403,1.6887025232024333e+18,2.4974332682291664,-2.048455595970154,-8.891728719075521,-2.764707167943319,1.6887025232024333e+18,2.4974332682291664,-1.8412100871404011,-9.611258506774902,0.6852927406628927,1.688702523211081e+18,2.5060808919270836,-0.1210022245844204,0.047545679534475,0.04678209622701,1.688702523211081e+18,2.5060808919270836,-0.1219185218214988,0.0522289793007076,0.0490728418032328,,,,,,,,,,,,1.688702523203655e+18,2.4986549316406252,7.444439888000488,49.08059921264648,-6.153679943084716,1.688702523203655e+18,2.4986549316406252,-247.0963562011719,144.54559631347655,-139.365478515625,1.6887025232024333e+18,2.4974332682291664,0.6342568397521973,-0.7720717787742615,0.0374439284205436,0.014783889055252,-2.7954371770222983,1.3619871536890666,-0.3783788482348124
2.5,1.6887025232543352e+18,2.549335286458333,6.321267604827881,-1.54086430867513,-4.940809726715088,1.6887025232543352e+18,2.549335286458333,4.4660041729609175,-11.153345108032228,-4.043670892715454,1.6887025232543352e+18,2.549335286458333,-1.8611093759536743,-9.59497610727946,0.8344513575236002,1.6887025232543378e+18,2.549337768554688,-0.2643519341945648,2.128254532814026,-0.5109887793660164,1.6887025232543378e+18,2.549337768554688,-0.2653445899486542,2.132912367582321,-0.508698046207428,,,,,,,,,,,,1.6887025232536576e+18,2.54865751953125,7.566439914703369,49.231878662109374,-6.666079902648926,1.6887025232536576e+18,2.54865751953125,-246.97435302734377,144.696875,-139.87787780761718,1.6887025232543352e+18,2.549335286458333,0.6327504714330038,-0.7729248205820719,0.0333901041497786,0.0281339722375074,-2.7325164477030435,1.3538347085316975,-0.4165380497773488
2.55,1.6887025233062362e+18,2.6012364095052085,1.042364756266276,-2.4259468714396157,-5.2506154378255205,1.6887025233062362e+18,2.6012364095052085,-0.422133763631185,-12.070992469787598,-4.06261404355367,1.6887025233062362e+18,2.6012364095052085,-1.4703445831934612,-9.627540906270346,1.1253139972686768,1.6887025232975913e+18,2.5925914713541665,0.0603738495459159,2.6886216402053833,1.1424198547999065,1.6887025232975913e+18,2.5925914713541665,0.0593557363996903,2.693304816881815,1.1447105805079143,,,,,,,,,,,,1.688702523303655e+18,2.598654833984375,5.692519855499268,48.812199401855466,-8.33991985321045,1.688702523303655e+18,2.598654833984375,-248.84827575683593,144.277197265625,-141.55171813964844,1.6887025233062362e+18,2.6012364095052085,0.6436367034912109,-0.760655919710795,-0.0060343616642057,0.0819846838712692,-2.489358345667521,1.3723015785217283,-0.5270645419756571
2.6,1.6887025233581417e+18,2.6531417643229167,3.802919785181681,0.6265586217244467,-5.642311255137126,1.6887025233581417e+18,2.6531417643229167,3.9284164905548096,-9.159724871317543,-4.854239622751872,1.6887025233581417e+18,2.6531417643229167,0.1196508059899012,-9.768778800964355,0.7253841956456503,1.6887025233494943e+18,2.6444944661458334,1.0054842034975688,0.7917831589778265,3.3402111530303955,1.6887025233494943e+18,2.6444944661458334,1.0044660965601604,0.7964664498964945,3.3425018787384033,,,,,,,,,,,,1.68870252335366e+18,2.648659716796875,-1.788519912958145,49.57103958129883,-6.871039867401123,1.68870252335366e+18,2.648659716796875,-256.3293182373047,145.03603820800782,-140.0828399658203,1.6887025233581417e+18,2.6531417643229167,0.7040527065594991,-0.7049973805745443,-0.0233152120684583,0.0776479567090669,-1.4395415385564168,1.4791036049524944,-1.558993935585022
2.65,1.6887025234100472e+18,2.7050473632812504,-5.5326863924662275,-0.0365653038024902,-3.1090358098347983,1.6887025234100472e+18,2.7050473632812504,-4.072384754816691,-9.750552654266356,-2.8937201499938965,1.6887025234100472e+18,2.7050473632812504,1.4544556140899658,-9.69648265838623,0.1526282249639431,1.688702523401401e+18,2.696400797526042,1.0699304739634197,-0.1216639938453833,2.2471187114715576,1.688702523401401e+18,2.696400797526042,1.068912406762441,-0.1170315879086653,2.2494094371795654,,,,,,,,,,,,1.688702523403653e+18,2.69865322265625,-10.14795970916748,49.15379867553711,-3.8649600028991697,1.688702523403653e+18,2.69865322265625,-264.6887573242187,144.618798828125,-137.0767608642578,1.6887025234100472e+18,2.7050473632812504,0.7527485092480978,-0.6542908747990926,-0.0391160411139329,0.0585990361869335,-0.1463164122154314,1.4277033805847168,-2.856620709101359
2.7,1.688702523461949e+18,2.7569489746093745,6.593794822692871,-10.894393920898438,-2.521381994088491,1.688702523461949e+18,2.7569489746093745,8.935796817143759,-20.402801195780437,-3.051646490891774,1.688702523461949e+18,2.7569489746093745,2.336155891418457,-9.49090321858724,-0.5929518689711889,1.6887025234533036e+18,2.7483035481770828,1.51840736468633,2.0288871129353843,2.0801997979482016,1.6887025234533036e+18,2.7483035481770828,1.5173892974853516,2.033570329348246,2.0825414657592773,,,,,,,,,,,,1.6887025234536596e+18,2.74865947265625,-15.335399436950684,48.10947875976562,-0.946719978749752,1.6887025234536596e+18,2.74865947265625,-269.8761962890625,143.57447814941406,-134.15851745605468,1.688702523461949e+18,2.7569489746093745,0.7834283510843912,-0.6151401201883951,-0.0650126753995815,0.0367398758729298,0.216258352001508,1.326882521311442,0.9764250914255778
2.75,1.6887025235052063e+18,2.80020654296875,-5.940144062042236,-12.555644035339355,1.8236854076385496,1.6887025235052063e+18,2.80020654296875,-3.192922592163086,-21.564716339111328,-0.8784650266170502,1.6887025235052063e+18,2.80020654296875,2.741375684738159,-8.991568565368652,-2.764837861061096,1.6887025235052145e+18,2.8002145996093746,3.793778578440348,6.357885320981343,1.2048299113909404,1.6887025235052145e+18,2.8002145996093746,3.792811393737793,6.362517674763997,1.207120656967163,,,,,,,,,,,,1.6887025235036562e+18,2.7986561035156248,-19.693239593505854,45.19855880737305,11.870599746704102,1.6887025235036562e+18,2.7986561035156248,-274.234033203125,140.66355590820314,-121.34119720458985,1.6887025235052063e+18,2.80020654296875,0.7938657701015472,-0.5555237531661987,-0.2317226752638816,0.0811780877411365,0.7858532071113586,1.1680279970169067,2.8115689754486084
2.8,1.68870252354846e+18,2.8434600423177083,-5.085559765497844,-7.0220232009887695,0.7031298478444418,1.68870252354846e+18,2.8434600423177083,-2.4057838320732117,-15.426926294962565,-3.535794178644816,1.68870252354846e+18,2.8434600423177083,2.6739298502604165,-8.387398401896158,-4.301611423492432,1.688702523557112e+18,2.8521120605468746,3.6899314721425376,-1.063923647006353,0.7163922240336736,1.688702523557112e+18,2.8521120605468746,3.688964287439982,-1.0593421856562295,0.7186829795440038,,,,,,,,,,,,1.68870252355366e+18,2.84865986328125,-19.546839904785156,41.66543960571289,21.625719451904295,1.68870252355366e+18,2.84865986328125,-274.0876403808594,137.13043823242188,-111.58607940673828,1.68870252354846e+18,2.8434600423177083,0.2605542341868083,-0.1865076820055643,-0.0908301671346028,0.027429535674552,1.01800537109375,1.034233490626017,2.574659585952759
2.85,1.6887025236003602e+18,2.8953601888020835,-4.178134282430013,-1.8795247077941897,2.560117483139038,1.6887025236003602e+18,2.8953601888020835,-0.8765707015991211,-9.348758379618326,-2.8321049213409424,1.6887025236003602e+18,2.8953601888020835,3.2957175572713218,-7.451728979746501,-5.454909801483154,1.688702523609013e+18,2.9040127766927086,1.38391518779099,-0.7735590313871702,1.1528045336405437,1.688702523609013e+18,2.9040127766927086,1.3829480642452836,-0.7689775278170904,1.1550952792167664,,,,,,,,,,,,1.6887025236036554e+18,2.89865546875,-22.55047950744629,37.000159454345706,27.286519622802736,1.6887025236036554e+18,2.89865546875,-277.0912719726563,132.46515502929688,-105.92527770996094,1.6887025236003602e+18,2.8953601888020835,-0.814482053120931,0.4869483709335327,0.3114285965760549,0.0475236599644024,1.0313550233840942,0.8692000309626261,2.510319709777832
2.9,1.6887025236522668e+18,2.9472667643229165,-2.975229342778524,5.141490300496419,5.391580581665039,1.6887025236522668e+18,2.9472667643229165,0.9822536806265512,-2.257229427496592,0.3533401538928349,1.6887025236522668e+18,2.9472667643229165,3.9516369501749673,-7.381215254465739,-5.100927670796712,1.688702523660917e+18,2.955917236328125,-1.7082337538401289,-1.8020524581273396,0.0920370270808537,1.688702523660917e+18,2.955917236328125,-1.7092010180155437,-1.7973182996114094,0.0943277776241302,,,,,,,,,,,,1.6887025236536558e+18,2.948655615234375,-26.35199966430664,36.41211929321289,25.61023979187012,1.6887025236536558e+18,2.948655615234375,-280.8927917480469,131.8771209716797,-107.60155639648436,1.6887025236522668e+18,2.9472667643229165,-0.8340905507405599,0.4733442763487498,0.2760902941226959,0.0606036596000194,0.913474182287852,0.8574576377868652,2.5548874537150064
2.95,1.6887025237041708e+18,2.9991708984375,-3.7481682300567623,8.407106558481852,4.089155991872151,1.6887025237041708e+18,2.9991708984375,0.4231308102607727,0.4388835572948058,0.2097707802895456,1.6887025237041708e+18,2.9991708984375,4.16545295715332,-7.9507185618082685,-3.942072550455729,1.688702523704174e+18,2.9991739501953125,-2.383901596069336,-0.8414669036865234,-0.7115816473960876,1.688702523704174e+18,2.9991739501953125,-2.3848942518234253,-0.8367326557636261,-0.7092909216880798,,,,,,,,,,,,1.6887025237036572e+18,2.99865732421875,-27.69155921936035,38.91067962646484,19.890879440307614,1.6887025237036572e+18,2.99865732421875,-282.2323486328125,134.37568054199218,-113.32091674804688,1.6887025237041708e+18,2.9991708984375,-0.8419702053070068,0.4923831621805827,0.2170090377330779,0.0347853867957989,0.7584331432978312,0.9512968262036642,2.654632806777954
3.0,1.6887025237560753e+18,3.0510753580729166,-3.001253604888916,9.90459156036377,2.6257987022399902,1.6887025237560753e+18,3.0510753580729166,0.7373881538709005,1.297707478205363,-0.2113659928242365,1.6887025237560753e+18,3.0510753580729166,3.7327956358591714,-8.58937962849935,-2.8998521169026694,1.6887025237474263e+18,3.0424263509114584,-2.251954714457194,-0.2302452872196833,-1.3081679344177246,1.6887025237474263e+18,3.0424263509114584,-2.2530237833658853,-0.2255619963010151,-1.3058772087097168,,,,,,,,,,,,1.688702523753658e+18,3.0486578613281248,-25.627319717407225,42.41695938110352,14.31059970855713,1.688702523753658e+18,3.0486578613281248,-280.168115234375,137.8819580078125,-118.9011978149414,1.6887025237560753e+18,3.0510753580729166,0.2726160486539205,-0.1850525140762329,-0.051800971229871,0.0088412419427185,0.6604413787523905,1.073629895846049,2.746469338734945
3.05,1.688702523807973e+18,3.10297314453125,-4.239990870157878,8.231382687886557,1.948969562848409,1.688702523807973e+18,3.10297314453125,-0.9984052379926046,-0.7804589867591858,-0.1862413591394822,1.688702523807973e+18,3.10297314453125,3.235739549001058,-8.99433708190918,-2.1978983084360757,1.688702523799332e+18,3.0943321940104163,-1.488169550895691,0.6851362784703573,-0.8295040925343832,1.688702523799332e+18,3.0943321940104163,-1.489085853099823,0.6898195942242941,-0.8272133469581604,,,,,,,,,,,,1.688702523803659e+18,3.098658935546875,-22.97015953063965,44.81547927856445,10.516399765014649,1.688702523803659e+18,3.098658935546875,-277.5109497070313,140.28047790527344,-122.69539947509766,1.688702523807973e+18,3.10297314453125,0.8129678765932719,-0.5576805671056112,-0.1626218309005101,0.0389061458408832,0.5969199935595194,1.166829268137614,2.8366247018178306
3.1,1.688702523859887e+18,3.154887044270833,-5.1245856285095215,-1.8072926203409831,3.3997627894083657,1.688702523859887e+18,3.154887044270833,-2.4552354849874973,-11.05663514137268,1.4917255242665608,1.688702523859887e+18,3.154887044270833,2.663504123687744,-9.231838226318358,-1.9707247813542683,1.6887025238512376e+18,3.1462377115885416,-0.7993171612421671,1.5339844822883606,-0.8529715140660604,1.6887025238512376e+18,3.1462377115885416,-0.8002843459447225,1.5386168559392293,-0.8506807684898376,,,,,,,,,,,,1.6887025238536522e+18,3.148652197265625,-20.85712013244629,46.15991897583008,9.467199707031252,1.6887025238536522e+18,3.148652197265625,-275.3979248046875,141.62491760253906,-123.74459686279296,1.688702523859887e+18,3.154887044270833,0.793089747428894,-0.5792907277743021,-0.1747022867202758,0.0682952937980492,0.6369391679763794,1.2314191261927288,2.855107545852661
3.15,1.6887025239117878e+18,3.2067879231770835,-10.531896273295084,-24.710974375406902,5.802792390187581,1.6887025239117878e+18,3.2067879231770835,-8.1112699508667,-34.132219314575195,4.4859442710876465,1.6887025239117878e+18,3.2067879231770835,2.4147799809773765,-9.40373961130778,-1.3795356353123982,1.6887025239031396e+18,3.1981395670572916,-1.8344792524973552,1.1584041037907202,0.1200859198967615,1.6887025239031396e+18,3.1981395670572916,-1.8354973395665488,1.16303647061189,0.122376670440038,,,,,,,,,,,,1.688702523903658e+18,3.198658056640625,-18.822159576416016,47.03587875366211,8.069079875946045,1.688702523903658e+18,3.198658056640625,-273.3629577636719,142.5008758544922,-125.14271850585938,1.6887025239117878e+18,3.2067879231770835,0.7792936960856119,-0.5884716113408407,-0.1785992185274759,0.1195493390162785,0.5113047063350677,1.2861477533976238,0.9651383558909098
3.2,1.6887025239550449e+18,3.2500447998046873,-4.577060699462891,-6.261923789978027,0.9321086406707764,1.6887025239550449e+18,3.2500447998046873,-2.3276182413101196,-15.820147037506104,0.706480860710144,1.6887025239550449e+18,3.2500447998046873,2.243596315383911,-9.540719032287598,-0.2883151955902576,1.6887025239550436e+18,3.2500437825520834,-2.4191790421803794,-2.9871819416681924,-1.3828970988591511,1.6887025239550436e+18,3.2500437825520834,-2.420095443725586,-2.9824986855189004,-1.380606363217036,,,,,,,,,,,,1.6887025239536576e+18,3.2486577148437497,-18.234119415283203,47.587319946289064,2.542479932308197,1.6887025239536576e+18,3.2486577148437497,-272.7749084472656,143.05231628417968,-130.66931762695313,1.6887025239550449e+18,3.2500447998046873,0.7710725367069244,-0.608880490064621,-0.1251468360424041,0.1365909650921821,0.1095855582971126,1.339189887046814,-2.8762606382369995
3.25,1.6887025239982932e+18,3.293293131510417,2.5227719942728677,-4.734489440917969,-3.365482131640116,1.6887025239982932e+18,3.293293131510417,3.3499515851338706,-14.445868810017904,-2.3118654688199363,1.6887025239982932e+18,3.293293131510417,0.8213336542248726,-9.6938746770223,0.9909292062123616,1.6887025240069466e+18,3.3019465332031253,-2.3136011759440103,-4.479169408480327,-4.754415194193522,1.6887025240069466e+18,3.3019465332031253,-2.314568360646566,-4.474435289700826,-4.752124468485515,,,,,,,,,,,,1.688702524003661e+18,3.2986609863281253,-11.48263988494873,49.041558837890626,-6.607519817352295,1.688702524003661e+18,3.2986609863281253,-266.0234375,144.50655517578124,-139.8193145751953,1.6887025239982932e+18,3.293293131510417,0.7277947862943014,-0.6758511066436768,-0.0212631604323784,0.1009433368841806,-0.9422894914944968,1.4173818826675415,-2.0255815982818604
3.3,1.6887025240501985e+18,3.3451985677083336,10.147199233373009,-5.96755854288737,-6.428967634836833,1.6887025240501985e+18,3.3451985677083336,9.373085021972656,-15.426128705342611,-3.871985832850138,1.6887025240501985e+18,3.3451985677083336,-0.7799599369366964,-9.441065470377604,2.494294365247091,1.6887025240588495e+18,3.3538495279947917,-2.3983078400293985,4.789234399795532,-0.3565925757090251,1.6887025240588495e+18,3.3538495279947917,-2.3992241621017456,4.793917655944824,-0.3543018102645872,,,,,,,,,,,,1.688702524053654e+18,3.348654052734375,-1.437159989774227,48.4583984375,-15.030399513244628,1.688702524053654e+18,3.348654052734375,-255.9779510498047,143.92339477539062,-148.24219360351563,1.6887025240501985e+18,3.3451985677083336,0.6555284857749939,-0.7355011105537415,0.0126798641867935,0.1635285938779513,-1.9008087317148843,1.294925570487976,-1.0245193243026731
3.35,1.6887025241021033e+18,3.397103434244792,3.129138787587484,3.0591004689534507,-8.485459009806315,1.6887025241021033e+18,3.397103434244792,2.8979074160257974,-6.170092582702637,-5.066004276275635,1.6887025241021033e+18,3.397103434244792,-0.2370773212363322,-9.211688359578451,3.3567673365275064,1.6887025241107528e+18,3.4057526855468745,-1.1796826124191284,0.6497060755888621,0.9293296386798224,1.6887025241107528e+18,3.4057526855468745,-1.1807516018549602,0.6543384989102682,0.931671311457952,,,,,,,,,,,,1.688702524103656e+18,3.398655810546875,-4.906839895248413,46.96755828857422,-19.293079376220703,1.688702524103656e+18,3.398655810546875,-259.4476379394531,142.43255310058595,-152.50487670898437,1.6887025241021033e+18,3.397103434244792,0.6564806699752808,-0.7168792684872946,0.0071735465899109,0.2342722366253534,-1.6540242036183674,1.2165975173314412,-1.1597938537597656
