seconds_elapsed_rounded,accelerometer_time,accelerometer_seconds_elapsed,accelerometer_z,accelerometer_y,accelerometer_x,accelerometeruncalibrated_time,accelerometeruncalibrated_seconds_elapsed,accelerometeruncalibrated_z,accelerometeruncalibrated_y,accelerometeruncalibrated_x,gravity_time,gravity_seconds_elapsed,gravity_z,gravity_y,gravity_x,gyroscope_time,gyroscope_seconds_elapsed,gyroscope_z,gyroscope_y,gyroscope_x,gyroscopeuncalibrated_time,gyroscopeuncalibrated_seconds_elapsed,gyroscopeuncalibrated_z,gyroscopeuncalibrated_y,gyroscopeuncalibrated_x,location_time,location_seconds_elapsed,location_bearingAccuracy,location_speedAccuracy,location_verticalAccuracy,location_horizontalAccuracy,location_speed,location_bearing,location_altitude,location_longitude,location_latitude,magnetometer_time,magnetometer_seconds_elapsed,magnetometer_z,magnetometer_y,magnetometer_x,magnetometeruncalibrated_time,magnetometeruncalibrated_seconds_elapsed,magnetometeruncalibrated_z,magnetometeruncalibrated_y,magnetometeruncalibrated_x,orientation_time,orientation_seconds_elapsed,orientation_qz,orientation_qy,orientation_qx,orientation_qw,orientation_roll,orientation_pitch,orientation_yaw
0.0,1.6887024019801324e+18,89.99513232421874,14.112772623697916,-20.068006833394367,-4.592690885066986,1.6887024019801324e+18,89.99513232421874,10.805987040201822,-29.305098215738933,-4.146163463592529,1.6887024019801324e+18,89.99513232421874,-3.312631448109945,-9.219587008158364,0.383840004603068,1.688702401988787e+18,90.00378670247396,4.654131372769673,10.334160168965658,1.2611312965552013,1.6887024019844598e+18,89.99945959472657,3.936415553092957,8.463461637496948,1.746234655380249,,,,,,,,,,,,1.6887024019891144e+18,90.00411450195313,13.173559761047365,48.931759643554685,-1.3907999396324158,1.6887024019891144e+18,90.00411450195313,-241.3672332763672,144.39675903320312,-134.60259704589845,1.6887024019801324e+18,89.99513232421874,-0.1826587518056233,0.279398222764333,-0.0580580309033393,0.0268334571737795,-3.056013504664103,1.2150554259618125,-0.0836204936106999
0.05,1.6887024020320433e+18,90.04704353841146,-3.5301009813944493,-21.49508253733317,-0.9814854264259338,1.6887024020320433e+18,90.04704353841146,-6.97428035736084,-30.68276532491048,-0.7405785520871481,1.6887024020320433e+18,90.04704353841146,-3.45002547899882,-9.170178095499674,0.1782195518414179,1.6887024020406894e+18,90.05568929036458,3.5112534165382385,15.077936490376793,-3.7243945598602295,1.6887024020277174e+18,90.04271712239584,5.477425257364909,18.20022137959798,-1.924327313899994,,,,,,,,,,,,1.6887024020391153e+18,90.0541154296875,15.210960006713869,47.977719116210935,2.8743199586868284,1.6887024020391153e+18,90.0541154296875,-239.3298370361328,143.44271545410157,-130.3374786376953,1.6887024020320433e+18,90.04704353841146,0.504447470108668,-0.7488633990287781,-0.3356338242689768,0.2369585931301116,-0.9984791278839112,1.1952502330144246,0.8091699679692587
0.1,1.688702402083943e+18,90.09894270833333,4.70737870534261,-0.1001769701639811,1.60080486536026,1.688702402083943e+18,90.09894270833333,-0.0558325350284575,-8.65842898686727,2.325624167919159,1.688702402083943e+18,90.09894270833333,-4.769057114919026,-8.54074732462565,0.6621319005886713,1.6887024020925965e+18,90.1075965983073,-1.0153598586718242,-6.499860763549805,0.4964298009872436,1.688702402079622e+18,90.0946221516927,-0.647262640297413,-2.284025192260742,-1.8299995462099712,,,,,,,,,,,,1.6887024020891164e+18,90.10411650390624,25.049039459228517,44.72275924682617,0.35135999917984,1.6887024020891164e+18,90.10411650390624,-229.49175415039065,140.18775939941406,-132.86044006347657,1.688702402083943e+18,90.09894270833333,0.4037973086039225,-0.7404451171557108,-0.4472581346829732,0.2939846018950144,-2.994250456492106,1.041427771250407,1.002404789129893
0.15,1.6887024021358436e+18,90.15084334309896,3.7504356702168784,8.431852340698242,3.575852632522583,1.6887024021358436e+18,90.15084334309896,-0.2669991304477055,-0.5084748268127441,3.1012975374857583,1.6887024021358436e+18,90.15084334309896,-4.023280779520671,-8.922822634379068,-0.5372424821058909,1.6887024021358438e+18,90.15084375,-1.975614547729492,-8.747055530548096,1.911397278308868,1.6887024021315226e+18,90.14652246093748,-1.851837952931722,-8.826799233754477,1.8910352389017744,,,,,,,,,,,,1.688702402139111e+18,90.15411064453124,20.13731918334961,46.38683929443359,6.444039821624756,1.688702402139111e+18,90.15411064453124,-234.40347595214843,141.85184020996093,-126.76775665283203,1.6887024021358436e+18,90.15084334309896,0.5091132124265035,-0.7830713987350464,-0.3108412524064382,0.1653423706690469,3.006609837214152,1.1284539302190144,0.8415403167406718
0.2,1.6887024021877504e+18,90.20275048828124,3.0812150637308755,10.651379585266112,2.59922202428182,1.6887024021877504e+18,90.20275048828124,-0.0558325250943502,1.3684951464335124,1.972084601720174,1.6887024021877504e+18,90.20275048828124,-3.142893632253011,-9.265379905700684,-0.6898247996966044,1.6887024021790945e+18,90.19409415690104,-2.5192083517710366,-6.918099880218506,1.0828095277150471,1.6887024021834227e+18,90.19842244466146,-2.5362106959025064,-6.787018299102783,0.9878200093905132,,,,,,,,,,,,1.6887024021891144e+18,90.20411440429687,13.395599746704102,48.65603942871094,7.334639739990235,1.6887024021891144e+18,90.20411440429687,-241.14519348144532,144.12103576660155,-125.87715759277344,1.6887024021877504e+18,90.20275048828124,0.5742351611455282,-0.7995850642522176,-0.156697504222393,0.0630895607173442,2.909508546193441,1.2234646479288738,0.5495271980762482
0.25,1.6887024022396634e+18,90.25466333007812,9.64157489935557,8.70726458231608,0.2761926452318827,1.6887024022396634e+18,90.25466333007812,6.91924520333608,-0.7198408047358195,-0.1126620570818583,1.6887024022396634e+18,90.25466333007812,-2.7281757990519204,-9.409600893656412,-0.4515421092510223,1.6887024022310113e+18,90.24601147460938,-1.6980526844660442,-4.205450812975566,0.6141232003768285,1.6887024022353316e+18,90.25033170572918,-1.5338316957155864,-3.660711770256361,0.7572692533334097,,,,,,,,,,,,1.6887024022391168e+18,90.25411674804688,9.979599952697754,49.6491195678711,5.3923999786376955,1.6887024022391168e+18,90.25411674804688,-244.56119384765623,145.11412048339844,-127.81939697265624,1.6887024022396634e+18,90.25466333007812,-0.2043142120043436,0.2638680736223857,-0.0017922222614288,0.0107277228186527,2.9427342414855957,1.274902860323588,0.2499355177084604
0.3,1.6887024022915633e+18,90.30656315104166,1.147285799185435,6.243667920430501,1.0794547994931538,1.6887024022915633e+18,90.30656315104166,-0.6175476511319479,-3.412563880284627,0.7487540741761526,1.6887024022915633e+18,90.30656315104166,-1.7706794738769531,-9.638727188110352,-0.3933881123860677,1.688702402282912e+18,90.2979120279948,0.8894197913662841,3.852879762649536,2.0607539415359497,1.688702402287237e+18,90.3022373046875,1.0665707091490428,4.220009803771973,1.8940895398457844,,,,,,,,,,,,1.688702402289117e+18,90.30411704101564,5.075199985504151,50.2810791015625,5.194759845733643,1.688702402289117e+18,90.30411704101564,-249.46559448242184,145.74607849121094,-128.01703643798828,1.6887024022915633e+18,90.30656315104166,0.6343165437380472,-0.766706387201945,-0.083921156823635,0.0367446104064583,2.878157456715902,1.3708113034566245,0.4352135360240936
0.35,1.6887024023348214e+18,90.34982153320313,-3.144689440727234,0.8762311935424805,5.438230276107788,1.6887024023348214e+18,90.34982153320313,-4.958227515220642,-8.76012372970581,4.884050130844116,1.6887024023348214e+18,90.34982153320313,-1.8193841576576233,-9.618850231170654,-0.6168675422668457,1.6887024023348152e+18,90.34981534830727,1.625257929166158,5.902179876963298,-1.0817405482133229,1.6887024023391444e+18,90.35414420572916,1.587995131810506,5.702630678812663,-1.4441872412959735,,,,,,,,,,,,1.6887024023391188e+18,90.35411884765624,5.646159934997558,49.702799224853514,7.749439716339111,1.6887024023391188e+18,90.35411884765624,-248.89463806152344,145.16779479980468,-125.46235809326171,1.6887024023348214e+18,90.34982153320313,0.622981458902359,-0.7495211064815521,-0.1918158382177352,0.1118783392012119,2.7969157695770264,1.3587031960487366,0.7802446186542511
0.4,1.688702402378067e+18,90.39306697591144,-10.58537530899048,-29.60542933146159,7.165184736251831,1.688702402378067e+18,90.39306697591144,-13.741780916849772,-38.86023775736491,6.43250568707784,1.688702402378067e+18,90.39306697591144,-3.1622514724731445,-9.237303415934244,-0.7953668236732483,1.6887024023867205e+18,90.40172037760416,0.5328272183736166,0.90178981423378,-3.3186272780100503,1.688702402391043e+18,90.40604353841144,0.2744821310043335,0.5361869732538859,-3.1693216959635415,,,,,,,,,,,,1.688702402389117e+18,90.40411689453126,15.220719909667968,47.33111953735352,9.669719886779784,1.688702402389117e+18,90.40411689453126,-239.32007446289063,142.7961181640625,-123.54207763671874,1.688702402378067e+18,90.39306697591144,0.5597023367881775,-0.7712258299191793,-0.2686054209868113,0.1378614604473114,2.8832300504048667,1.2171515623728435,0.8512489199638367
0.45,1.6887024024299745e+18,90.44497444661458,1.0457126299540205,-7.165468215942383,-0.989459216594696,1.6887024024299745e+18,90.44497444661458,-3.2953155835469565,-15.95913028717041,-1.342373510201772,1.6887024024299745e+18,90.44497444661458,-4.346874237060547,-8.77615769704183,-0.4156017228960991,1.6887024024386245e+18,90.45362475585938,-2.7075583934783936,-1.2080369393030803,-2.2187135219573975,1.6887024024343004e+18,90.44930041503906,-2.6918541193008423,-1.0602329969406128,-2.1367303133010864,1.68870240242565e+18,90.44064990234376,0.0,0.0,1.1331719160079956,7.5,2.991278886795044,332.318115234375,43.54153593973077,-122.7525266,49.1886231,1.6887024024391206e+18,90.45412075195313,20.566759490966795,45.60604019165039,6.961319828033448,1.6887024024391206e+18,90.45412075195313,-233.97403564453128,141.07103881835937,-126.25047912597655,1.6887024024299745e+18,90.44497444661458,0.5055465896924337,-0.8133310278256735,-0.2561097393433252,0.1292357097069422,3.030803918838501,1.0940813223520915,0.6792426904042562
0.5,1.688702402481878e+18,90.49687809244791,12.102603117624918,-4.589802106221517,-3.433770497639974,1.688702402481878e+18,90.49687809244791,5.963911255200705,-12.136795202891031,-3.331407308578491,1.688702402481878e+18,90.49687809244791,-6.144538243611653,-7.529488722483317,0.0396757622559865,1.688702402490529e+18,90.5055290527344,-3.5139005978902182,-8.414719661076864,-7.825692653656006,1.6887024024775493e+18,90.49254931640624,-3.5713728268941245,-4.952030181884766,-7.28945517539978,,,,,,,,,,,,1.6887024024891151e+18,90.50411518554688,31.356438827514648,39.62315979003906,4.287079858779907,1.6887024024891151e+18,90.50411518554688,-223.18435363769532,135.0881576538086,-128.92472076416016,1.688702402481878e+18,90.49687809244791,0.4123328725496928,-0.8879576722780863,-0.1667742207646369,0.0786637868732213,-1.0488414764404297,0.8707400957743326,0.3717891971270243
0.55,1.6887024025337802e+18,90.54878002929688,36.2392578125,-7.3895583152771,1.077115833759308,1.6887024025337802e+18,90.54878002929688,28.70848782857259,-13.511272748311365,-0.1505484779675801,1.6887024025337802e+18,90.54878002929688,-7.536615530649821,-6.1042100588480634,-1.290351798137029,1.68870240254243e+18,90.55742993164064,-2.1929044326146445,2.986163934071859,2.231236298878988,1.6887024025294582e+18,90.54445825195312,-2.663219769795736,-2.3272438844045005,-0.3887139956156413,,,,,,,,,,,,1.6887024025391145e+18,90.55411455078124,38.76183929443359,33.12543983459473,9.938119792938233,1.6887024025391145e+18,90.55411455078124,-215.778955078125,128.59043731689454,-123.27367858886718,1.6887024025337802e+18,90.54878002929688,-0.3260533909002939,0.9415117502212524,0.0434837614496548,0.0620288802310824,2.9590667883555093,0.654649575551351,0.1528100098172823
0.6,1.6887024025856878e+18,90.6006875813802,-0.7191007932027181,3.092210292816162,-2.6515281200408936,1.6887024025856878e+18,90.6006875813802,-6.985845883687337,-4.41475776831309,-1.9403797388076784,1.6887024025856878e+18,90.6006875813802,-6.2725911140441895,-7.489463488260905,0.6484610736370087,1.6887024025856868e+18,90.60068688964844,-0.0357356145977973,2.8631253838539124,4.23680853843689,1.6887024025813627e+18,90.59636263020832,-0.2751948088407516,3.4490977923075357,4.1831034024556475,,,,,,,,,,,,1.688702402589117e+18,90.604116796875,31.64435920715332,39.41575927734375,0.4294399678707122,1.688702402589117e+18,90.604116796875,-222.8964324951172,134.8807586669922,-132.78235473632813,1.6887024025856878e+18,90.6006875813802,0.410757025082906,-0.9068299134572348,-0.0643237282832463,0.0597537172337372,-3.055859168370565,0.8535306056340536,0.1016246949632962
0.65,1.688702402637581e+18,90.6525810546875,-1.3216644922892251,8.797382672627768,-4.652992328008016,1.688702402637581e+18,90.6525810546875,-6.031907081604004,0.2101695934931437,-4.0514475504557295,1.688702402637581e+18,90.6525810546875,-4.716088612874349,-8.569708506266275,0.5388573408126831,1.6887024026289334e+18,90.64393318684895,0.0633772561947504,-1.4180218776067095,3.78425931930542,1.6887024026332603e+18,90.6482604980469,-0.0653116727868716,-1.8208874414364495,3.800752639770508,,,,,,,,,,,,1.6887024026391127e+18,90.65411259765624,23.52891960144043,44.666639709472655,0.6222000006586312,1.6887024026391127e+18,90.65411259765624,-231.01187744140623,140.1316345214844,-132.5895965576172,1.688702402637581e+18,90.6525810546875,0.4984705547491709,-0.8610503872235616,-0.0695239268243312,0.0656678353746731,-3.0535874366760254,1.052012821038564,0.110454611480236
0.7,1.688702402689486e+18,90.7044862467448,5.925163825352986,-4.829267978668213,-7.034964720408122,1.688702402689486e+18,90.7044862467448,2.9716863234837856,-14.183655897776283,-6.883153756459554,1.688702402689486e+18,90.7044862467448,-2.9593235651652017,-9.336883544921877,0.0891235073407491,1.688702402680835e+18,90.69583536783853,-1.0505863899985948,-4.776915391286214,3.9664499759674072,1.6887024026851656e+18,90.70016544596352,-0.8285878300666809,-4.468173821767171,3.9017489751180015,,,,,,,,,,,,1.6887024026891126e+18,90.70411259765623,13.615199661254882,47.88987808227539,1.9105199337005616,1.6887024026891126e+18,90.70411259765623,-240.9255920410156,143.35487365722656,-131.30127868652343,1.688702402689486e+18,90.7044862467448,-0.2134842872619629,0.2568980852762858,-0.0173087241128086,0.0198398058613141,-1.063681920369466,1.254085103670756,0.0069520858426888
0.75,1.6887024027413924e+18,90.7563924967448,11.80743702252706,-24.077404022216797,-3.520577828089396,1.6887024027413924e+18,90.7563924967448,9.50648514429728,-33.56711387634277,-4.423930247624715,1.6887024027413924e+18,90.7563924967448,-2.3067973852157593,-9.47220516204834,-0.966039776802063,1.6887024027327398e+18,90.74773999023436,4.998659372329712,10.892338434855144,0.7376706600189209,1.688702402737068e+18,90.75206803385416,5.212818622589111,12.528387546539308,0.2545271714528401,,,,,,,,,,,,1.688702402739111e+18,90.7541107421875,7.78603982925415,48.36079864501953,7.097959804534912,1.688702402739111e+18,90.7541107421875,-246.75475463867187,143.82579650878907,-126.11383972167968,1.6887024027413924e+18,90.7563924967448,0.1876251498858133,-0.2483740448951721,-0.137354119370381,0.0655614885812003,2.745737393697103,1.2957119941711426,0.7129234870274862
0.8,1.6887024027846472e+18,90.7996473388672,8.480824947357178,-11.538045883178713,4.444162368774414,1.6887024027846472e+18,90.7996473388672,4.593322157859802,-20.53909206390381,4.379762649536133,1.6887024027846472e+18,90.7996473388672,-3.893348693847656,-8.983541488647461,-0.1270871758460998,1.688702402784646e+18,90.7996455891927,1.933897535006205,15.175878206888834,-3.3235140641530356,1.6887024027889723e+18,90.80397241210936,1.614364167054494,13.42936364809672,-3.3303864002227783,,,,,,,,,,,,1.688702402789112e+18,90.80411196289064,19.09300003051758,45.362039184570314,7.3419597864151,1.688702402789112e+18,90.80411196289064,-235.44779357910156,140.82703247070313,-125.86983947753906,1.6887024027846472e+18,90.7996473388672,0.4591863453388214,-0.7106542587280273,-0.4457870721817016,0.2814413309097289,-0.0261131525039672,1.142206847667694,1.139118254184723
0.85,1.688702402827899e+18,90.84289884440103,1.387563705444336,2.1939539909362793,1.619057337443034,1.688702402827899e+18,90.84289884440103,-3.209572712580363,-6.47218640645345,1.6153547366460164,1.688702402827899e+18,90.84289884440103,-4.602982521057129,-8.648635864257812,-0.0663900102178255,1.6887024028365496e+18,90.85154956054689,-0.4086688545842965,-7.789142608642578,0.7209228277206421,1.688702402840877e+18,90.85587727864583,-0.5375614066918691,-8.385550816853842,0.972446565826734,,,,,,,,,,,,1.68870240283911e+18,90.85411010742187,24.41463966369629,43.20263900756836,6.363519906997681,1.68870240283911e+18,90.85411010742187,-230.12615661621095,138.66763610839843,-126.84827880859376,1.688702402827899e+18,90.84289884440103,0.4180438021818796,-0.7113338311513265,-0.484722375869751,0.2849270651737848,-1.0480600992838542,1.0628647406895957,1.1974000136057537
0.9,1.6887024028798024e+18,90.89480240885416,3.4581732749938965,8.920971075693767,4.15163532892863,1.6887024028798024e+18,90.89480240885416,-0.2067797556519509,-0.0775673439105351,2.812164783477783,1.6887024028798024e+18,90.89480240885416,-3.6707990964253745,-8.98103396097819,-1.4021580616633098,1.6887024028884529e+18,90.90345263671875,-1.827505151430766,-8.194197495778402,1.01882141828537,1.6887024028841318e+18,90.8991319580078,-1.7751744389533997,-8.356941938400269,1.116508960723877,,,,,,,,,,,,1.688702402889113e+18,90.90411333007812,17.326439666748048,45.45475845336914,12.207319831848144,1.688702402889113e+18,90.90411333007812,-237.21435546875,140.9197570800781,-121.00447845458984,1.6887024028798024e+18,90.89480240885416,0.5298875669638315,-0.7532099286715189,-0.3542311290899912,0.1520030125975608,2.780754884084066,1.1413366397221882,1.112736741701762
0.95,1.688702402931709e+18,90.94670865885416,1.9379109938939412,10.502144813537598,3.5495449701944985,1.688702402931709e+18,90.94670865885416,-0.8847461572537819,1.2215359210968018,2.062014897664388,1.688702402931709e+18,90.94670865885416,-2.828503211339315,-9.263104438781738,-1.5502174297968547,1.6887024029403617e+18,90.95536157226564,-2.33783221244812,-6.76400899887085,0.0322231414417426,1.6887024029273818e+18,90.94238191731772,-2.3199644088745117,-6.994152386983235,0.2421571562687555,1.6887024029446843e+18,90.95968432617188,0.0,0.0,1.1331719160079956,7.526000022888184,2.986239194869995,332.1424560546875,43.54153593973077,-122.7525351,49.1886333,1.688702402939111e+18,90.95411064453126,11.738839912414551,47.392119598388675,12.107279777526855,1.688702402939111e+18,90.95411064453126,-242.801953125,142.85711669921875,-121.1045166015625,1.688702402931709e+18,90.94670865885416,0.5894358158111572,-0.7779022653897604,-0.2064427435398101,0.0484462945411602,2.63018790880839,1.220945874849955,0.8801527420679728
1.0,1.6887024029836145e+18,90.9986144205729,7.702982346216839,8.120487848917643,1.2280998627344768,1.6887024029836145e+18,90.9986144205729,5.459623873233795,-1.360120217005412,0.0488534520069758,1.6887024029836145e+18,90.9986144205729,-2.249204158782959,-9.463103612263996,-1.241933822631836,1.688702402992264e+18,91.0072637532552,-0.4633413056532542,1.1847732067108152,1.773443619410197,1.6887024029792878e+18,90.99428776041668,-1.1692469964424768,-1.405855417251587,1.2012155850728352,,,,,,,,,,,,1.688702402989116e+18,91.00411586914063,7.976359939575195,48.524278259277345,9.884439849853516,1.688702402989116e+18,91.00411586914063,-246.5644348144531,143.98927612304686,-123.32735748291016,1.6887024029836145e+18,90.9986144205729,-0.1973345875740051,0.2673281232515971,0.0295816957950592,0.0137979214390118,2.6099743048350015,1.291656454404195,0.6825460394223531
1.05,1.6887024030355244e+18,91.05052449544272,-1.091602126757304,4.177856922149658,3.0550702015558877,1.6887024030355244e+18,91.05052449544272,-2.684348146120707,-5.446463028589885,1.942373752593994,1.6887024030355244e+18,91.05052449544272,-1.5985920429229736,-9.606815338134766,-1.1753839254379272,1.688702403035525e+18,91.05052502441406,1.4330898523330688,5.3625569343566895,1.2357040047645569,1.6887024030311964e+18,91.04619620768229,1.2479977210362752,5.082398891448975,1.363094876209895,,,,,,,,,,,,1.6887024030391176e+18,91.05411743164063,5.060559940338135,49.22943801879883,10.16503963470459,1.6887024030391176e+18,91.05411743164063,-249.48023376464843,144.69443969726564,-123.04675750732422,1.6887024030355244e+18,91.05052449544272,0.6379837393760681,-0.7416887084643046,-0.188492422302564,0.0742468188206354,2.4964728355407715,1.3515681425730388,1.021496017773946
1.1,1.6887024030874222e+18,91.1024220377604,-9.00905704498291,-22.12933572133382,8.047580560048422,1.6887024030874222e+18,91.1024220377604,-11.668001174926758,-31.48475933074951,6.8630140622456866,1.6887024030874222e+18,91.1024220377604,-2.664790232976278,-9.337918917338053,-1.2472540934880574,1.688702403078777e+18,91.09377726236978,0.9707157711187998,4.599611520767212,-2.734589179356893,1.6887024030831035e+18,91.0981035970052,0.8747590382893881,4.371402661005656,-3.038952867190043,,,,,,,,,,,,1.6887024030891146e+18,91.10411484375,10.3455997467041,47.47751846313477,11.448479652404783,1.6887024030891146e+18,91.10411484375,-244.19519653320313,142.94251708984376,-121.76331787109376,1.6887024030874222e+18,91.1024220377604,0.5812795758247375,-0.7429472804069519,-0.2979665299256642,0.1407399823268253,2.6763668855031333,1.2492866118748982,1.1052764654159546
1.15,1.6887024031393334e+18,91.15433357747396,-1.3207582632700603,-11.509366353352863,1.4507104754447937,1.6887024031393334e+18,91.15433357747396,-5.463213046391805,-20.39263153076172,1.048654556274414,1.6887024031393334e+18,91.15433357747396,-4.148300727208455,-8.865761121114096,-0.4647433000306288,1.6887024031306834e+18,91.14568359375,-0.8804095238447189,3.139745553334554,-2.200794776280721,1.6887024031350067e+18,91.15000659179688,-1.0989465701083343,3.102482795715332,-2.004299759864807,,,,,,,,,,,,1.6887024031391188e+18,91.15411889648438,19.45411949157715,45.04483871459961,8.349679851531983,1.6887024031391188e+18,91.15411889648438,-235.08667602539063,140.5098388671875,-124.86211853027343,1.6887024031393334e+18,91.15433357747396,0.4962143103281657,-0.7716591358184814,-0.349015474319458,0.1889690309762954,3.013167460759481,1.114975531895955,0.9311102430025736
1.2,1.6887024031912333e+18,91.2062333170573,-0.595446507136027,-1.3197994232177734,-6.37937315305074,1.6887024031912333e+18,91.2062333170573,-5.788437287012736,-9.57787068684896,-5.4935219287872314,1.6887024031912333e+18,91.2062333170573,-5.198836803436279,-8.240566571553549,0.8231637477874756,1.6887024031825828e+18,91.19758268229168,-3.598352591196696,-1.2584842443466189,-2.920394023259481,1.6887024031869164e+18,91.20191650390626,-3.891364256540934,-2.1675534745057425,-3.375539461771647,,,,,,,,,,,,1.6887024031891164e+18,91.20411625976564,24.329239273071288,43.59547958374024,1.725080007314682,1.6887024031891164e+18,91.20411625976564,-230.21155395507813,139.06047973632812,-131.4867156982422,1.6887024031912333e+18,91.2062333170573,0.4264401296774546,-0.817864457766215,-0.316031664609909,0.214098165432612,-3.000955820083618,0.9892269571622212,0.6637992262840271
1.25,1.688702403234491e+18,91.24949072265623,46.250131607055664,-19.013184547424316,-0.4362318515777588,1.688702403234491e+18,91.24949072265623,38.66921043395996,-25.147369384765625,-1.176969587802887,1.688702403234491e+18,91.24949072265623,-7.58676815032959,-6.1166815757751465,-0.8034251146018504,1.68870240323449e+18,91.24949007161456,-4.567999362945557,-10.85787550608317,-5.741726179917653,1.6887024032388168e+18,91.25381665039062,-4.232278108596802,-9.594503986338776,-4.9689306418101,,,,,,,,,,,,1.688702403239118e+18,91.25411796875,38.05911865234375,33.53779945373535,6.158559715747833,1.688702403239118e+18,91.25411796875,-216.48167724609377,129.00279693603517,-127.05323791503906,1.688702403234491e+18,91.24949072265623,0.0113352388143539,0.0099302530288696,-0.036052081733942,0.0539067145437002,3.0245635509490967,0.6612296104431152,0.3562069982290268
1.3,1.6887024032777444e+18,91.29274454752604,13.121648947397867,-2.4639771779378257,-2.129781802495321,1.6887024032777444e+18,91.29274454752604,5.822734038035075,-8.966903686523438,-2.407777786254883,1.6887024032777444e+18,91.29274454752604,-7.304762204488118,-6.485421816507976,-0.3406834006309509,1.688702403286392e+18,91.30139208984372,-0.970308557152748,4.761847178141276,3.5984036127726235,1.6887024032907223e+18,91.30572216796875,-0.8067493637402853,4.556087573369344,3.7715328534444175,,,,,,,,,,,,1.6887024032891195e+18,91.30411977539062,37.57843933105469,35.00911865234375,4.662839865684509,1.6887024032891195e+18,91.30411977539062,-216.962353515625,130.47411651611327,-128.54895782470703,1.6887024032777444e+18,91.29274454752604,0.1315544048945109,-0.3033517996470133,-0.0425346717238426,0.0414669550955295,0.988151709238688,0.7091403007507324,0.2429681668678919
1.35,1.6887024033296486e+18,91.3446485188802,0.6785877545674642,6.892924785614014,-2.664801597595215,1.6887024033296486e+18,91.3446485188802,-5.180261611938477,-0.9391828576723734,-1.8847466309865315,1.6887024033296486e+18,91.3446485188802,-5.864695390065511,-7.814603169759114,0.7173675100008646,1.6887024033382953e+18,91.35329532877604,-0.0361937669416269,-0.1700750539700191,3.772296587626139,1.688702403342625e+18,91.35762516276044,-0.0768163036555052,-0.5027421116828918,3.719456672668457,,,,,,,,,,,,1.6887024033391176e+18,91.35411752929689,28.828599548339845,41.57027893066406,-0.0561199977993965,1.6887024033391176e+18,91.35411752929689,-225.71219482421876,137.0352783203125,-133.267919921875,1.6887024033296486e+18,91.3446485188802,0.4309725662072499,-0.8877777457237244,-0.1267798095941543,0.0965776617328325,-3.0395259857177734,0.911243458588918,0.2334645936886469
1.4,1.688702403381553e+18,91.3965529785156,-1.2067119280497234,8.187294006347656,-4.709888696670532,1.688702403381553e+18,91.3965529785156,-5.644070466359456,-0.5541378259658813,-4.2231325308481855,1.688702403381553e+18,91.3965529785156,-4.443204561869304,-8.72392717997233,0.4240687787532806,1.6887024033901996e+18,91.40519946289062,-1.353524684906006,-4.351447741190593,3.501683155695597,1.6887024033858744e+18,91.40087438964844,-1.356273591518402,-4.165261030197144,3.5165220499038696,,,,,,,,,,,,1.6887024033891215e+18,91.404121484375,20.20807991027832,46.1916389465332,0.7246800035238266,1.6887024033891215e+18,91.404121484375,-234.33271484375,141.65663452148436,-132.48711853027345,1.688702403381553e+18,91.3965529785156,0.5137135783831278,-0.8489821553230286,-0.0921306212743123,0.0739023586114247,-3.073460419972738,1.0912100871404011,0.174690028031667
1.45,1.6887024034334482e+18,91.44844791666668,7.731654723485311,-12.130227406819662,-6.228663603464763,1.6887024034334482e+18,91.44844791666668,4.802793900171915,-21.494526545206707,-6.307480653127034,1.6887024034334482e+18,91.44844791666668,-2.934707005818685,-9.346794128417969,-0.1415043820937474,1.6887024034420997e+18,91.45709936523438,2.0609575112660727,0.4171192447344462,2.8718302249908447,1.6887024034291323e+18,91.44413224283852,0.3045163005590439,-2.998330235481262,3.1329751014709473,,,,,,,,,,,,1.6887024034391178e+18,91.45411806640624,10.911680030822756,48.50475921630859,2.666919946670532,1.6887024034391178e+18,91.45411806640624,-243.62911682128907,143.96975402832032,-130.5448745727539,1.6887024034334482e+18,91.44844791666668,-0.2111776669820149,0.258521556854248,0.0043127819274862,0.0140128547015289,0.9500126043955484,1.2597211599349976,0.1310841565330822
1.5,1.6887024034853622e+18,91.50036230468748,10.95942004521688,-27.05220413208008,3.725688099861145,1.6887024034853622e+18,91.50036230468748,8.160920778910318,-36.39483197530111,2.7274190286795297,1.6887024034853622e+18,91.50036230468748,-2.8043452898661294,-9.325122515360514,-1.0609564582506816,1.6887024034853576e+18,91.50035766601562,6.362314224243164,20.979097366333008,-0.5595525912940502,1.6887024034810314e+18,91.49603141276042,5.854278087615967,17.841999053955078,0.1948660016059875,1.6887024034637197e+18,91.4787197265625,0.0,0.0,1.1300852298736572,7.560999870300293,2.9612526893615723,330.1181335449219,43.434985659270794,-122.7525456,49.1886424,1.6887024034891146e+18,91.50411474609376,12.629439640045169,47.36283874511719,10.0552396774292,1.6887024034891146e+18,91.50411474609376,-241.91135864257816,142.82783203125,-123.15655822753908,1.6887024034853622e+18,91.50036230468748,0.56891268491745,-0.7451986869176229,-0.278861920038859,0.1328787207603454,2.763486305872599,1.2446864048639934,0.9866091012954712
1.55,1.6887024035372657e+18,91.552265625,1.4771877924601238,-1.1510464350382488,-0.7978387475013733,1.6887024035372657e+18,91.552265625,-2.8275187412897744,-9.969895044962565,-0.6021936933199564,1.6887024035372657e+18,91.552265625,-4.310552597045898,-8.80134391784668,0.1329576969146728,1.688702403528615e+18,91.54361458333334,1.330820858478546,9.371283690134684,-2.432414432366689,1.688702403532941e+18,91.54794091796876,1.0353147375086944,7.164227485656738,-2.317368189493815,,,,,,,,,,,,1.6887024035391183e+18,91.55411831054688,24.13159904479981,44.273799133300784,4.738479900360107,1.6887024035391183e+18,91.55411831054688,-230.40919494628903,139.73879699707032,-128.47331848144532,1.6887024035372657e+18,91.552265625,0.3955162564913431,-0.6551809509595236,-0.5442959666252136,0.3423388103644053,-1.0061705112457275,1.101073424021403,1.360875924428304
1.6,1.6887024035891702e+18,91.60417016601563,4.46655289332072,5.181319236755371,3.3579227129618325,1.6887024035891702e+18,91.60417016601563,0.2025923194984594,-3.595814267794291,2.36709976196289,1.6887024035891702e+18,91.60417016601563,-4.269806782404582,-8.759628931681315,-1.053510348002116,1.688702403580519e+18,91.59551863606772,-0.803542306025823,-8.044484456380209,0.4676682371646166,1.688702403584847e+18,91.59984700520832,-0.8975646793842316,-8.08622662226359,0.5607233742872874,,,,,,,,,,,,1.6887024035891187e+18,91.60411889648438,22.630999755859374,43.834599304199216,11.006839752197266,1.6887024035891187e+18,91.60411889648438,-231.90979614257813,139.29960021972656,-122.2049575805664,1.6887024035891702e+18,91.60417016601563,0.4662659863630931,-0.7047712802886963,-0.4755172530810038,0.2378682494163512,2.90433398882548,1.0897902250289917,1.3317759434382122
1.65,1.6887024036410668e+18,91.65606689453124,3.3743306001027427,9.75502904256185,3.7303563753763833,1.6887024036410668e+18,91.65606689453124,-0.0837487901250521,0.7216354255991367,2.0879371960957847,1.6887024036410668e+18,91.65606689453124,-3.4639254411061606,-9.015889167785645,-1.705106496810913,1.688702403632419e+18,91.64741927083332,-1.6728544632593791,-6.664743423461914,0.4955644309520721,1.688702403636746e+18,91.65174584960936,-1.7206546862920125,-6.534120082855225,0.4487823446591695,,,,,,,,,,,,1.6887024036391183e+18,91.6541181640625,16.792079734802247,45.34007949829102,14.081239700317385,1.6887024036391183e+18,91.6541181640625,-237.74871520996095,140.805078125,-119.13055725097657,1.6887024036410668e+18,91.65606689453124,0.5463074843088785,-0.7453489700953165,-0.3537820279598236,0.1375754723946253,2.6786955197652182,1.1521187623341878,1.1900644699732463
1.7,1.688702403684328e+18,91.6993278808594,1.1937730312347412,10.826428413391112,3.603532910346985,1.688702403684328e+18,91.6993278808594,-1.8296120166778564,1.6423736214637756,1.9253249168395996,1.688702403684328e+18,91.6993278808594,-3.029231071472168,-9.166550636291504,-1.740895390510559,1.6887024036843246e+18,91.69932495117187,-1.943773190180461,-6.012033939361572,-0.1544980059067408,1.6887024036886508e+18,91.70365087890626,-1.932115872701009,-5.978639920552571,-0.1900809034705162,,,,,,,,,,,,1.688702403689119e+18,91.70411884765625,12.380559921264648,46.73331909179687,13.947039794921874,1.688702403689119e+18,91.70411884765625,-242.1602355957031,142.1983154296875,-119.26475830078124,1.688702403684328e+18,91.6993278808594,0.5814545750617981,-0.7699194550514221,-0.2526196315884589,0.068128453567624,2.600182890892029,1.195570170879364,1.0075169205665588
1.75,1.6887024037275814e+18,91.74258170572917,5.448626756668091,8.580155372619629,2.425905187924703,1.6887024037275814e+18,91.74258170572917,2.7409782285491624,-0.7134599685668945,0.8123632818460464,1.6887024037275814e+18,91.74258170572917,-2.7134944597880044,-9.276110967000326,-1.6762293179829917,1.6887024037362332e+18,91.75123315429688,-0.8037968476613363,-1.9903516968091328,0.4171191453933716,1.688702403740554e+18,91.75555403645832,-0.6345871984958649,-1.4736615220705669,0.4905756910641988,,,,,,,,,,,,1.6887024037391145e+18,91.75411455078124,9.76487979888916,47.73371963500976,12.927119827270507,1.6887024037391145e+18,91.75411455078124,-244.77591552734376,143.19871520996094,-120.28467712402345,1.6887024037275814e+18,91.74258170572917,0.6001768906911215,-0.7819874882698059,-0.166528895497322,0.0101067463789755,2.5585127671559653,1.2299336989720662,0.8373337586720785
1.8,1.6887024037794857e+18,91.79448583984374,1.506700436274211,5.951879501342773,2.738674600919088,1.6887024037794857e+18,91.79448583984374,-0.8610173662503561,-3.448456207911174,1.2003993391990662,1.6887024037794857e+18,91.79448583984374,-2.373563845952352,-9.382831255594889,-1.6009625991185503,1.6887024037881362e+18,91.80313606770834,0.7640397151311239,2.983211398124695,0.6265441278616587,1.6887024037924618e+18,91.80746175130209,0.8145888249079386,3.2196670373280845,0.4855869660774867,,,,,,,,,,,,1.688702403789117e+18,91.80411674804688,8.269159889221191,47.86303939819336,12.939319610595703,1.688702403789117e+18,91.80411674804688,-246.27163696289065,143.32803955078126,-120.27247924804688,1.6887024037794857e+18,91.79448583984374,0.61290309826533,-0.7681788603464762,-0.1811789323886235,0.0298158091803391,2.5202736854553223,1.2628060976664226,0.9245145122210184
1.85,1.6887024038313874e+18,91.84638728841144,-9.98315175374349,-26.25992234547933,7.417254288991292,1.6887024038313874e+18,91.84638728841144,-13.013166427612305,-35.468411445617676,5.967101335525513,1.6887024038313874e+18,91.84638728841144,-3.035860776901245,-9.190984408060707,-1.5128403504689534,1.688702403840038e+18,91.85503841145834,1.0612765351931257,4.845179398854573,-2.739628791809082,1.6887024038357169e+18,91.85071691894532,1.2744175791740415,4.774980783462524,-2.8615219593048096,,,,,,,,,,,,1.6887024038391137e+18,91.85411381835937,12.65139980316162,46.61131820678711,12.666039657592773,1.6887024038391137e+18,91.85411381835937,-241.88939514160157,142.0763153076172,-120.54575805664062,1.6887024038313874e+18,91.84638728841144,0.5769510666529337,-0.7650895118713379,-0.2676712274551391,0.091897132496039,2.6468737920125327,1.204184929529826,1.0185567537943525
1.9,1.6887024038832945e+18,91.89829435221354,-3.840012709299723,-10.765716870625814,0.577051560084025,1.6887024038832945e+18,91.89829435221354,-8.448259194691977,-19.401803652445476,0.0209371869762738,1.6887024038832945e+18,91.89829435221354,-4.614092508951823,-8.618582725524902,-0.6188018172979355,1.6887024038919452e+18,91.9069452311198,-1.3635530471801758,3.5465309619903564,-2.140319069226583,1.6887024038789686e+18,91.89396858723956,-0.7576765219370524,4.401029666264852,-2.452878475189209,,,,,,,,,,,,1.6887024038891205e+18,91.90412050781252,21.64035987854004,43.97855987548828,9.3647198677063,1.6887024038891205e+18,91.90412050781252,-232.9004333496094,139.4435577392578,-123.84707794189453,1.6887024038832945e+18,91.89829435221354,0.4824744959672292,-0.7875918944676717,-0.3448414305845896,0.1638789027929305,2.983478387196859,1.0623085101445515,0.920253316561381
1.95,1.6887024039351985e+18,91.95019840494793,3.584550698598226,-1.247295379638672,-5.8740607897440595,1.6887024039351985e+18,91.95019840494793,-2.211167494455973,-9.116055965423584,-5.293522040049235,1.6887024039351985e+18,91.95019840494793,-5.8015642166137695,-7.851255893707275,0.5178513129552206,1.688702403935193e+18,91.95019311523436,-3.3679291009902954,-2.121535003185272,-4.032550573348999,1.688702403930874e+18,91.94587377929686,-3.191872795422872,-1.6365589449803035,-4.061999360720317,,,,,,,,,,,,1.6887024039391168e+18,91.95411684570313,27.947759246826173,41.343359375,3.08659987449646,1.6887024039391168e+18,91.95411684570313,-226.59303588867184,136.80835876464843,-130.1251953125,1.6887024039351985e+18,91.95019840494793,0.4041123290856679,-0.831362764040629,-0.3280211885770162,0.1869507481654484,-3.0709012349446616,0.9220025936762491,0.7181409398714701
2.0,1.688702403987103e+18,92.00210286458332,48.60984675089518,-11.88642676671346,-0.4337493975957234,1.688702403987103e+18,92.00210286458332,40.89214324951172,-17.74258041381836,-1.876770496368408,1.688702403987103e+18,92.00210286458332,-7.723550478617351,-5.838649272918701,-1.5057085355122883,1.688702403978448e+18,91.99344775390624,-3.6864190101623535,-9.219585513075192,-5.040809154510498,1.688702403982778e+18,91.99777799479166,-3.3520721594492593,-8.197098970413208,-3.7211364110310874,1.6887024039827784e+18,91.9977783203125,0.0,0.0,1.1300852298736572,7.599999904632568,2.9164791107177734,326.8165283203125,43.434985659270794,-122.7525635,49.1886566,1.688702403989116e+18,92.00411591796876,39.75979995727539,31.497959518432616,10.565199756622317,1.688702403989116e+18,92.00411591796876,-214.78099365234377,126.96295928955078,-122.64659881591795,1.688702403987103e+18,92.00210286458332,-0.1085607806841532,0.3136371970176697,0.0333834240833917,0.0365138401587803,2.9348137378692627,0.6257901589075724,0.4426923592885335
2.05,1.6887024040390065e+18,92.05400659179686,-1.5594148635864258,1.7628148396809895,-2.595582127571106,1.6887024040390065e+18,92.05400659179686,-8.270592212677002,-5.369494120279948,-2.8338996171951294,1.6887024040390065e+18,92.05400659179686,-6.7170233726501465,-7.1148044268290205,-0.3010049288471539,1.6887024040303562e+18,92.04535620117188,-0.8152505482236544,3.5840482314427695,4.264552116394043,1.6887024040346808e+18,92.04968082682292,-0.644513717542092,3.089959979057312,4.35068400700887,,,,,,,,,,,,1.6887024040391183e+18,92.054118359375,34.6626392364502,36.58047866821289,6.456239891052246,1.6887024040391183e+18,92.054118359375,-219.87815551757816,132.04547729492188,-126.75555877685548,1.6887024040390065e+18,92.05400659179686,0.3873525559902191,-0.904230296611786,-0.1693094223737715,0.0491115736464659,3.0810344219207764,0.8010438084602356,0.3951853513717651
2.1,1.6887024040909115e+18,92.1059112141927,0.2554038365681966,8.747380097707113,-2.325458804766337,1.6887024040909115e+18,92.1059112141927,-4.815156777699788,0.3641078422466914,-2.6923243602116904,1.6887024040909115e+18,92.1059112141927,-5.076406637827556,-8.36576779683431,-0.4295529872179031,1.6887024040822597e+18,92.0972596028646,-0.1281289843221505,-1.7580193082491558,4.020816961924235,1.6887024040865836e+18,92.10158365885415,-0.2003128975629806,-2.0703750054041543,3.9586613972981777,,,,,,,,,,,,1.688702404089119e+18,92.10411889648438,24.58543930053711,43.77359848022461,5.85600004196167,1.688702404089119e+18,92.10411889648438,-229.95535278320312,139.23859558105468,-127.35579681396484,1.6887024040909115e+18,92.1059112141927,0.4837142030398051,-0.8575328389803568,-0.1619657029708226,0.05820286894838,3.031458775202433,1.0146631002426147,0.435796986023585
2.15,1.6887024041341655e+18,92.14916528320312,0.7678827047348022,3.679147481918335,-5.037884712219238,1.6887024041341655e+18,92.14916528320312,-2.8764718770980835,-5.4023953676223755,-5.778965950012207,1.6887024041341655e+18,92.14916528320312,-3.650200605392456,-9.064038276672363,-0.8037686944007874,1.6887024041341583e+18,92.1491583658854,-1.292030890782674,-4.216039180755615,3.4970507621765137,1.6887024041384906e+18,92.15349072265624,-1.252324640750885,-4.0532435576121015,3.487735112508138,,,,,,,,,,,,1.6887024041391188e+18,92.15411879882814,14.203239822387696,47.75323867797851,7.124799919128418,1.6887024041391188e+18,92.15411879882814,-240.33755493164065,143.2182373046875,-126.08699798583984,1.6887024041341655e+18,92.14916528320312,0.5588065981864929,-0.8223658204078674,-0.1032466068863868,0.0124769426183774,2.8929226398468018,1.173917293548584,0.4159804433584213
2.2,1.688702404177414e+18,92.19241365559895,18.34579785664876,-26.06588840484619,-3.957494695981344,1.688702404177414e+18,92.19241365559895,16.0707950592041,-35.555947621663414,-4.9667022079229355,1.688702404177414e+18,92.19241365559895,-2.28084925810496,-9.472554524739584,-1.0718949437141418,1.688702404186069e+18,92.20106917317707,3.5145622293154397,9.798482259114584,2.467132051785787,1.6887024041903951e+18,92.20539526367186,4.032983303070068,11.872267484664915,2.103208969036738,,,,,,,,,,,,1.6887024041891223e+18,92.20412241210938,6.939359855651856,48.60967864990234,9.562359809875488,1.6887024041891223e+18,92.20412241210938,-247.6014373779297,144.07467651367188,-123.6494369506836,1.688702404177414e+18,92.19241365559895,0.216863214969635,-0.2444674372673034,-0.0704005658626556,0.0241222086672981,2.6613808472951255,1.299638311068217,0.6686144769191742
2.25,1.6887024042293197e+18,92.24431974283851,0.4180006980895996,-14.010842323303224,1.8633493185043335,1.6887024042293197e+18,92.24431974283851,-2.7798616886138916,-23.224337895711265,1.041476051012675,1.6887024042293197e+18,92.24431974283851,-3.2037083307902017,-9.195990880330404,-0.8845606297254562,1.6887024042379756e+18,92.2529755045573,2.612568815549215,17.174221833546955,-1.9064595301946003,1.6887024042422938e+18,92.25729386393228,2.172745863596598,15.071521838506063,-2.0390173196792603,,,,,,,,,,,,1.6887024042391188e+18,92.2541189453125,18.465919303894044,45.53039779663086,9.803919696807863,1.6887024042391188e+18,92.2541189453125,-236.0748748779297,140.99539489746093,-123.40787811279296,1.6887024042293197e+18,92.24431974283851,0.4953056176503499,-0.6669653256734213,-0.4631944199403127,0.2706451912720998,2.856381098429362,1.203096628189087,1.4124430418014526
2.3,1.688702404281224e+18,92.29622395833331,0.0246926148732503,2.2426069577534995,-0.1886490583419799,1.688702404281224e+18,92.29622395833331,-4.209373831748962,-6.573482672373454,-0.8729814489682516,1.688702404281224e+18,92.29622395833331,-4.239912509918213,-8.798584938049316,-0.7470198820034663,1.688702404289874e+18,92.30487394205728,0.1650354365507761,-8.048862298329672,-0.6834054837624232,1.6887024042855493e+18,92.30054931640626,0.3812562599778175,-8.002028942108154,-0.761978030204773,,,,,,,,,,,,1.6887024042891187e+18,92.30411860351562,23.394719314575195,43.34659881591797,10.7433198928833,1.6887024042891187e+18,92.30411860351562,-231.14607849121097,138.81159362792968,-122.46847839355468,1.688702404281224e+18,92.29622395833331,0.418206254641215,-0.6325323184331259,-0.5670171976089478,0.3166985213756561,2.9795048236846924,1.0993776718775432,1.5604838132858276
2.35,1.688702404333128e+18,92.34812817382812,3.262776533762614,7.680036862691243,5.262317021687825,1.688702404333128e+18,92.34812817382812,-0.3226322581370671,-1.1734800934791565,3.057030359903971,1.688702404333128e+18,92.34812817382812,-3.591254790623983,-8.836012522379557,-2.2679739793141684,1.6887024043417825e+18,92.35678206380209,-1.652441382408142,-8.530071576436361,-0.1819869354367255,1.688702404328807e+18,92.34380688476564,-1.2809844017028809,-9.11354955037435,-0.110515701274077,,,,,,,,,,,,1.6887024043391163e+18,92.35411640625,17.56067943572998,43.96635818481445,17.570439720153807,1.6887024043391163e+18,92.35411640625,-236.98011169433593,139.43135681152344,-115.6413589477539,1.688702404333128e+18,92.34812817382812,0.5299579302469889,-0.6964389284451803,-0.4488067825635274,0.1706963429848353,2.5775578816731772,1.1081935167312622,1.499718149503072
2.4,1.6887024043850363e+18,92.40003629557292,2.044622818628947,10.382781346638998,4.906983216603597,1.6887024043850363e+18,92.40003629557292,-0.7337989434599876,1.300100326538086,2.465803782145182,1.6887024043850363e+18,92.40003629557292,-2.7842678229014077,-9.065176645914711,-2.503866751988729,1.688702404385032e+18,92.40003198242186,-2.2472968101501465,-6.758307695388794,-0.3937026560306549,1.6887024043807112e+18,92.39571126302084,-2.209703286488851,-6.920848687489827,-0.3719151218732198,,,,,,,,,,,,1.6887024043891144e+18,92.40411450195312,10.828719902038577,45.742678833007815,18.17799949645996,1.6887024043891144e+18,92.40411450195312,-243.71207580566409,141.20767822265626,-115.03379974365234,1.6887024043850363e+18,92.40003629557292,0.5927538275718689,-0.7418891390164694,-0.3035692274570465,0.0622810957332451,2.392981211344401,1.166800856590271,1.2838861147562664
2.45,1.688702404436937e+18,92.45193693033856,2.272706667582194,10.083277066548666,3.5393621921539307,1.688702404436937e+18,92.45193693033856,0.2289133866628012,0.7018946409225464,1.5449658234914143,1.688702404436937e+18,92.45193693033856,-2.0496393044789634,-9.363877932230633,-2.05708380540212,1.688702404428289e+18,92.44328914388022,-2.275982062021891,-4.7481536865234375,0.5454008430242538,1.688702404432615e+18,92.44761458333332,-2.263510306676229,-4.426431337992351,0.7028004545718431,,,,,,,,,,,,1.6887024044391183e+18,92.45411840820312,6.051199913024902,47.63367919921875,15.25243968963623,1.6887024044391183e+18,92.45411840820312,-248.4895965576172,143.0986785888672,-117.95935821533205,1.688702404436937e+18,92.45193693033856,-0.218360165754954,0.2504469156265259,0.0366528232892354,0.006216319821154,2.316986640294393,1.2603106498718262,1.08312992254893
2.5,1.6887024044888425e+18,92.50384244791668,1.4230492611726124,5.730185031890869,2.7871071100234985,1.6887024044888425e+18,92.50384244791668,0.2907279431819916,-3.9353955586751304,1.5094723304112752,1.6887024044888425e+18,92.50384244791668,-1.138167401154836,-9.648076057434084,-1.3403220971425374,1.6887024044801897e+18,92.49518994140624,-1.240820030371348,0.4000148773193359,1.665676832199097,1.688702404484521e+18,92.49952099609376,-1.0724757711092632,0.8343910376230875,1.6474017699559529,1.6887024045018217e+18,92.51682177734376,0.0,0.0,1.1457709074020386,7.59600019454956,2.89585280418396,325.0105285644531,43.29446487918638,-122.7525758,49.1886659,1.688702404489117e+18,92.50411689453124,0.9393999725580215,49.14891815185547,11.61683979034424,1.688702404489117e+18,92.50411689453124,-253.6013946533203,144.613916015625,-121.59495697021484,1.6887024044888425e+18,92.50384244791668,0.6637638608614603,-0.7346973220507304,-0.137242113550504,0.0210254724758366,2.2256950537363687,1.3776989380518596,1.141255259513855
2.55,1.6887024045407478e+18,92.55574772135417,-2.7237040996551514,-15.632771492004396,8.986302216847738,1.6887024045407478e+18,92.55574772135417,-4.252444585164388,-25.23690128326416,7.798009395599365,1.6887024045407478e+18,92.55574772135417,-1.5345864295959473,-9.586625417073568,-1.2509804169336955,1.6887024045320937e+18,92.54709350585938,0.9499972760677338,5.234097003936768,-1.4659239053726196,1.6887024045364204e+18,92.55142032877605,1.0613274971644084,5.685017426808675,-2.125861982504526,,,,,,,,,,,,1.688702404539123e+18,92.55412290039062,0.8417999565601348,48.91223907470703,11.22643985748291,1.688702404539123e+18,92.55412290039062,-253.6989898681641,144.3772399902344,-121.98535766601564,1.6887024045407478e+18,92.55574772135417,0.6400334040323893,-0.7286229928334554,-0.218827207883199,0.0927166044712066,2.3740593592325845,1.3500996430714924,1.2154422203699748
2.6,1.688702404592653e+18,92.60765307617186,-9.57519785563151,-19.384483973185223,4.149890661239624,1.688702404592653e+18,92.60765307617186,-14.12642733256022,-28.043283462524418,3.989433507124583,1.688702404592653e+18,92.60765307617186,-4.55707589785258,-8.641295115152994,-0.2231448143720626,1.688702404584003e+18,92.59900325520832,-0.0905098567406336,7.880161762237549,-5.935777584711711,1.6887024045883249e+18,92.60332495117189,-0.3205515444278717,7.537720521291097,-5.584886312484741,,,,,,,,,,,,1.688702404589116e+18,92.60411606445312,17.524079513549804,45.43035888671875,9.694119930267334,1.688702404589116e+18,92.60411606445312,-237.01671752929687,140.89535827636718,-123.5176788330078,1.688702404592653e+18,92.60765307617186,0.4726324677467346,-0.7791041930516561,-0.35885684688886,0.1933453728755314,0.9568712711334229,1.071037729581197,0.921999454498291
2.65,1.6887024046359063e+18,92.65090625,-1.6672415733337402,-4.305802345275879,-3.9838370084762578,1.6887024046359063e+18,92.65090625,-7.077969551086426,-12.44716453552246,-2.981756091117859,1.6887024046359063e+18,92.65090625,-5.416574001312256,-8.123857498168945,0.9393933713436128,1.6887024046359063e+18,92.65090625,-1.9334903160731,0.4247040152549743,-1.0322604378064473,1.6887024046402327e+18,92.65523266601564,-2.2243131001790366,-0.5670357197523117,-1.2705488006273906,,,,,,,,,,,,1.6887024046391158e+18,92.6541158203125,27.15475921630859,42.25103912353516,1.9105199575424192,1.6887024046391158e+18,92.6541158203125,-227.38603820800785,137.7160400390625,-131.30127868652343,1.6887024046359063e+18,92.65090625,0.4002489447593688,-0.798567146062851,-0.3783655017614364,0.2426149249076843,-2.9923949241638184,0.9663532376289368,0.8066742718219757
2.7,1.688702404679161e+18,92.69416105143227,34.32752354939779,-5.353671550750732,-9.318981329600016,1.688702404679161e+18,92.69416105143227,27.31347171465556,-12.07777221004168,-8.999206701914469,1.688702404679161e+18,92.69416105143227,-7.0198977788289385,-6.7065965334574384,0.2570869326591492,1.6887024046878106e+18,92.70281079101562,-4.477285861968994,-9.410786390304564,-5.511735250552495,1.6887024046921329e+18,92.7071328938802,-4.243324438730876,-8.26862096786499,-4.90988024075826,,,,,,,,,,,,1.6887024046891187e+18,92.70411879882812,36.20471954345703,35.26775894165039,4.887319833040237,1.6887024046891187e+18,92.70411879882812,-218.33607788085936,130.73275756835938,-128.32447967529296,1.688702404679161e+18,92.69416105143227,0.3420337339242299,-0.8833536307017008,-0.276595244805018,0.1200495722393194,-1.016610066095988,0.749612828095754,0.59068896373113
2.75,1.688702404731061e+18,92.74606079101564,12.08737500508626,-2.967909653981527,-4.951373656590779,1.688702404731061e+18,92.74606079101564,4.811766942342122,-9.52263641357422,-4.857430060704549,1.688702404731061e+18,92.74606079101564,-7.281454563140869,-6.537222067515056,0.0312562783559163,1.688702404739715e+18,92.75471516927082,-0.8395324920614559,3.1366912126541138,3.542051156361898,1.6887024047353943e+18,92.75039428710936,-0.999146431684494,3.785073757171631,3.563864231109619,,,,,,,,,,,,1.6887024047391163e+18,92.75411665039064,36.22179946899414,36.1973991394043,3.3379199504852295,1.6887024047391163e+18,92.75411665039064,-218.318994140625,131.66239318847656,-129.873876953125,1.688702404731061e+18,92.74606079101564,0.3451159993807475,-0.914608120918274,-0.1955759227275848,0.0684982798993587,-1.0582232475280762,0.719201902548472,0.4237206478913625
2.8,1.688702404782968e+18,92.79796809895834,1.857194662094116,6.585561911265056,-2.4918525218963623,1.688702404782968e+18,92.79796809895834,-4.09092911084493,-1.1972089211146038,-1.885943055152893,1.688702404782968e+18,92.79796809895834,-5.953969796498616,-7.765266259511312,0.5432220002015432,1.6887024047916147e+18,92.80661499023438,0.3199915786584218,-0.656069278717041,3.211675008138021,1.6887024047786445e+18,92.79364453125,0.2569706508608457,0.0422005852063496,3.439324061075846,,,,,,,,,,,,1.6887024047891123e+18,92.8041125,28.721239471435545,41.70935897827148,1.8714799880981443,1.6887024047891123e+18,92.8041125,-225.8195556640625,137.1743591308594,-131.34031372070314,1.688702404782968e+18,92.79796809895834,0.4204075336456299,-0.8754282196362814,-0.2035074084997176,0.1222538401683171,-3.072789271672567,0.904658536116282,0.4237784544626871
2.85,1.6887024048348716e+18,92.84987166341146,0.786329984664917,8.25255266825358,-4.456736485163371,1.6887024048348716e+18,92.84987166341146,-3.955734650293986,-0.3393819729487101,-4.297708988189697,1.6887024048348716e+18,92.84987166341146,-4.747910658518474,-8.574430465698242,0.0963401440531015,1.688702404834872e+18,92.8498720703125,-0.6481280326843262,-2.3927592039108276,2.9565114974975586,1.6887024048305408e+18,92.8455409342448,-0.498109703262647,-2.249104102452596,2.978018999099731,,,,,,,,,,,,1.6887024048391168e+18,92.85411669921874,21.03036003112793,45.48891906738281,3.733199977874756,1.6887024048391168e+18,92.85411669921874,-233.51043395996095,140.95391845703125,-129.47859802246094,1.6887024048348716e+18,92.84987166341146,0.4937013188997904,-0.8431563774744669,-0.1831402331590652,0.1051713327566782,1.0400257110595703,1.0587537288665771,0.4321898818016052
2.9,1.6887024048867725e+18,92.90177229817708,8.430002450942993,-13.999115626017252,-6.449382305145264,1.6887024048867725e+18,92.90177229817708,5.149354378382365,-23.231316884358723,-6.863612174987793,1.6887024048867725e+18,92.90177229817708,-3.286494175593058,-9.214696884155272,-0.4769171426693598,1.6887024048781268e+18,92.8931268717448,0.1432987650235494,-3.044552385807038,3.2168164253234863,1.6887024048824527e+18,92.89745288085938,0.5989533811807632,-2.402431209882101,3.22786291440328,,,,,,,,,,,,1.6887024048891172e+18,92.90411728515626,12.544039535522462,48.24611892700195,5.509519958496094,1.6887024048891172e+18,92.90411728515626,-241.9967529296875,143.71112060546875,-127.70227966308592,1.6887024048867725e+18,92.90177229817708,0.5717801849047343,-0.8072039484977722,-0.1321816543738046,0.0556284586588541,2.9512855211893716,1.216839035352071,0.4610865215460459
2.95,1.6887024049386783e+18,92.95367822265624,8.262119134267172,-28.145557403564453,4.1965164343516035,1.6887024049386783e+18,92.95367822265624,5.290929476420085,-37.42713610331217,3.065006415049235,1.6887024049386783e+18,92.95367822265624,-2.977035919825236,-9.264074325561523,-1.1941973964373271,1.6887024049300278e+18,92.94502783203124,5.965658982594808,17.277101516723633,1.617163896560669,1.688702404934354e+18,92.94935400390624,5.949623902638753,18.6177978515625,1.4181745251019795,,,,,,,,,,,,1.688702404939116e+18,92.95411591796876,12.836839866638185,46.813838958740234,12.068239784240722,1.688702404939116e+18,92.95411591796876,-241.703955078125,142.27883911132812,-121.14355926513672,1.6887024049386783e+18,92.95367822265624,0.5366199016571045,-0.6983876824378967,-0.3940863013267517,0.2106032023827234,2.7529985109965005,1.2222875754038491,1.2997120221455891
3.0,1.6887024049905836e+18,93.00558357747396,-0.5960681438446045,-0.5472679138183594,0.9607802132765452,1.6887024049905836e+18,93.00558357747396,-4.9535417556762695,-9.33041286468506,0.5607180694739023,1.6887024049905836e+18,93.00558357747396,-4.363319635391235,-8.765640258789062,-0.4627495904763539,1.688702404981928e+18,92.9969278157552,1.407128060857455,6.358190854390462,-2.467132051785787,1.6887024049862582e+18,93.0012580566406,1.0798570786913235,3.9647190173467,-2.5787166953086853,,,,,,,,,,,,1.6887024049891118e+18,93.00411171875,23.755839157104493,43.561319732666014,8.918199825286866,1.6887024049891118e+18,93.00411171875,-230.7849609375,139.0263214111328,-124.29359893798828,1.6887024049905836e+18,93.00558357747396,0.3809035221735636,-0.5950940450032552,-0.6117971936861674,0.3544818560282389,3.0465529759724936,1.0925647417704265,1.6557531356811523
3.05,1.6887024050424886e+18,93.05748852539062,3.3691697915395102,6.592606544494629,4.425176938374837,1.6887024050424886e+18,93.05748852539062,-0.668395126859347,-2.1906290985643864,2.785444974899292,1.6887024050424886e+18,93.05748852539062,-4.043410936991374,-8.76573117574056,-1.7024192412694297,1.6887024050338335e+18,93.0488337402344,-1.03058057030042,-8.41482162475586,0.3772601808110873,1.688702405038166e+18,93.05316609700522,-1.1624256372451782,-8.417977650960287,0.4382448891798655,1.688702405020863e+18,93.03586303710938,0.0,0.0,1.1662347316741943,7.60099983215332,2.8705461025238037,323.0615234375,43.29446487918638,-122.7525884,49.1886756,1.6887024050391212e+18,93.05412124023437,22.48215942382813,42.99524002075195,14.737599754333496,1.6887024050391212e+18,93.05412124023437,-232.05863342285156,138.46023864746093,-118.47419738769533,1.6887024050424886e+18,93.05748852539062,0.4747530817985534,-0.6555920640627543,-0.5295589963595072,0.2471401393413543,2.741642475128174,1.0917888085047405,1.6042670806248982
3.1,1.6887024050857375e+18,93.10073767089844,2.719037413597107,10.22380018234253,4.469820499420166,1.6887024050857375e+18,93.10073767089844,-0.5697908997535706,1.217049419879913,2.3976082801818848,1.6887024050857375e+18,93.10073767089844,-3.294674277305603,-8.989246368408203,-2.134899377822876,1.688702405085746e+18,93.10074576822916,-2.07495645682017,-7.055697123209636,0.0967203279336293,1.6887024050900705e+18,93.10507023111978,-2.1168007850646973,-6.951493740081787,0.0362446730335553,,,,,,,,,,,,1.6887024050891146e+18,93.1041146484375,15.254880142211912,44.74959945678711,17.626559829711915,1.6887024050891146e+18,93.1041146484375,-239.2859130859375,140.2145965576172,-115.58523712158204,1.6887024050857375e+18,93.10073767089844,0.5483465194702148,-0.7022891044616699,-0.4213896095752716,0.1662805676460265,2.5531961917877197,1.1462252736091614,1.4670191407203674
3.15,1.688702405128998e+18,93.1439982096354,1.3846608797709148,11.108700116475424,4.247624635696411,1.688702405128998e+18,93.1439982096354,-1.421934852997462,1.920638918876648,2.261017998059591,1.688702405128998e+18,93.1439982096354,-2.8124417463938394,-9.17055638631185,-2.049294034639994,1.6887024051376484e+18,93.1526483561198,-2.3669501145680747,-6.294864654541016,-0.2530000309149424,1.688702405141972e+18,93.15697200520832,-2.3624703884124756,-6.204914569854736,-0.2532545427481333,,,,,,,,,,,,1.6887024051391163e+18,93.15411635742188,9.845399856567385,46.57959899902344,16.143039894104003,1.6887024051391163e+18,93.15411635742188,-244.69539489746097,142.0445983886719,-117.06875610351562,1.688702405128998e+18,93.1439982096354,0.5892521540323893,-0.7397617300351461,-0.3073971172173818,0.093843991557757,2.4795943101247153,1.1989670594533284,1.2485744555791218
3.2,1.688702405180903e+18,93.19590283203124,3.9229076703389487,9.283944447835289,3.0962576071421304,1.688702405180903e+18,93.19590283203124,1.5274184544881184,-0.0991027603546778,1.5064812501271565,1.688702405180903e+18,93.19590283203124,-2.4013351599375405,-9.36554272969564,-1.652463714281718,1.688702405189553e+18,93.20455265299478,-1.7026850779851277,-3.0968830982844033,-0.1516472945610681,1.6887024051852242e+18,93.20022412109374,-1.8461875319480896,-3.6261725425720215,-0.248087640851736,,,,,,,,,,,,1.688702405189119e+18,93.2041189453125,6.607519912719726,48.22171859741211,13.385839653015136,1.688702405189119e+18,93.2041189453125,-247.9332702636719,143.68671569824218,-119.82595672607422,1.688702405180903e+18,93.19590283203124,0.6152522961298624,-0.7655339241027832,-0.1841012785832086,0.0280708403637011,2.4921388626098633,1.262873371442159,0.9544497529665628
3.25,1.6887024052328056e+18,93.24780550130208,1.3214033047358196,3.813919385274251,3.76486070950826,1.6887024052328056e+18,93.24780550130208,-0.9032905300458272,-5.675775448481242,2.589034100373586,1.6887024052328056e+18,93.24780550130208,-2.230539878209432,-9.472190221150717,-1.2385139067967732,1.6887024052414536e+18,93.25645336914064,0.4780529538790385,2.8729501565297446,0.4386521528164546,1.6887024052284818e+18,93.24348201497396,-0.195018728574117,1.4626659552256267,0.3663155337174733,,,,,,,,,,,,1.6887024052391196e+18,93.25411967773438,5.519279956817627,48.63407897949219,11.280119705200196,1.6887024052391196e+18,93.25411967773438,-249.02151489257812,144.0990783691406,-121.93167724609376,1.6887024052328056e+18,93.24780550130208,0.6206493377685547,-0.7659041086832682,-0.1620572507381439,0.0388320231189329,2.5819056828816733,1.300573984781901,0.8474418719609579
