seconds_elapsed_rounded,accelerometer_time,accelerometer_seconds_elapsed,accelerometer_z,accelerometer_y,accelerometer_x,accelerometeruncalibrated_time,accelerometeruncalibrated_seconds_elapsed,accelerometeruncalibrated_z,accelerometeruncalibrated_y,accelerometeruncalibrated_x,gravity_time,gravity_seconds_elapsed,gravity_z,gravity_y,gravity_x,gyroscope_time,gyroscope_seconds_elapsed,gyroscope_z,gyroscope_y,gyroscope_x,gyroscopeuncalibrated_time,gyroscopeuncalibrated_seconds_elapsed,gyroscopeuncalibrated_z,gyroscopeuncalibrated_y,gyroscopeuncalibrated_x,location_time,location_seconds_elapsed,location_bearingAccuracy,location_speedAccuracy,location_verticalAccuracy,location_horizontalAccuracy,location_speed,location_bearing,location_altitude,location_longitude,location_latitude,magnetometer_time,magnetometer_seconds_elapsed,magnetometer_z,magnetometer_y,magnetometer_x,magnetometeruncalibrated_time,magnetometeruncalibrated_seconds_elapsed,magnetometeruncalibrated_z,magnetometeruncalibrated_y,magnetometeruncalibrated_x,orientation_time,orientation_seconds_elapsed,orientation_qz,orientation_qy,orientation_qx,orientation_qw,orientation_roll,orientation_pitch,orientation_yaw
0.0,1.688702836246885e+18,15.001885009765624,49.03947957356771,-4.935940583546957,-3.505510330200195,1.688702836246885e+18,15.001885009765624,45.087158838907875,-11.851052125295004,2.06739894549052,1.688702836246885e+18,15.001885009765624,-3.958164691925049,-6.897607167561849,5.510221640268962,1.688702836246885e+18,15.001885009765624,-3.720678528149923,5.974873026212055,-7.834601322809855,1.688702836246885e+18,15.001885009765624,-3.721645474433899,5.979301691055298,-7.832310597101848,,,,,,,,,,,,1.6887028362467784e+18,15.001778173828123,29.667959213256836,35.99976005554199,-23.49231986999512,1.6887028362467784e+18,15.001778173828123,-227.75203552246097,130.62295684814453,-156.37471618652344,1.688702836246885e+18,15.001885009765624,-0.2298761705557505,-0.1839360247055689,-0.8049099246660868,0.5040018260478973,-2.1574320793151855,0.8260623017946879,2.230663299560547
0.05,1.688702836298784e+18,15.053784179687502,-15.841495672861734,-2.173243840535482,-8.476868947347006,1.688702836298784e+18,15.053784179687502,-17.25564130147298,-8.632705847422281,-1.1641082266966505,1.688702836298784e+18,15.053784179687502,-1.419992486635844,-6.441957314809163,7.250073273976644,1.688702836298784e+18,15.053784179687502,2.066200772921244,2.1498384873072305,1.0232502170838416,1.688702836298784e+18,15.053784179687502,2.065233568350474,2.1542673309644065,1.025540949155887,,,,,,,,,,,,1.6887028362967777e+18,15.0517775390625,17.82663974761963,29.92171974182129,-38.8228401184082,1.6887028362967777e+18,15.0517775390625,-239.59335632324215,124.54491729736328,-171.70523986816406,1.688702836298784e+18,15.053784179687502,-0.4287394781907399,-0.0791703065236409,-0.7427921891212463,0.5075539549191793,-1.7316059271494548,0.7567542990048727,2.2770606676737466
0.1,1.68870283635069e+18,15.10569002278646,0.7367223501205444,8.307245572408041,-7.542385578155518,1.68870283635069e+18,15.10569002278646,-0.7846464216709137,0.5934200088183085,-1.6147564848264058,1.68870283635069e+18,15.10569002278646,-1.527214805285136,-7.696321169535319,5.864941755930583,1.68870283635069e+18,15.10569002278646,2.9833131631215415,-3.557322899500529,3.2425745328267417,1.68870283635069e+18,15.10569002278646,2.9823967615763345,-3.552894115447998,3.244865338007609,,,,,,,,,,,,1.6887028363467804e+18,15.10178046875,17.016559600830078,37.32467956542969,-32.390999221801756,1.6887028363467804e+18,15.10178046875,-240.40343627929687,131.9478729248047,-165.27339782714844,1.68870283635069e+18,15.10569002278646,-0.3193917175134023,-0.0876904701193173,-0.7429420550664266,0.5802608927090963,-1.774916688601176,0.9399073322614034,2.1221400101979575
0.15,1.6887028364025915e+18,15.15759130859375,2.233362197875977,6.000390370686849,-8.549230893452963,1.6887028364025915e+18,15.15759130859375,1.244267761707306,-2.5385855038960776,-3.741975784301758,1.6887028364025915e+18,15.15759130859375,-0.994940439860026,-8.52147134145101,4.74456771214803,1.6887028364025915e+18,15.15759130859375,1.5969544649124146,-2.1070269346237183,2.873713731765747,1.6887028364025915e+18,15.15759130859375,1.5959872404734294,-2.1025981108347573,2.8760045369466147,,,,,,,,,,,,1.688702836396778e+18,15.1517779296875,15.29879970550537,42.682919311523435,-25.790798950195313,1.688702836396778e+18,15.1517779296875,-242.1211944580078,137.30611877441407,-158.6731964111328,1.6887028364025915e+18,15.15759130859375,-0.2216266244649887,-0.1136530737082163,-0.7189728816350301,0.648339847723643,-1.6962546507517495,1.0804423491160076,1.8539873361587524
0.2,1.6887028364458445e+18,15.200844482421877,7.526793718338013,-14.372934341430664,-8.501148223876953,1.6887028364458445e+18,15.200844482421877,7.44018292427063,-23.391037940979004,-4.553840637207031,1.6887028364458445e+18,15.200844482421877,-0.0924567729234695,-9.00059986114502,3.884619951248169,1.6887028364458445e+18,15.200844482421877,2.6998716592788696,5.307273507118225,0.6606507748365403,1.6887028364458445e+18,15.200844482421877,2.6988790035247803,5.311702311038971,0.6629415154457092,,,,,,,,,,,,1.6887028364467796e+18,15.201779638671876,9.576999855041503,45.88419876098633,-21.02547950744629,1.6887028364467796e+18,15.201779638671876,-247.8429962158203,140.5073974609375,-153.9078796386719,1.6887028364458445e+18,15.200844482421877,-0.2010695561766624,-0.0716340839862823,-0.6918789446353912,0.6889382600784302,-1.485625684261322,1.1823500990867617,1.672402024269104
0.25,1.6887028364890964e+18,15.244096598307292,-8.522276560465494,-32.36477788289388,0.7228402296702067,1.6887028364890964e+18,15.244096598307292,-7.981858412424724,-41.89692751566569,3.016551733016968,1.6887028364890964e+18,15.244096598307292,0.5345721542835236,-9.514643987019856,2.2310241063435874,1.6887028364890964e+18,15.244096598307292,3.4644713401794434,11.641716957092283,-3.9140681425730386,1.6887028364890964e+18,15.244096598307292,3.4634532928466797,11.646145820617676,-3.9117774168650303,1.688702836489099e+18,15.24409912109375,0.0,0.0,3.2392160892486572,15.3100004196167,2.6039295196533203,0.739183783531189,43.400001525878906,-122.7524368,49.1883554,1.688702836496775e+18,15.251774853515624,4.121159887313842,48.797560119628905,-15.001119422912598,1.688702836496775e+18,15.251774853515624,-253.29883422851563,143.42075805664064,-147.8835205078125,1.6887028364890964e+18,15.244096598307292,-0.3110504746437073,0.1645042970776557,-0.6534488995869955,0.6640972097714742,-1.190707524617513,1.3610599835713704,1.882833480834961
0.3,1.688702836540999e+18,15.2959990234375,10.01054628690084,-0.3699415524800618,6.725885232289632,1.688702836540999e+18,15.2959990234375,7.871987501780192,-9.863813479741417,8.023732503255209,1.688702836540999e+18,15.2959990234375,-2.144404490788778,-9.476367632548014,1.2351595163345337,1.688702836540999e+18,15.2959990234375,0.6794348557790121,1.9836320877075195,-5.125719502568245,1.688702836540999e+18,15.2959990234375,0.678467631340027,1.9880608717600503,-5.123428771893184,,,,,,,,,,,,1.688702836546778e+18,15.301778124999998,17.746119117736818,47.55803909301758,-12.248799705505371,1.688702836546778e+18,15.301778124999998,-239.6738739013672,142.18123474121094,-145.13119812011718,1.688702836540999e+18,15.2959990234375,-0.3285707235336303,0.3490606943766276,-0.6938339471817017,0.536014199256897,-2.736239830652873,1.3437313636144002,-2.5396090348561606
0.35,1.6887028365929e+18,15.347899983723956,1.65834641456604,9.0254856745402,2.408434748649597,1.6887028365929e+18,15.347899983723956,-0.1190429131189982,-0.5136592785517374,3.951347748438517,1.6887028365929e+18,15.347899983723956,-1.7832353512446086,-9.521640141805014,1.480225642522176,1.6887028365929e+18,15.347899983723956,-2.631047487258911,-8.538979848225912,4.000861883163452,1.6887028365929e+18,15.347899983723956,-2.6320147116978965,-8.534550984700521,4.00315276781718,,,,,,,,,,,,1.6887028365967793e+18,15.351779150390623,17.68511962890625,47.90695877075195,-11.348439598083496,1.6887028365967793e+18,15.351779150390623,-239.73487243652343,142.53015747070313,-144.2308380126953,1.6887028365929e+18,15.347899983723956,-0.2697920451561609,0.2386055936415989,-0.7201759815216064,0.5884014964103699,-2.5023935635884604,1.3701000610987346,-0.9450958569844564
0.4,1.6887028366448038e+18,15.399803955078124,7.190808614095052,11.721729278564451,-1.425432602564494,1.6887028366448038e+18,15.399803955078124,6.6021962960561105,2.362314224243164,1.5132609407107036,1.6887028366448038e+18,15.399803955078124,-0.5944581826527914,-9.341910680135092,2.8760061264038086,1.6887028366448038e+18,15.399803955078124,-3.9350412686665854,-3.4535266160964966,2.572760820388794,1.6887028366448038e+18,15.399803955078124,-3.936059395472209,-3.4490979512532554,2.5751024087270102,,,,,,,,,,,,1.688702836646779e+18,15.40177880859375,12.41715965270996,47.84351806640625,-15.228039741516112,1.688702836646779e+18,15.40177880859375,-245.00283508300785,142.46671447753906,-148.11043395996094,1.6887028366448038e+18,15.399803955078124,-0.2277898788452148,0.0460830413891623,-0.7135697603225708,0.6597508589426676,-1.6893471876780193,1.2993347644805908,2.0828774770100913
0.45,1.6887028366967063e+18,15.451706380208334,-2.707423369089762,8.207822481791178,-4.845975557963054,1.6887028366967063e+18,15.451706380208334,-2.858226736386617,-0.5080760071674982,-0.2636093000570933,1.6887028366967063e+18,15.451706380208334,-0.1566494454940159,-8.698394139607748,4.5196787516276045,1.6887028366967063e+18,15.451706380208334,-2.7799458503723145,-1.1100948850313823,0.8850419123967489,1.6887028366967063e+18,15.451706380208334,-2.7809130748113,-1.1056660612424214,0.8873326579729716,,,,,,,,,,,,1.6887028366967795e+18,15.451779638671876,10.240679740905762,44.99115905761719,-23.1482795715332,1.6887028366967795e+18,15.451779638671876,-247.1793182373047,139.6143585205078,-156.03067932128906,1.6887028366967063e+18,15.451706380208334,-0.2616865237553914,-0.053972229361534,-0.6967450976371765,0.665350337823232,-1.5193806489308674,1.1182405551274617,1.8219457070032756
0.5,1.6887028367486075e+18,15.50360734049479,-1.631848414738973,4.43103043238322,-4.068769057591756,1.6887028367486075e+18,15.50360734049479,-2.1754745841026306,-4.097708861033122,0.8370891213417053,1.6887028367486075e+18,15.50360734049479,-0.5494722326596578,-8.511234601338705,4.843170801798503,1.6887028367486075e+18,15.50360734049479,0.4705189665158589,-2.0607030391693115,0.2289726535479227,1.6887028367486075e+18,15.50360734049479,0.4694499572118123,-2.0562742153803506,0.2312633991241454,,,,,,,,,,,,1.6887028367467794e+18,15.501779541015626,11.977959823608398,43.729679107666016,-25.3637996673584,1.6887028367467794e+18,15.501779541015626,-245.44203186035156,138.35287780761718,-158.2461944580078,1.6887028367486075e+18,15.50360734049479,-0.2369092802206674,-0.1061254193385441,-0.7037462194760641,0.6611214677492777,-1.5991079807281494,1.076892375946045,1.7902144193649292
0.55,1.6887028368005112e+18,15.55551123046875,-4.540435870488484,-9.696405092875162,0.7805054187774658,1.6887028368005112e+18,15.55551123046875,-4.869394103686015,-18.55075677235921,5.079164902369182,1.6887028368005112e+18,15.55551123046875,-0.3348041779051224,-8.836847941080729,4.235972086588542,1.6887028368005112e+18,15.55551123046875,0.9899071156978608,0.677449569106102,1.4551828702290852,1.6887028368005112e+18,15.55551123046875,0.9889399508635204,0.6818783233563105,1.457473595937093,,,,,,,,,,,,1.6887028367967752e+18,15.55177529296875,11.936479759216308,45.242478942871095,-22.78715972900391,1.6887028367967752e+18,15.55177529296875,-245.4835174560547,139.8656768798828,-155.6695556640625,1.6887028368005112e+18,15.55551123046875,-0.2051212539275486,-0.0925651043653487,-0.697420338789622,0.6802364190419515,-1.5452651182810466,1.1450704336166382,1.7082926432291667
0.6,1.6887028368524137e+18,15.607413981119793,-2.2098213831583657,-23.4735107421875,7.809488137563069,1.6887028368524137e+18,15.607413981119793,-1.7547366619110107,-31.88854916890462,12.903894424438477,1.6887028368524137e+18,15.607413981119793,0.4492386678854624,-8.397533098856607,5.0317182540893555,1.6887028368524137e+18,15.607413981119793,-2.8938722610473633,-0.5596034806221724,0.843095858891805,1.6887028368524137e+18,15.607413981119793,-2.894890387852987,-0.5551746872564158,0.8453865845998129,,,,,,,,,,,,1.688702836846778e+18,15.601777978515624,6.4098797798156735,44.78863906860352,-24.783079528808592,1.688702836846778e+18,15.601777978515624,-251.01011657714844,139.41183776855468,-157.665478515625,1.6887028368524137e+18,15.607413981119793,-0.2354483753442764,-0.1302137052019436,-0.6613509058952332,0.6997693777084351,-1.3885647058486938,1.044605831305186,1.542822043100993
0.65,1.6887028368956657e+18,15.650665649414062,-0.247543454170227,-2.3509349822998047,-1.598410725593567,1.6887028368956657e+18,15.650665649414062,-0.5545366406440735,-10.523334503173828,3.8997026681900024,1.6887028368956657e+18,15.650665649414062,-0.3128392193466425,-8.154894828796387,5.4354259967803955,1.6887028368956657e+18,15.650665649414062,0.0513126775622368,-2.610150933265686,-2.1531472206115723,1.6887028368956657e+18,15.650665649414062,0.050320029258728,-2.6057220697402954,-2.1508564949035645,,,,,,,,,,,,1.6887028368967767e+18,15.65177666015625,8.496080112457275,42.199799346923825,-28.460159683227538,1.6887028368967767e+18,15.65177666015625,-248.9239196777344,136.822998046875,-161.34255676269532,1.6887028368956657e+18,15.650665649414062,-0.2317016497254371,-0.1651425883173942,-0.6825923919677734,0.6729385852813721,-1.5462440252304075,1.0011066198349,1.644375562667847
0.7,1.688702836938912e+18,15.693912027994791,1.4252859354019165,2.6463491121927896,-1.769913911819458,1.688702836938912e+18,15.693912027994791,-1.7700905948877337,-5.187041362126668,3.030111014842987,1.688702836938912e+18,15.693912027994791,-3.201222618420919,-7.815885861714681,4.737337589263916,1.688702836938912e+18,15.693912027994791,0.1901827106873194,-9.404117743174234,-5.540496985117595,1.688702836938912e+18,15.693912027994791,0.189164601266384,-9.399688879648844,-5.5381553173065186,,,,,,,,,,,,1.6887028369467791e+18,15.701779052734375,29.706999588012696,37.5955192565918,-21.43539981842041,1.6887028369467791e+18,15.701779052734375,-227.71299743652344,132.21871643066407,-154.3177947998047,1.688702836938912e+18,15.693912027994791,-0.1422550802429517,-0.2340552161137262,-0.7636886835098267,0.5777180393536886,-2.0851110219955444,0.9550356268882751,1.9475462834040325
0.75,1.6887028369908224e+18,15.745822591145831,46.74647585550944,1.6579781373341878,6.27252721786499,1.6887028369908224e+18,15.745822591145831,40.506699879964195,-5.551348527272542,8.617152531941732,1.6887028369908224e+18,15.745822591145831,-6.245623588562012,-7.191822052001953,2.2819381952285767,1.6887028369908224e+18,15.745822591145831,0.0290670059621334,-4.033899625142415,0.8417213757832845,1.6887028369908224e+18,15.745822591145831,0.0281507062415282,-4.029470761617024,0.8440122604370117,1.688702837008121e+18,15.763121337890626,0.0,0.0,3.2392160892486572,13.848999977111816,2.5896689891815186,0.703508734703064,43.400001525878906,-122.7524299,49.1883624,1.68870283699678e+18,15.751780126953124,41.672759246826175,34.15755920410156,-7.227279853820801,1.68870283699678e+18,15.751780126953124,-215.7472351074219,128.78075408935547,-140.10967712402345,1.6887028369908224e+18,15.745822591145831,0.0294852817896753,-0.3335254192352295,-0.8299592733383179,0.4449567496776581,-2.749506155649821,0.861747940381368,2.1948395570119223
0.8,1.6887028370427228e+18,15.797722819010415,1.542029619216919,3.3732592264811196,-0.8723519643147787,1.6887028370427228e+18,15.797722819010415,-2.384647170702616,-4.829713185628255,2.7906293869018555,1.6887028370427228e+18,15.797722819010415,-3.932522853215536,-8.185467720031738,3.6002939542134604,1.6887028370427228e+18,15.797722819010415,0.0762563409904639,7.389585971832275,3.5651113986968994,1.6887028370427228e+18,15.797722819010415,0.075238232811292,7.394014835357666,3.5674021244049072,,,,,,,,,,,,1.6887028370467753e+18,15.80177529296875,30.03883972167969,40.40395889282227,-15.662359809875488,1.6887028370467753e+18,15.80177529296875,-227.38115539550785,135.02715454101562,-148.5447570800781,1.6887028370427228e+18,15.797722819010415,-0.0494227356587846,-0.2643733521302541,-0.7803144256273905,0.5616469184557596,-2.3313708305358887,1.0194417834281924,2.0132342179616294
0.85,1.6887028370946253e+18,15.84962548828125,-2.9539740880330405,3.0919671058654785,-2.578627268473307,1.6887028370946253e+18,15.84962548828125,-4.429513454437256,-5.729015668233235,1.5192429820696514,1.6887028370946253e+18,15.84962548828125,-1.481385350227356,-8.803478240966797,4.035182873408,1.6887028370946253e+18,15.84962548828125,1.455590049425761,3.831245024998983,2.388941248257955,1.6887028370946253e+18,15.84962548828125,1.4546737670898438,3.8356738487879434,2.391231973965963,,,,,,,,,,,,1.6887028370967793e+18,15.851779150390623,17.80467987060547,44.96919937133789,-19.95431976318359,1.6887028370967793e+18,15.851779150390623,-239.61531677246097,139.59239807128907,-152.83672180175782,1.6887028370946253e+18,15.84962548828125,-0.1300325642029444,-0.1638576438029606,-0.7253064711888632,0.6551380753517151,-1.824240565299988,1.1387126445770264,1.7751009861628215
0.9,1.6887028371465275e+18,15.901527587890625,11.442873199780784,-25.63180128733317,2.583438793818156,1.6887028371465275e+18,15.901527587890625,10.85164999961853,-34.76851018269857,6.197809457778931,1.6887028371465275e+18,15.901527587890625,-0.5970695565144221,-9.119203885396322,3.551683028539022,1.6887028371465275e+18,15.901527587890625,0.6810129384199778,1.912415365378062,1.199637532234192,1.6887028371465275e+18,15.901527587890625,0.6800457537174225,1.9168442090352376,1.2019282579421997,,,,,,,,,,,,1.688702837146778e+18,15.901777880859374,13.154039764404295,47.0602783203125,-18.0974796295166,1.688702837146778e+18,15.901777880859374,-244.26595458984377,141.68347778320313,-150.97987670898436,1.6887028371465275e+18,15.901527587890625,-0.1251705810427665,-0.126919296880563,-0.7014452815055847,0.6896548867225647,-1.6175682147343953,1.2110812266667683,1.61503799756368
0.95,1.6887028371984325e+18,15.9534326171875,-5.142358700434367,-18.509934425354004,2.7614503304163613,1.6887028371984325e+18,15.9534326171875,-4.973083098729451,-28.010183334350582,5.272385199864705,1.6887028371984325e+18,15.9534326171875,0.1634294912219047,-9.482743899027506,2.4482473134994507,1.6887028371984325e+18,15.9534326171875,3.431840976079305,4.204178174336751,-1.3319407602151234,1.6887028371984325e+18,15.9534326171875,3.43087371190389,4.208607037862142,-1.3295990824699402,,,,,,,,,,,,1.6887028371967795e+18,15.951779443359376,8.76692008972168,48.78291931152344,-15.12067985534668,1.6887028371967795e+18,15.951779443359376,-248.6530731201172,143.40611877441407,-148.003076171875,1.6887028371984325e+18,15.9534326171875,-0.1656792064507802,0.0003506716651221,-0.6859641671180725,0.7074462572733561,-1.330655614535014,1.33424707253774,1.567660371462504
1.0,1.688702837250332e+18,16.005331787109373,-4.745974938074748,4.501215775807698,3.039149443308512,1.688702837250332e+18,16.005331787109373,-5.002195676167806,-5.234100182851155,4.413960138956706,1.688702837250332e+18,16.005331787109373,-0.262066751718521,-9.717811266581217,1.3121232986450195,1.688702837250332e+18,16.005331787109373,1.0028371463219323,-0.7961101233959198,-0.1320996067176262,1.688702837250332e+18,16.005331787109373,1.0018699020147324,-0.7916813691457113,-0.1298088546221454,,,,,,,,,,,,1.68870283724678e+18,16.001779687499997,10.413919639587402,49.946798706054686,-8.925519752502442,1.68870283724678e+18,16.001779687499997,-247.00607604980468,144.56999816894532,-141.80791625976562,1.688702837250332e+18,16.005331787109373,-0.1404744187990824,0.0632205605506896,-0.699623167514801,0.6976391077041626,-1.451907714207967,1.4614229202270508,1.741434375445048
1.05,1.688702837302235e+18,16.05723478190104,-1.83333154519399,7.87373161315918,2.7506450017293296,1.688702837302235e+18,16.05723478190104,-1.8432710568110149,-1.7960127592086792,4.54337199529012,1.688702837302235e+18,16.05723478190104,-0.015785535176595,-9.652240117390951,1.7300395568211873,1.688702837302235e+18,16.05723478190104,-1.471625288327535,-1.0023789604504905,1.0909035404523213,1.688702837302235e+18,16.05723478190104,-1.472541570663452,-0.9979502062002816,1.093194266160329,,,,,,,,,,,,1.6887028372967762e+18,16.051776171874998,9.581879806518554,50.01023864746094,-8.879159832000733,1.6887028372967762e+18,16.051776171874998,-247.8381134033203,144.63343505859376,-141.7615539550781,1.688702837302235e+18,16.05723478190104,-0.1332487265268961,0.0220496592422325,-0.6915587385495504,0.7094005743662516,-1.3098349571228027,1.411163091659546,1.5306222836176555
1.1,1.6887028373454833e+18,16.1004833984375,-3.6960973739624023,11.45645189285278,0.3166143894195556,1.6887028373454833e+18,16.1004833984375,-3.5488550662994385,1.9151554107666016,2.7251259088516235,1.6887028373454833e+18,16.1004833984375,0.1413962058722972,-9.523792266845703,2.345824122428894,1.6887028373454833e+18,16.1004833984375,-0.8662832677364349,-3.666642308235169,0.6213263124227524,1.6887028373454833e+18,16.1004833984375,-0.8671995401382446,-3.6622135639190674,0.6236170530319214,,,,,,,,,,,,1.6887028373467796e+18,16.1017796875,7.756759834289551,49.63203811645508,-12.05115966796875,1.6887028373467796e+18,16.1017796875,-249.6632354736328,144.25523681640624,-144.93355712890624,1.6887028373454833e+18,16.1004833984375,-0.1272119730710983,-0.0315343546681105,-0.6838698387145996,0.717457115650177,-1.2936144471168518,1.340789973735809,1.4299380779266355
1.15,1.6887028373887355e+18,16.143735595703124,-0.7647186517715454,11.013774871826172,-0.1751584609349568,1.6887028373887355e+18,16.143735595703124,-0.816351314385732,1.505883018175761,2.370290239651998,1.6887028373887355e+18,16.143735595703124,-0.0574787172178427,-9.490387598673502,2.4827613035837808,1.6887028373887355e+18,16.143735595703124,0.1925752758979797,-5.469585577646892,1.3843733668327332,1.6887028373887355e+18,16.143735595703124,0.1915571540594101,-5.465156714121501,1.386664132277171,,,,,,,,,,,,1.688702837396777e+18,16.151776904296874,8.866959762573241,49.824799346923825,-11.209359741210935,1.688702837396777e+18,16.151776904296874,-248.55303649902345,144.447998046875,-144.0917541503906,1.6887028373887355e+18,16.143735595703124,-0.0510848332196473,-0.1211746931076049,-0.679085393746694,0.7210671106974283,-1.3821266889572144,1.3191226323445635,1.282081921895345
1.2,1.6887028374406418e+18,16.195641682942707,6.647650281588237,8.85293976465861,-2.5236933628718057,1.6887028374406418e+18,16.195641682942707,6.933801790078481,-0.713659405708313,-0.2392823100090026,1.6887028374406418e+18,16.195641682942707,0.2803057854374249,-9.549094835917154,2.2217236359914145,1.6887028374406418e+18,16.195641682942707,0.9027570287386576,-3.383073608080546,1.6153313318888347,1.6887028374406418e+18,16.195641682942707,0.9017898042996724,-3.3786447842915854,1.6176220575968423,,,,,,,,,,,,1.6887028374467776e+18,16.201777734375,6.492839908599853,50.43967895507812,-8.051999759674072,1.6887028374467776e+18,16.201777734375,-250.9271545410156,145.06287841796876,-140.93439636230468,1.6887028374406418e+18,16.195641682942707,0.0462750053654114,-0.1975057671467463,-0.6486411492029825,0.7331159710884094,-1.2342626651128132,1.3241897424062092,0.8850151697794596
1.25,1.688702837492541e+18,16.247540690104167,1.381675124168396,8.506467978159586,-0.0474812189737955,1.688702837492541e+18,16.247540690104167,1.8564316034317017,-1.1507483124732971,1.7698911428451538,1.688702837492541e+18,16.247540690104167,0.4689104557037353,-9.63971201578776,1.7546849648157756,1.688702837492541e+18,16.247540690104167,0.8191193838914236,1.0577640732129414,-0.55069500207901,1.688702837492541e+18,16.247540690104167,0.8182030816872915,1.06219286719958,-0.5484042714039484,,,,,,,,,,,,1.6887028374967772e+18,16.25177734375,5.531479930877685,51.035038757324216,-5.526599788665772,1.6887028374967772e+18,16.25177734375,-251.88851623535157,145.65823669433593,-138.40899963378905,1.688702837492541e+18,16.247540690104167,0.0787026410301526,-0.1934267928202946,-0.6437694629033407,0.7360633611679077,-1.0884198347727458,1.362152894337972,0.6989660660425822
1.3,1.6887028375444467e+18,16.29944661458333,-2.0409922202428183,-13.1526730855306,14.360040028889976,1.6887028375444467e+18,16.29944661458333,-2.0819551150004068,-22.5557435353597,17.141982078552246,1.6887028375444467e+18,16.29944661458333,-0.0468089158336321,-9.385566393534342,2.7192545334498086,1.6887028375444467e+18,16.29944661458333,-4.757062156995137,6.985549608866374,-3.3197980721791587,1.6887028375444467e+18,16.29944661458333,-4.758080363273621,6.989978313446045,-3.317507266998291,1.6887028375271432e+18,16.28214306640625,0.0,0.0,3.2392160892486572,13.395999908447266,2.589385747909546,1.0317972898483276,43.400001525878906,-122.7524253,49.1883715,1.6887028375467776e+18,16.3017775390625,9.08411979675293,49.19771957397461,-12.207319641113282,1.6887028375467776e+18,16.3017775390625,-248.33587646484375,143.82091674804687,-145.08971557617187,1.6887028375444467e+18,16.29944661458333,-0.048450194299221,-0.1415745466947555,-0.6775814890861511,0.7162861029307047,-1.388230840365092,1.2911838293075562,1.2554651896158855
1.35,1.6887028375963492e+18,16.35134920247396,-8.314451535542807,-20.39523410797119,9.359906514485678,1.6887028375963492e+18,16.35134920247396,-9.331809043884276,-28.904300053914387,14.20140282313029,1.6887028375963492e+18,16.35134920247396,-1.023203512032827,-8.49156125386556,4.7788089116414385,1.6887028375963492e+18,16.35134920247396,-2.3578380743662515,1.9038124879201253,-3.933004935582479,1.6887028375963492e+18,16.35134920247396,-2.358805219332377,1.908241271972656,-3.930714209874471,,,,,,,,,,,,1.6887028375967785e+18,16.351778417968752,14.488719749450684,43.7809196472168,-24.592759704589845,1.6887028375967785e+18,16.351778417968752,-242.9312744140625,138.40411682128905,-157.47515563964845,1.6887028375963492e+18,16.35134920247396,-0.2271783699591953,-0.1097716937462488,-0.7205750942230225,0.64509250720342,-1.6995151042938232,1.075150966644287,1.871122439702352
1.4,1.6887028376482516e+18,16.403251708984374,-0.6786180337270099,-1.8750936190287273,-5.090076208114624,1.6887028376482516e+18,16.403251708984374,-3.445265829563141,-9.464012622833252,0.5190430879592894,1.6887028376482516e+18,16.403251708984374,-2.772493839263916,-7.571414311726888,5.546432018280029,1.6887028376482516e+18,16.403251708984374,-3.6851972738901777,-4.967861652374268,-1.5762868324915569,1.6887028376482516e+18,16.403251708984374,-3.6862154801686606,-4.963432947794597,-1.573996106783549,,,,,,,,,,,,1.6887028376467791e+18,16.401779150390624,23.280039596557614,38.405599975585936,-27.786719512939452,1.6887028376467791e+18,16.401779150390624,-234.13995971679688,133.02879638671874,-160.66911926269532,1.6887028376482516e+18,16.403251708984374,-0.2227718035380045,-0.1897450635830561,-0.7636009454727173,0.5736930767695109,-1.975416660308838,0.9163992404937744,2.024071455001831
1.45,1.6887028377001495e+18,16.455149576822915,33.08708246548971,-7.093912919362386,-6.438915888468425,1.6887028377001495e+18,16.455149576822915,29.662824789683015,-12.180264790852863,1.0556337038675945,1.6887028377001495e+18,16.455149576822915,-3.430102984110514,-5.0688473383585615,7.431862195332845,1.6887028377001495e+18,16.455149576822915,-3.418503681818644,9.808307061592735,-5.5902823607126875,1.6887028377001495e+18,16.455149576822915,-3.419470945994059,9.812735890348751,-5.58799163500468,,,,,,,,,,,,1.6887028376967757e+18,16.45177578125,28.823719024658203,24.744039916992183,-35.4019588470459,1.6887028376967757e+18,16.45177578125,-228.59627685546872,119.3672378540039,-168.28435668945312,1.6887028377001495e+18,16.455149576822915,-0.3542053004105885,-0.2308704406023024,-0.77618936697642,0.4524927337964375,-1.9794902006785076,0.5807212591171265,2.183446168899536
1.5,1.6887028377520566e+18,16.50705655924479,-3.07645837465922,-0.7170518239339193,-9.711726665496826,1.6887028377520566e+18,16.50705655924479,-5.111069043477376,-5.555336554845174,-1.36311137676239,1.6887028377520566e+18,16.50705655924479,-2.040456732114156,-4.820780118306478,8.285927772521973,1.6887028377520566e+18,16.50705655924479,0.9930123289426168,-2.92599364121755,2.0147862831751504,1.6887028377520566e+18,16.50705655924479,0.9920960664749146,-2.921564817428589,2.0170770287513733,,,,,,,,,,,,1.6887028377467794e+18,16.501779296875,18.40735969543457,21.2548397064209,-44.26403884887695,1.6887028377467794e+18,16.501779296875,-239.01263427734375,115.87803649902344,-177.1464385986328,1.6887028377520566e+18,16.50705655924479,-0.4342106580734253,-0.2024072110652923,-0.7395735780398051,0.4715885321299234,-1.7798296213150024,0.5501388112703959,2.1585795084635415
1.55,1.6887028377953098e+18,16.550309814453126,3.933247804641723,3.745838165283203,-14.783801555633543,1.6887028377953098e+18,16.550309814453126,1.7946170568466189,-1.8346967101097107,-6.933203458786011,1.6887028377953098e+18,16.550309814453126,-2.144476890563965,-5.563030481338501,7.7879109382629395,1.6887028377953098e+18,16.550309814453126,1.1011609435081482,-0.2239584773778915,2.617175817489624,1.6887028377953098e+18,16.550309814453126,1.1001683473587036,-0.2195296883583068,2.619466543197632,,,,,,,,,,,,1.688702837796778e+18,16.5517779296875,20.44720001220703,26.06895942687988,-40.987118530273435,1.688702837796778e+18,16.5517779296875,-236.97279663085936,120.69215698242188,-173.86951904296876,1.6887028377953098e+18,16.550309814453126,-0.3750619292259216,-0.2238007858395576,-0.7359652817249298,0.5171474814414978,-1.8006669878959656,0.6351439654827118,2.0409544706344604
1.6,1.6887028378385605e+18,16.593560546875,0.9837334950764972,-4.2853749593098955,-9.234505494435629,1.6887028378385605e+18,16.593560546875,-0.2580260435740153,-10.856635252634684,-2.0139590899149575,1.6887028378385605e+18,16.593560546875,-1.2476054430007937,-6.553755601247151,7.157859007517497,1.6887028378385605e+18,16.593560546875,3.491451144218445,0.4711298147837321,3.1947234471639,1.6887028378385605e+18,16.593560546875,3.490484038988749,0.475558598836263,3.1970141728719077,,,,,,,,,,,,1.6887028378467796e+18,16.6017796875,15.486679840087891,32.52763977050781,-37.48572006225586,1.6887028378467796e+18,16.6017796875,-241.93331604003907,127.15083465576171,-170.3681182861328,1.6887028378385605e+18,16.593560546875,-0.3362436791261037,-0.2060350775718688,-0.7085625131924947,0.5839635332425436,-1.6925419171651204,0.7606231371561686,1.8935092687606812
1.65,1.6887028378904596e+18,16.645459472656253,-0.4158978064854934,-19.822201410929363,1.0348334312438965,1.6887028378904596e+18,16.645459472656253,-0.2307080427805582,-28.50609525044759,5.537789185841878,1.6887028378904596e+18,16.645459472656253,0.1793434619903564,-8.666389147440592,4.440268357594808,1.6887028378904596e+18,16.645459472656253,7.69216791788737,8.853626410166422,-1.8737273116906483,1.6887028378904596e+18,16.645459472656253,7.691200574239095,8.858055273691813,-1.87143657853206,,,,,,,,,,,,1.6887028378967772e+18,16.651777294921875,6.773439693450928,43.680878448486325,-25.917679595947263,1.6887028378967772e+18,16.651777294921875,-250.64655456542968,138.3040771484375,-158.8000732421875,1.6887028378904596e+18,16.645459472656253,-0.3073711991310119,-0.0056585064157843,-0.6830124258995056,0.6559034983317057,-1.432150681813558,1.1218471725781758,1.8734256823857625
1.7,1.688702837942362e+18,16.69736222330729,1.10462220509847,-22.34611924489339,7.651354471842448,1.688702837942362e+18,16.69736222330729,0.2111666997273763,-31.76531982421875,10.140981992085775,1.688702837942362e+18,16.69736222330729,-0.8993011812369028,-9.401694933573404,2.426939646402994,1.688702837942362e+18,16.69736222330729,1.1921035647392273,1.5191709871093433,-6.728579044342041,1.688702837942362e+18,16.69736222330729,1.191085398197174,1.5235998208324115,-6.726288318634033,,,,,,,,,,,,1.6887028379467796e+18,16.70177958984375,9.913719844818116,47.29207992553711,-18.05355949401855,1.6887028379467796e+18,16.70177958984375,-247.5062744140625,141.91527709960937,-150.9359619140625,1.688702837942362e+18,16.69736222330729,-0.3331999679406484,0.2158522059520085,-0.698840320110321,0.5923325419425964,-1.8606594800949097,1.3222694396972656,0.5703848203023275
1.75,1.6887028379942646e+18,16.749264567057292,7.41381033261617,7.058333079020183,5.964198271433513,1.6887028379942646e+18,16.749264567057292,4.916652202606201,-2.119841436545054,8.475377957026163,1.6887028379942646e+18,16.749264567057292,-2.5030040740966797,-9.160670280456545,2.448492447535197,1.6887028379942646e+18,16.749264567057292,-0.2209296002984047,-1.603521426518758,1.2142982482910156,1.6887028379942646e+18,16.749264567057292,-0.22194770971934,-1.5990925629933674,1.2165889739990232,,,,,,,,,,,,1.6887028379967775e+18,16.751777392578127,20.68143997192383,45.18635864257813,-17.66559944152832,1.6887028379967775e+18,16.751777392578127,-236.73855590820312,139.80955505371094,-150.547998046875,1.6887028379942646e+18,16.749264567057292,-0.314210186402003,0.243517592549324,-0.7476863066355387,0.5307323932647705,-2.410999059677124,1.2461799383163452,-0.9549267292022704
1.8,1.6887028380461704e+18,16.801170491536457,4.294420560201009,11.785383542378744,-0.9733758370081584,1.6887028380461704e+18,16.801170491536457,2.7555347084999084,2.385245362917582,1.4723835388819375,1.6887028380461704e+18,16.801170491536457,-1.5447319348653157,-9.382633845011393,2.3830719788869223,1.6887028380461704e+18,16.801170491536457,-1.7931949694951377,-5.967746257781982,3.794745763142904,1.6887028380461704e+18,16.801170491536457,-1.7941620747248332,-5.9633175532023115,3.7971383730570474,1.6887028380461704e+18,16.80117041015625,0.0,0.0,3.526348352432251,12.06999969482422,2.586003541946411,1.5234994888305664,43.400001525878906,-122.7524195,49.1883847,1.6887028380467802e+18,16.801780224609377,17.572879791259766,46.918759155273435,-15.296359634399414,1.6887028380467802e+18,16.801780224609377,-239.847119140625,141.54195556640624,-148.178759765625,1.6887028380461704e+18,16.801170491536457,-0.2321057567993799,0.1078635590771833,-0.7413893143335978,0.6182357867558798,-2.104206800460815,1.3172334829966228,2.594273805618286
1.85,1.6887028380980716e+18,16.853071533203124,0.6973471939563751,11.204431215922035,-2.847962220509847,1.6887028380980716e+18,16.853071533203124,0.2362912694613138,1.9810578028361003,0.5493521963556608,1.6887028380980716e+18,16.853071533203124,-0.4669019530216853,-9.20586903889974,3.334627072016398,1.6887028380980716e+18,16.853071533203124,-2.412917693456014,-3.0883819262186685,2.8788042068481445,1.6887028380980716e+18,16.853071533203124,-2.413935820261637,-3.0839532216389975,2.88114595413208,,,,,,,,,,,,1.6887028380967736e+18,16.851773486328124,12.502559852600095,47.39211807250977,-17.07023983001709,1.6887028380967736e+18,16.851773486328124,-244.9174377441406,142.01531066894532,-149.95263671875,1.6887028380980716e+18,16.853071533203124,-0.2007400393486022,-0.0244186896209914,-0.7092874844868978,0.674433171749115,-1.6084119478861492,1.2454270521799724,1.8617586294809976
1.9,1.6887028381499748e+18,16.904974690755207,-1.5214910507202148,7.506728172302246,-4.5436727205912275,1.6887028381499748e+18,16.904974690755207,-1.5108680725097656,-1.4265210901697476,-0.3902294958631198,1.6887028381499748e+18,16.904974690755207,0.0047769794861475,-8.91574478149414,4.0907557010650635,1.6887028381499748e+18,16.904974690755207,-0.8970556339869896,-2.2999585469563804,1.7031941016515095,1.6887028381499748e+18,16.904974690755207,-0.8979718952129284,-2.295529762903849,1.7054848670959473,,,,,,,,,,,,1.6887028381467827e+18,16.90178291015625,8.896239852905273,46.286799621582034,-20.810759353637696,1.6887028381467827e+18,16.90178291015625,-248.52375183105468,140.90999755859374,-153.6931610107422,1.6887028381499748e+18,16.904974690755207,-0.178709402680397,-0.1123418460289636,-0.6817679007848104,0.7001689076423645,-1.460532585779826,1.1551779508590698,1.5564666986465454
1.95,1.6887028382018788e+18,16.956878824869793,-1.8093680540720625,-0.3462171554565429,-0.7354169686635336,1.6887028382018788e+18,16.956878824869793,-1.5846467713514965,-9.35394279162089,3.2426735162734985,1.6887028382018788e+18,16.956878824869793,0.2188753237326939,-8.99022134145101,3.915403127670288,1.6887028382018788e+18,16.956878824869793,0.8663596113522848,1.1986703475316365,0.2711223661899566,1.6887028382018788e+18,16.956878824869793,0.8653924266497294,1.2030990719795227,0.2734130918979645,,,,,,,,,,,,1.6887028381967785e+18,16.951778466796874,7.839719867706299,46.88947982788086,-20.354479598999024,1.6887028381967785e+18,16.951778466796874,-249.5802795410156,141.51268005371094,-153.23687438964845,1.6887028382018788e+18,16.956878824869793,-0.1563160916169484,-0.1227127363284428,-0.6713463465372721,0.713835875193278,-1.3947009642918904,1.168836037317912,1.4431743621826172
2.0,1.6887028382451246e+18,17.000124633789063,-8.107377290725708,-25.860754013061523,10.839385509490969,1.6887028382451246e+18,17.000124633789063,-7.560422420501709,-34.858341217041016,14.809478282928469,1.6887028382451246e+18,17.000124633789063,0.5411089509725571,-8.980082035064697,3.907405495643616,1.6887028382451246e+18,17.000124633789063,-1.702481389045715,4.612643480300903,-1.1956160068511963,1.6887028382451246e+18,17.000124633789063,-1.703474074602127,4.617072105407715,-1.1933252811431885,,,,,,,,,,,,1.68870283824678e+18,17.0017798828125,5.455839920043945,46.91631927490234,-21.55739974975586,1.68870283824678e+18,17.0017798828125,-251.9641571044922,141.53951721191407,-154.4397979736328,1.6887028382451246e+18,17.000124633789063,-0.2116358876228332,-0.0665887594223022,-0.6680515110492706,0.7098756432533264,-1.315835416316986,1.1701350808143616,1.525667369365692
2.05,1.6887028382883748e+18,17.04337491861979,-3.302181879679362,-13.909707387288412,5.50460163752238,1.6887028382883748e+18,17.04337491861979,-3.004587690035502,-22.5292231241862,10.261619726816813,1.6887028382883748e+18,17.04337491861979,0.2917482058207194,-8.60201104482015,4.6943308512369795,1.6887028382883748e+18,17.04337491861979,-1.8735236724217732,0.8801041046778361,-2.1701497236887612,1.6887028382883748e+18,17.04337491861979,-1.8744908968607583,0.8845328887303671,-2.1678080558776855,,,,,,,,,,,,1.6887028382967788e+18,17.051778662109378,6.651439952850342,43.89071960449219,-26.610639572143555,1.6887028382967788e+18,17.051778662109378,-250.7685577392578,138.5139190673828,-159.49303588867187,1.6887028382883748e+18,17.04337491861979,-0.2828605274359385,-0.0512278527021407,-0.6798696319262186,0.6743254661560059,-1.4154545068740845,1.0924090147018433,1.7542999585469563
2.1,1.688702838340279e+18,17.095278971354166,-2.0827684005101523,2.3816118240356445,-2.871362209320068,1.688702838340279e+18,17.095278971354166,-4.25503667195638,-5.586243907610576,2.2975085576375327,1.688702838340279e+18,17.095278971354166,-2.1781142155329385,-7.950351079305013,5.106183369954427,1.688702838340279e+18,17.095278971354166,-2.048892935117086,-8.079965591430664,-5.313865900039673,1.688702838340279e+18,17.095278971354166,-2.0499620040257773,-8.075536727905273,-5.311575094858806,,,,,,,,,,,,1.6887028383467725e+18,17.10177236328125,21.066959381103516,39.30839920043945,-27.371920013427733,1.6887028383467725e+18,17.10177236328125,-236.3530395507813,133.9315979003906,-160.2543151855469,1.688702838340279e+18,17.095278971354166,-0.2502775241931279,-0.11318934460481,-0.7578383684158325,0.5856985052426656,-1.893597682317098,0.9829660058021544,2.095808664957682
2.15,1.688702838392187e+18,17.147187011718753,52.91552289326986,-5.796133836110432,10.487189769744871,1.688702838392187e+18,17.147187011718753,46.56572341918945,-12.83968702952067,12.91366481781006,1.688702838392187e+18,17.147187011718753,-6.35564645131429,-7.026048978169759,2.3637874921162925,1.688702838392187e+18,17.147187011718753,-2.1530454953511557,-10.834408044815063,1.2078332901000977,1.688702838392187e+18,17.147187011718753,-2.154114524523417,-10.829979260762531,1.2101240158081057,,,,,,,,,,,,1.688702838396784e+18,17.15178388671875,42.05339889526367,33.28891944885254,-9.435479545593262,1.688702838396784e+18,17.15178388671875,-215.3666015625,127.91211700439452,-142.31788024902343,1.688702838392187e+18,17.147187011718753,0.0024527485171953,-0.2949294100205104,-0.8468934893608093,0.435157279173533,-2.7509135405222573,0.8395011226336161,2.2965664068857827
2.2,1.6887028384440845e+18,17.199084798177083,-2.8438199361165366,-2.2217887242635093,-0.6800212860107422,1.6887028384440845e+18,17.199084798177083,-6.818547447522481,-10.288339932759603,3.200599670410156,1.6887028384440845e+18,17.199084798177083,-3.980573574701945,-8.049046516418457,3.8179335594177246,1.6887028384440845e+18,17.199084798177083,-0.820188452800115,8.681820392608643,3.465794881184896,1.6887028384440845e+18,17.199084798177083,-0.8211555679639181,8.686249256134033,3.468085606892904,,,,,,,,,,,,1.688702838446778e+18,17.201777929687502,30.724479293823244,39.62315979003906,-16.606639671325684,1.688702838446778e+18,17.201777929687502,-226.6955139160156,134.2463592529297,-149.4890380859375,1.6887028384440845e+18,17.199084798177083,-0.063815283589065,-0.2685926109552383,-0.7801463405291239,0.5576643347740173,-2.306934754053752,0.9924575487772624,2.002704461415609
2.25,1.6887028384959926e+18,17.250992350260415,-8.750829855600992,-0.74441925684611,-3.9968435764312744,1.6887028384959926e+18,17.250992350260415,-10.304890314737955,-9.49412234624227,0.2091725567976633,1.6887028384959926e+18,17.250992350260415,-1.5599064230918884,-8.732198397318522,4.143328746159871,1.6887028384959926e+18,17.250992350260415,1.9369518756866455,1.7782286802927654,3.7599263985951743,1.6887028384959926e+18,17.250992350260415,1.935882846514384,1.782657464345296,3.762217124303182,,,,,,,,,,,,1.6887028384967798e+18,17.251779638671874,17.790039825439454,44.410438537597656,-20.82295951843262,1.6887028384967798e+18,17.251779638671874,-239.6299560546875,139.03363647460938,-153.70535888671876,1.6887028384959926e+18,17.250992350260415,-0.1216572398940721,-0.1852490852276483,-0.7222265203793844,0.6543838183085123,-1.8244466384251912,1.1198714176813762,1.7321040630340576
2.3,1.688702838547894e+18,17.30289404296875,3.663748582204183,-15.958085695902506,1.4992009003957112,1.688702838547894e+18,17.30289404296875,4.279563228289287,-25.112075805664062,5.0297130445639295,1.688702838547894e+18,17.30289404296875,0.6099687019983927,-9.13648541768392,3.467824618021647,1.688702838547894e+18,17.30289404296875,0.2197587539752325,0.1840740541617075,4.406832774480184,1.688702838547894e+18,17.30289404296875,0.2187406867742538,0.1885028084119161,4.409123500188191,1.688702838565195e+18,17.320195068359375,0.0,0.0,3.526348352432251,10.928999900817873,2.600773811340332,1.7700411081314087,43.400001525878906,-122.7524159,49.1883977,1.6887028385467768e+18,17.301777001953127,6.507480049133301,48.21439895629883,-17.319119262695313,1.6887028385467768e+18,17.301777001953127,-250.9125183105469,142.83759765625,-150.201513671875,1.688702838547894e+18,17.30289404296875,-0.0697841917475064,-0.1751201997200647,-0.6430862347284952,0.7415226896603903,-1.2725801070531209,1.1904659668604534,1.1207175850868225
2.35,1.688702838599802e+18,17.35480232747396,11.849310874938965,-7.909034093221028,6.756986300150554,1.688702838599802e+18,17.35480232747396,12.198808987935385,-17.243078867594402,9.800602912902832,1.688702838599802e+18,17.35480232747396,0.3436517814795176,-9.316540400187174,2.980928977330526,1.688702838599802e+18,17.35480232747396,1.7520124316215515,10.925681114196776,-7.356548468271892,1.688702838599802e+18,17.35480232747396,1.750994324684143,10.930109977722168,-7.354257424672444,,,,,,,,,,,,1.6887028385967816e+18,17.351781591796872,3.5550799548625944,48.233917999267575,-17.162959861755372,1.6887028385967816e+18,17.351781591796872,-253.8649139404297,142.85711975097655,-150.04535522460938,1.688702838599802e+18,17.35480232747396,-0.1728352804978688,-0.0310937712589899,-0.6731882294019064,0.7105695803960165,-1.337863564491272,1.2661415735880537,1.5412249565124512
2.4,1.688702838651693e+18,17.406693196614583,-7.791906197865804,-1.9575785001118975,0.0832124749819437,1.688702838651693e+18,17.406693196614583,-8.901100953420004,-11.583654562632242,1.7190436720848083,1.688702838651693e+18,17.406693196614583,-1.11504065990448,-9.608571688334148,1.573143800099691,1.688702838651693e+18,17.406693196614583,3.116379896799723,2.8851164976755777,-2.122247725725174,1.688702838651693e+18,17.406693196614583,3.115463654200236,2.889545281728109,-2.119956990083059,,,,,,,,,,,,1.6887028386467804e+18,17.401780322265626,12.124359512329102,48.58039855957031,-12.924679565429688,1.6887028386467804e+18,17.401780322265626,-245.2956390380859,143.20359802246094,-145.80707702636718,1.688702838651693e+18,17.406693196614583,-0.2588018476963042,0.1942279090483983,-0.7097353935241699,0.6251663962999979,-2.2063351472218833,1.4152235984802246,0.766268253326416
2.45,1.6887028386949514e+18,17.44995153808594,-2.5563337206840515,7.493499279022217,1.3182270526885986,1.6887028386949514e+18,17.44995153808594,-3.485744297504425,-2.235793650150299,2.391626238822937,1.6887028386949514e+18,17.44995153808594,-0.9352566599845886,-9.711788654327393,1.0107117891311646,1.6887028386949514e+18,17.44995153808594,-0.5535202771425247,-3.919922351837158,1.938886284828186,1.6887028386949514e+18,17.44995153808594,-0.5544365420937538,-3.915493488311768,1.9411770105361936,,,,,,,,,,,,1.688702838696778e+18,17.451777929687502,12.202440071105958,49.600318908691406,-8.178879833221435,1.688702838696778e+18,17.451777929687502,-245.21755676269532,144.22351989746093,-141.0612762451172,1.6887028386949514e+18,17.44995153808594,-0.2166540771722793,0.1823893189430236,-0.705097109079361,0.6497704386711121,-2.2910401821136475,1.4770147800445557,2.8638988733291626
2.5,1.6887028387382034e+18,17.493203369140627,-0.9545881946881613,10.33373991648356,0.213313619295756,1.6887028387382034e+18,17.493203369140627,-1.2588241298993428,0.6871388753255209,2.0831514596939087,1.6887028387382034e+18,17.493203369140627,-0.3100819612542788,-9.629096666971842,1.8071504433949788,1.6887028387382034e+18,17.493203369140627,-2.4093543688456216,-3.9560650984446206,2.088955481847127,1.6887028387382034e+18,17.493203369140627,-2.4104233582814536,-3.95163631439209,2.0912462075551352,,,,,,,,,,,,1.6887028387467784e+18,17.501778515625,8.703479862213134,49.6881591796875,-10.54567985534668,1.6887028387467784e+18,17.501778515625,-248.71651611328124,144.3113586425781,-143.4280792236328,1.6887028387382034e+18,17.493203369140627,-0.1910155067841211,0.0812379817167917,-0.6979485948880514,0.684359053770701,-1.5365888277689617,1.4125392039616902,1.9254266421000164
2.55,1.6887028387901071e+18,17.54510734049479,-1.380383849143982,11.097849527994793,-1.472186803817749,1.6887028387901071e+18,17.54510734049479,-1.3493525385856628,1.798405647277832,1.7427724997202556,1.6887028387901071e+18,17.54510734049479,0.0251853230098882,-9.2819398244222,3.1522719065348306,1.6887028387901071e+18,17.54510734049479,-2.57036821047465,-4.939456462860107,1.9763017892837524,1.6887028387901071e+18,17.54510734049479,-2.5713863372802734,-4.935027599334717,1.9785925149917605,,,,,,,,,,,,1.6887028387967775e+18,17.551777490234375,6.9808399200439455,48.43399887084961,-16.682279586791992,1.6887028387967775e+18,17.551777490234375,-250.4391540527344,143.05719909667968,-149.56467895507814,1.6887028387901071e+18,17.54510734049479,-0.1582013914982477,-0.0613432582467793,-0.6843206882476807,0.7078337868054708,-1.3986854553222656,1.2570537328720093,1.5373542706171672
2.6,1.6887028388420096e+18,17.597009440104166,0.0606762742002805,9.43243153889974,-2.7812255223592124,1.6887028388420096e+18,17.597009440104166,-0.1066800107558568,0.5950152476628622,1.5609179735183716,1.6887028388420096e+18,17.597009440104166,-0.1732023303241779,-8.81991163889567,4.27945613861084,1.6887028388420096e+18,17.597009440104166,-1.9351701736450195,-5.072573979695638,1.38432244459788,1.6887028388420096e+18,17.597009440104166,-1.936137358347575,-5.068145275115967,1.386613170305888,,,,,,,,,,,,1.688702838846778e+18,17.601777734375,7.58839979171753,46.801639556884766,-20.879079818725582,1.688702838846778e+18,17.601777734375,-249.8315948486328,141.42483825683593,-153.76148071289063,1.6887028388420096e+18,17.597009440104166,-0.1071164881189663,-0.2043642699718475,-0.6624824404716492,0.7115387121836344,-1.4851793845494587,1.121025760968526,1.343596378962199
2.65,1.688702838893911e+18,17.648910970052082,1.447975993156433,4.132139205932617,0.2337387402852376,1.688702838893911e+18,17.648910970052082,0.7260222633679708,-4.4975095589955645,4.935396035512288,1.688702838893911e+18,17.648910970052082,-0.7277997533480326,-8.612144152323404,4.638969898223877,1.688702838893911e+18,17.648910970052082,0.2885320087273915,-2.49864254395167,0.5728897949059805,1.688702838893911e+18,17.648910970052082,0.2875139017899831,-2.494213710228602,0.5752314428488413,,,,,,,,,,,,1.688702838896777e+18,17.65177705078125,10.352919960021971,46.03547973632813,-21.601319885253908,1.688702838896777e+18,17.65177705078125,-247.06707763671875,140.65867614746094,-154.4837158203125,1.688702838893911e+18,17.648910970052082,-0.0514072515070437,-0.2963595589001973,-0.6504010359446207,0.6973095734914144,-1.616488019625346,1.0692784388860066,1.2569307486216228
2.7,1.6887028389458135e+18,17.70081339518229,0.667087197303772,-17.302527745564777,13.49464480082194,1.6887028389458135e+18,17.70081339518229,0.1768694917360941,-26.244478543599445,17.59641933441162,1.6887028389458135e+18,17.70081339518229,-0.4960637589295705,-8.924446105957031,4.039087295532227,1.6887028389458135e+18,17.70081339518229,0.9172141551971436,6.154518286387126,-1.9701931551098824,1.6887028389458135e+18,17.70081339518229,0.91619606812795,6.158947149912517,-1.967902421951294,,,,,,,,,,,,1.6887028389467796e+18,17.701779638671873,9.208559799194337,47.287200164794925,-19.036879348754884,1.6887028389467796e+18,17.701779638671873,-248.21143493652343,141.9103973388672,-151.91927490234374,1.6887028389458135e+18,17.70081339518229,-0.0665875859558581,-0.2297961215178171,-0.6670110026995341,0.7033542394638062,-1.5677507718404131,1.1450177431106567,1.3305745522181194
2.75,1.6887028389977162e+18,17.752716471354166,-5.025160630544026,-13.35973103841146,6.550238927205403,1.6887028389977162e+18,17.752716471354166,-5.643472194671631,-21.64407793680827,11.83171017964681,1.6887028389977162e+18,17.752716471354166,-0.624157557884852,-8.26684284210205,5.218784014383952,1.6887028389977162e+18,17.752716471354166,-3.325295925140381,6.245231707890828,-4.653775056203206,1.6887028389977162e+18,17.752716471354166,-3.3263139724731445,6.2496604124705,-4.651484330495198,,,,,,,,,,,,1.6887028389967782e+18,17.751778076171874,9.237839889526366,43.40027923583985,-26.276359176635744,1.6887028389967782e+18,17.751778076171874,-248.1821533203125,138.02347717285156,-159.15875854492188,1.6887028389977162e+18,17.752716471354166,-0.2576190729935964,-0.1156096085906028,-0.703514039516449,0.6499577959378561,-1.602101723353068,1.0293299754460652,1.811762015024821
2.8,1.6887028390496187e+18,17.804618896484374,-6.420083363850911,-1.0922376314798992,-8.300609827041626,1.6887028390496187e+18,17.804618896484374,-8.476374944051107,-8.04187818368276,-1.7369897365570068,1.6887028390496187e+18,17.804618896484374,-2.062137802441915,-6.932135899861653,6.500932375590007,1.6887028390496187e+18,17.804618896484374,-4.712214549382527,-4.457483768463135,-4.46293059984843,1.6887028390496187e+18,17.804618896484374,-4.713130791982015,-4.453054944674174,-4.460639874140422,,,,,,,,,,,,1.688702839046781e+18,17.801780908203124,14.53507957458496,36.84399948120117,-33.56463966369629,1.688702839046781e+18,17.801780908203124,-242.884912109375,131.46719665527343,-166.44703674316406,1.6887028390496187e+18,17.804618896484374,-0.3322383264700572,-0.1384635344147682,-0.7500472068786621,0.5506483614444733,-1.8125990231831868,0.8259309530258179,2.1070609887441
2.85,1.6887028391015168e+18,17.856516764322915,43.08527135848999,-15.00519879659017,-10.508996963500977,1.6887028391015168e+18,17.856516764322915,39.07818349202474,-20.260428110758465,-3.265604853630066,1.6887028391015168e+18,17.856516764322915,-4.012932141621907,-5.237725257873535,7.180704593658447,1.6887028391015168e+18,17.856516764322915,-1.8640044232209525,2.8370108604431152,1.8251126209894817,1.6887028391015168e+18,17.856516764322915,-1.8650225301583607,2.841439723968506,1.8274033466974895,1.688702839084218e+18,17.839218017578126,0.0,0.0,3.5358808040618896,10.154000282287598,2.6249911785125732,1.9800939559936523,43.400001525878906,-122.7524127,49.188413,1.6887028390967777e+18,17.8517775390625,29.802159118652344,25.383319854736328,-35.450758361816405,1.6887028390967777e+18,17.8517775390625,-227.61783752441409,120.0065185546875,-168.33315734863282,1.6887028391015168e+18,17.856516764322915,-0.3177511692047119,-0.2510000169277191,-0.787997285525004,0.4605952401955922,-2.038652261098226,0.6006454626719157,2.1452563603719077
2.9,1.6887028391447695e+18,17.89976953125,-3.935341238975525,-0.2749490737915039,-9.69105863571167,1.6887028391447695e+18,17.89976953125,-5.930311918258667,-6.081657648086548,-1.9677974581718445,1.6887028391447695e+18,17.89976953125,-2.0008167028427124,-5.789203882217407,7.660573959350586,1.6887028391447695e+18,17.89976953125,0.9745591282844543,0.9424123466014862,2.7386616468429565,1.6887028391447695e+18,17.89976953125,0.97349014878273,0.9468411728739738,2.7409523725509644,,,,,,,,,,,,1.6887028391467786e+18,17.901778613281248,18.119439697265623,28.391839599609376,-40.006239318847655,1.6887028391467786e+18,17.901778613281248,-239.30055541992184,123.0150375366211,-172.88863830566407,1.6887028391447695e+18,17.89976953125,-0.3599689602851867,-0.2310289442539214,-0.7260285317897797,0.5383203029632568,-1.7763971090316772,0.6627989113330841,1.9796903729438784
2.95,1.688702839188025e+18,17.94302498372396,-1.233110507329305,3.2325547536214194,-9.211955706278482,1.688702839188025e+18,17.94302498372396,-2.94975217183431,-3.387239853541056,-2.113061785697937,1.688702839188025e+18,17.94302498372396,-1.7224876880645752,-6.602290153503418,7.036206404368083,1.688702839188025e+18,17.94302498372396,2.198911269505819,-1.496161739031474,2.4609215259552,1.688702839188025e+18,17.94302498372396,2.1979440450668335,-1.491732915242513,2.463212251663208,,,,,,,,,,,,1.6887028391967764e+18,17.951776513671877,16.060079765319824,33.371878433227536,-36.84887847900391,1.6887028391967764e+18,17.951776513671877,-241.35991821289065,127.99507904052734,-169.7312774658203,1.688702839188025e+18,17.94302498372396,-0.3067144850889842,-0.2308971832195917,-0.7149300972620646,0.5837331215540568,-1.7507441838582356,0.7663590908050537,1.867683013280233
3.0,1.6887028392399263e+18,17.994926595052082,6.610771695772807,-4.124742348988851,-6.665512879689534,1.6887028392399263e+18,17.994926595052082,5.4781681423385935,-11.89651600519816,-0.7320043245951334,1.6887028392399263e+18,17.994926595052082,-1.1384494105974834,-7.754269282023112,5.8708211580912275,1.6887028392399263e+18,17.994926595052082,3.1652491887410483,0.0902553002039591,2.5989261468251548,1.6887028392399263e+18,17.994926595052082,3.1642819245656333,0.0946841239929199,2.6012168725331626,,,,,,,,,,,,1.6887028392467796e+18,18.001779687499997,13.21015968322754,39.359640502929686,-31.190518951416017,1.6887028392467796e+18,18.001779687499997,-244.2098358154297,133.9828369140625,-164.0729187011719,1.6887028392399263e+18,17.994926595052082,-0.2245760361353556,-0.2151347249746322,-0.6975294947624207,0.6447996497154236,-1.679212252298991,0.9327760934829712,1.6933313210805256
3.05,1.6887028392918303e+18,18.04683048502604,-1.427867412567139,-21.18371327718099,4.714683373769124,1.6887028392918303e+18,18.04683048502604,-1.158524990081787,-30.084360122680664,8.882755756378174,1.6887028392918303e+18,18.04683048502604,0.2634964038928349,-8.8831418355306,4.105384588241577,1.6887028392918303e+18,18.04683048502604,3.7973928451538086,12.495604832967125,-3.4358115990956626,1.6887028392918303e+18,18.04683048502604,3.796374718348185,12.500033696492514,-3.4335208733876548,,,,,,,,,,,,1.6887028392967795e+18,18.051779541015627,4.477399849891663,44.986279296875,-24.180399703979493,1.6887028392967795e+18,18.051779541015627,-252.94259643554688,139.60947875976564,-157.06279907226562,1.6887028392918303e+18,18.04683048502604,-0.2915833741426467,0.0038281495993335,-0.6772560079892477,0.6676456332206726,-1.3899829785029094,1.1605384747187295,1.8211779991785688
3.1,1.688702839343729e+18,18.09872892252604,9.658809661865234,-14.458293914794922,6.697452863057454,1.688702839343729e+18,18.09872892252604,7.898308436075845,-23.57568422953288,9.808579126993816,1.688702839343729e+18,18.09872892252604,-1.7663474082946775,-9.099885622660318,3.048438390096029,1.688702839343729e+18,18.09872892252604,1.1495465536912282,3.1911091605822244,-8.31372340520223,1.688702839343729e+18,18.09872892252604,1.1485793987909954,3.19553783411781,-8.311381816864014,,,,,,,,,,,,1.6887028393467822e+18,18.1017822265625,13.300439453125,46.1306396484375,-19.407759857177737,1.6887028393467822e+18,18.1017822265625,-244.1195526123047,140.75384216308595,-152.2901611328125,1.688702839343729e+18,18.09872892252604,-0.351371278365453,0.2237982551256815,-0.7257146636644999,0.5436990261077881,-2.059279958407084,1.2379473447799685,0.815986156463623
3.15,1.6887028393956344e+18,18.150634684244793,1.9630204439163208,6.555733680725098,0.0800077120463053,1.6887028393956344e+18,18.150634684244793,-0.8803593317667643,-2.2556342283884683,3.4189446767171225,1.6887028393956344e+18,18.150634684244793,-2.8492258389790854,-8.793863296508789,3.276249567667643,1.6887028393956344e+18,18.150634684244793,-1.132493222753207,-2.515848477681478,1.840027968088786,1.6887028393956344e+18,18.150634684244793,-1.1334605092803638,-2.511419693628947,1.8423186937967937,,,,,,,,,,,,1.6887028393967795e+18,18.1517796875,19.795719146728516,44.105438995361325,-20.783919525146484,1.6887028393967795e+18,18.1517796875,-237.62427368164063,138.7286346435547,-153.66631774902345,1.6887028393956344e+18,18.150634684244793,-0.3596374591191609,0.2598183999458948,-0.7533732056617737,0.4838177065054576,-2.319422880808512,1.1597078641255696,-0.9408618609110512
3.2,1.6887028394475336e+18,18.20253369140625,4.200442274411519,10.48614501953125,-2.4807115395863852,1.6887028394475336e+18,18.20253369140625,2.400200525919596,1.6739788601795833,1.5122639139493306,1.6887028394475336e+18,18.20253369140625,-1.806087851524353,-8.79466183980306,3.930287996927897,1.6887028394475336e+18,18.20253369140625,-3.28772767384847,-5.12653382619222,4.413654088973999,1.6887028394475336e+18,18.20253369140625,-3.2886439164479575,-5.122105121612549,4.415944814682007,,,,,,,,,,,,1.688702839446778e+18,18.201777978515626,15.37931957244873,44.605638122558595,-22.24547958374023,1.688702839446778e+18,18.201777978515626,-242.040673828125,139.2288360595703,-155.12787780761718,1.6887028394475336e+18,18.20253369140625,-0.31809464097023,0.0986337363719939,-0.7501742641131083,0.5687293807665507,-1.9637471437454224,1.1605754693349202,2.5756282011667886
3.25,1.6887028394994394e+18,18.254439453125,1.7773704926172889,9.319713910420734,-5.5340094566345215,1.6887028394994394e+18,18.254439453125,0.670189787944158,1.092921716471513,-0.2311067879199981,1.6887028394994394e+18,18.254439453125,-1.1130266984303792,-8.209287961324057,5.240215301513672,1.6887028394994394e+18,18.254439453125,-3.0297389030456543,-1.399492263793945,1.6765196323394775,1.6887028394994394e+18,18.254439453125,-3.030756950378418,-1.3950635194778442,1.6788103580474854,,,,,,,,,,,,1.6887028394967798e+18,18.251779785156252,12.434239768981934,42.07535934448242,-27.42803955078125,1.6887028394967798e+18,18.251779785156252,-244.98575439453128,136.69855651855468,-160.31044006347656,1.6887028394994394e+18,18.254439453125,-0.3187024692694346,-0.0362881586576501,-0.7310148278872172,0.6017456849416097,-1.7139628728230794,1.0294214487075806,2.1314494609832764
