seconds_elapsed_rounded,accelerometer_time,accelerometer_seconds_elapsed,accelerometer_z,accelerometer_y,accelerometer_x,accelerometeruncalibrated_time,accelerometeruncalibrated_seconds_elapsed,accelerometeruncalibrated_z,accelerometeruncalibrated_y,accelerometeruncalibrated_x,gravity_time,gravity_seconds_elapsed,gravity_z,gravity_y,gravity_x,gyroscope_time,gyroscope_seconds_elapsed,gyroscope_z,gyroscope_y,gyroscope_x,gyroscopeuncalibrated_time,gyroscopeuncalibrated_seconds_elapsed,gyroscopeuncalibrated_z,gyroscopeuncalibrated_y,gyroscopeuncalibrated_x,location_time,location_seconds_elapsed,location_bearingAccuracy,location_speedAccuracy,location_verticalAccuracy,location_horizontalAccuracy,location_speed,location_bearing,location_altitude,location_longitude,location_latitude,magnetometer_time,magnetometer_seconds_elapsed,magnetometer_z,magnetometer_y,magnetometer_x,magnetometeruncalibrated_time,magnetometeruncalibrated_seconds_elapsed,magnetometeruncalibrated_z,magnetometeruncalibrated_y,magnetometeruncalibrated_x,orientation_time,orientation_seconds_elapsed,orientation_qz,orientation_qy,orientation_qx,orientation_qw,orientation_roll,orientation_pitch,orientation_yaw
0.0,1.6887023869798075e+18,74.9948076985677,0.4480828493833542,6.361440658569336,1.6230294704437256,1.6887023869798075e+18,74.9948076985677,0.4117648909256483,-3.303690512975057,3.451247811317444,1.6887023869798075e+18,74.9948076985677,-0.0421639825217425,-9.647626558939615,1.7655309438705444,1.688702386988458e+18,75.00345784505208,0.8728755116462708,4.4594690799713135,0.1859066585699717,1.6887023869841382e+18,74.99913818359374,0.9038515090942384,4.119369864463806,0.4849506504833697,,,,,,,,,,,,1.6887023869891146e+18,75.00411455078124,-3.56727991104126,49.30019912719727,-9.938119888305664,1.6887023869891146e+18,75.00411455078124,-258.1080688476562,144.76519775390625,-143.14991760253906,1.6887023869798075e+18,74.9948076985677,-0.609544575214386,0.5514039397239685,-0.445706029733022,0.3531494339307149,-1.6075834433237712,1.41571577390035,-2.739435831705729
0.05,1.6887023870317156e+18,75.04671541341146,-1.8283730745315552,-14.298682371775309,15.09431521097819,1.6887023870317156e+18,75.04671541341146,-2.2869402368863425,-23.924238681793213,16.966906865437824,1.6887023870317156e+18,75.04671541341146,-0.4644131610790888,-9.608051935831703,1.8099048535029096,1.6887023870403653e+18,75.0553651529948,-2.6388870030641556,5.780312538146973,-5.242801904678345,1.6887023870273871e+18,75.0423868001302,-1.126791844765345,6.174269517262776,-3.610315481821696,,,,,,,,,,,,1.688702387039114e+18,75.05411401367186,0.2488799810409546,49.192839813232425,-10.643280029296877,1.688702387039114e+18,75.05411401367186,-254.2919158935547,144.6578399658203,-143.8550811767578,1.6887023870317156e+18,75.04671541341146,-0.6382988492647806,0.6297507286071777,-0.363578051328659,0.2455230504274368,-1.8604009946187336,1.3963723182678225,-2.1765722036361694
0.1,1.6887023870836216e+18,75.09862150065105,-4.297419389088948,-18.834598223368328,9.771050135294596,1.6887023870836216e+18,75.09862150065105,-7.21037228902181,-27.42075030008952,13.533805052439371,1.6887023870836216e+18,75.09862150065105,-2.9187990029652915,-8.568648020426432,3.700067679087321,1.6887023870922698e+18,75.10726969401041,-2.391690174738566,1.2868385513623557,-5.247077941894531,1.6887023870792922e+18,75.09429223632812,-3.202155590057373,2.6472354729970298,-6.258976141611735,,,,,,,,,,,,1.6887023870891192e+18,75.10411914062499,12.907599449157717,44.56415939331055,-19.90307960510254,1.6887023870891192e+18,75.10411914062499,-241.63319702148436,140.02915649414064,-153.11487731933593,1.6887023870836216e+18,75.09862150065105,-0.5801275968551636,0.7195786237716675,-0.3745312293370564,0.0569544415920972,-2.2947216828664145,1.0737998088200886,-1.4875645637512207
0.15,1.6887023871355236e+18,75.15052335611979,-1.0291020075480144,-3.141155242919922,-4.646876970926921,1.6887023871355236e+18,75.15052335611979,-5.661617755889893,-10.628719011942543,-0.2608176668485006,1.6887023871355236e+18,75.15052335611979,-4.638361771901448,-7.470059076944987,4.323372046152751,1.6887023871355249e+18,75.15052490234375,-2.610074520111084,-3.072575807571411,-1.8522961139678955,1.6887023871311956e+18,75.14619563802084,-2.4927883545557656,-2.6742661396662393,-2.195551474889119,,,,,,,,,,,,1.6887023871391163e+18,75.15411645507812,22.25768013000488,39.38159942626953,-23.294679641723633,1.6887023871391163e+18,75.15411645507812,-232.28311462402343,134.84659729003906,-156.50647888183593,1.6887023871355236e+18,75.15052335611979,-0.5043816765149435,0.7491477131843567,-0.428059200445811,0.0088591727738578,-2.4345012505849204,0.8698668479919434,-1.3782629172007244
0.2,1.6887023871874286e+18,75.20242887369791,32.99979782104492,-13.776116053263346,-12.670878251393637,1.6887023871874286e+18,75.20242887369791,27.29333241780599,-19.616160710652668,-7.300701181093852,1.6887023871874286e+18,75.20242887369791,-5.712311744689941,-5.822541077931722,5.307489395141602,1.6887023871787735e+18,75.1937735188802,-4.048713127772014,1.973145802815756,-1.8463910420735676,1.6887023871831002e+18,75.19810026041667,-3.926590879758199,2.618422826131184,-1.6479617754618328,,,,,,,,,,,,1.688702387189115e+18,75.20411499023437,28.999399185180664,30.531719207763672,-27.947759246826173,1.688702387189115e+18,75.20411499023437,-225.54139404296876,125.99671783447266,-161.15955505371093,1.6887023871874286e+18,75.20242887369791,0.1688235203425089,-0.2302588820457458,0.168972909450531,0.0558484780291715,-2.429715315500895,0.6421943108240763,-1.4890968004862468
0.25,1.6887023872393275e+18,75.25432788085938,-5.6238588492075605,-0.0226325988769531,-10.500460306803385,1.6887023872393275e+18,75.25432788085938,-8.916654109954834,-6.372086524963379,-3.722035566965739,1.6887023872393275e+18,75.25432788085938,-3.2986411253611245,-6.331949234008789,6.715737183888753,1.688702387230679e+18,75.24567903645834,0.6530149281024933,2.836400012175242,3.3753867944081626,1.6887023872350075e+18,75.25000781249999,0.8595892066756884,1.9025907913843791,3.2794809341430664,,,,,,,,,,,,1.6887023872391163e+18,75.25411635742188,15.42323932647705,32.349518585205075,-36.01439895629883,1.6887023872391163e+18,75.25411635742188,-239.1175537109375,127.81451568603516,-169.2261932373047,1.6887023872393275e+18,75.25432788085938,0.5589031378428141,-0.6715596119562784,0.4749765495459239,0.102014735341072,-2.056498368581136,0.7126798828442892,-1.6735479434331255
0.3,1.6887023872912335e+18,75.30623356119791,0.904734214146932,7.484275817871094,-11.11776638031006,1.6887023872912335e+18,75.30623356119791,-2.2011974652608237,0.4584249556064605,-4.938985347747803,1.6887023872912335e+18,75.30623356119791,-3.1117777029673257,-7.008346398671468,6.116093635559082,1.688702387282586e+18,75.29758601888021,0.505898247162501,-2.2799018224080405,1.9877554972966511,1.6887023872869125e+18,75.30191251627603,0.3750203549861908,-2.351933002471924,1.9375118414560957,,,,,,,,,,,,1.6887023872891156e+18,75.30411572265625,12.853919982910156,35.33607864379883,-33.36211929321289,1.6887023872891156e+18,75.30411572265625,-241.68687438964844,130.80107727050782,-166.57391662597655,1.6887023872912335e+18,75.30623356119791,0.5786909858385721,-0.649561365445455,0.4917062024275462,0.0303465574979782,-2.0648229122161865,0.8072687784830729,-1.7952787081400554
0.35,1.688702387334491e+18,75.34949084472657,1.4274197816848757,1.2317848205566406,-10.065017223358154,1.688702387334491e+18,75.34949084472657,-1.710868239402771,-6.161219358444214,-4.3534417152404785,1.688702387334491e+18,75.34949084472657,-3.144134044647217,-7.375499486923218,5.648887872695923,1.68870238733449e+18,75.34949023437501,1.286736768980821,-1.8184949159622192,1.6602298816045125,1.6887023873388198e+18,75.35381998697916,1.6170112440983455,-1.774258057276408,1.650914192199707,1.6887023873556805e+18,75.37068017578125,0.0,0.0,1.1938624382019043,7.349999904632568,2.767655611038208,358.1635437011719,43.26872872566412,-122.7524142,49.1882568,1.688702387339119e+18,75.35411909179687,13.341919898986816,37.23195953369141,-30.846479415893555,1.688702387339119e+18,75.35411909179687,-241.198876953125,132.69695739746095,-164.05827941894532,1.688702387334491e+18,75.34949084472657,-0.5797260105609894,0.6329362988471985,-0.5123955309391022,0.0247243782505392,-2.096421957015991,0.8622696101665497,-1.8790274858474731
0.4,1.688702387377741e+18,75.3927411295573,7.937553882598877,-13.242705821990969,-4.976579745610555,1.688702387377741e+18,75.3927411295573,5.0101717710494995,-21.64407793680827,-0.8313064972559611,1.688702387377741e+18,75.3927411295573,-2.933228333791097,-8.383867422739664,4.08258581161499,1.6887023873863918e+18,75.4013916829427,6.5244987805684405,2.79302849372228,0.2166026433308919,1.6887023873907177e+18,75.40571761067709,6.904660701751709,4.1195733944574995,-0.0965675637125969,,,,,,,,,,,,1.688702387389117e+18,75.40411708984375,12.517199897766114,42.98547897338867,-22.46507911682129,1.688702387389117e+18,75.40411708984375,-242.02359619140623,138.45047912597656,-155.6768768310547,1.688702387377741e+18,75.3927411295573,-0.5800361633300781,0.6548763513565063,-0.4701672792434692,0.1076183567444483,-2.2229839166005454,1.0391147136688232,-1.794025222460429
0.45,1.6887023874296484e+18,75.44464819335937,0.8693101406097412,-33.9676767985026,2.2987885475158696,1.6887023874296484e+18,75.44464819335937,-1.4029916127522786,-43.28376770019531,4.485744868715604,1.6887023874296484e+18,75.44464819335937,-2.2781477769215903,-9.298584938049316,2.124268651008606,1.688702387438299e+18,75.45329874674479,4.440837621688843,13.312789916992188,-3.726532419522603,1.6887023874426253e+18,75.45762524414063,3.938248236974081,12.441492239634195,-4.3876415093739825,,,,,,,,,,,,1.6887023874391186e+18,75.4541185546875,7.441999912261963,47.93867874145508,-11.133719635009763,1.6887023874391186e+18,75.4541185546875,-247.09879455566409,143.40367431640624,-144.34552001953125,1.6887023874296484e+18,75.44464819335937,-0.1990484595298767,0.2358797987302144,-0.1417631407578786,0.0638038093845049,-2.434887091318766,1.24711016813914,-1.0556742548942566
0.5,1.688702387481553e+18,75.49655297851562,1.5169063409169514,1.058472474416097,4.134978214899699,1.688702387481553e+18,75.49655297851562,-2.296112855275472,-7.803792079289754,6.010969797770183,1.688702387481553e+18,75.49655297851562,-3.8188652197519937,-8.844760258992514,1.8133041461308796,1.6887023874901996e+18,75.50519970703125,-0.0341575443744659,-3.2092315355936685,-1.3340277671813965,1.6887023874858767e+18,75.50087658691406,0.1258382499217987,-1.984777510166168,-1.5456417798995972,,,,,,,,,,,,1.6887023874891195e+18,75.50411987304688,16.748159408569336,46.94559936523437,-8.522919654846191,1.6887023874891195e+18,75.50411987304688,-237.79263610839843,142.410595703125,-141.7347198486328,1.688702387481553e+18,75.49655297851562,0.5406339565912882,-0.8359856804211935,0.0446692109107971,0.0779724940657615,-2.720980723698934,1.114065210024516,-0.3722111483414967
0.55,1.68870238753345e+18,75.54844978841146,2.793213208516439,9.390299161275228,2.0508017937342324,1.68870238753345e+18,75.54844978841146,-0.609970360994339,0.249451756477356,3.2476585706075034,1.68870238753345e+18,75.54844978841146,-3.4090296427408853,-9.123342831929524,1.134169340133667,1.6887023875421074e+18,75.55710766601563,-2.5035294691721597,-8.696583112080893,3.05045747756958,1.6887023875291323e+18,75.54413248697917,-2.0709858735402427,-8.838609059651693,3.0999883810679116,,,,,,,,,,,,1.6887023875391227e+18,75.55412260742187,14.171519660949707,47.858158111572266,-6.180519866943359,1.6887023875391227e+18,75.55412260742187,-240.36927490234376,143.32315673828126,-139.39231872558594,1.68870238753345e+18,75.54844978841146,-0.5618202686309814,0.8035274147987366,-0.1749831189711888,0.0586433086233834,-2.857071320215861,1.1883212725321453,-0.6230421264966329
0.6,1.688702387585362e+18,75.60036181640625,3.0942698319753013,11.453683853149414,1.0617773135503132,1.688702387585362e+18,75.60036181640625,0.405384028951327,2.1074785788853965,2.506282329559326,1.688702387585362e+18,75.60036181640625,-2.694731871287028,-9.32870070139567,1.381817619005839,1.688702387585356e+18,75.60035607910156,-3.2962288856506348,-7.571521997451782,1.8866572976112368,1.6887023875810363e+18,75.59603670247397,-3.224961280822754,-7.679797808329265,2.037490169207255,,,,,,,,,,,,1.6887023875891113e+18,75.6041115234375,10.811639785766602,48.16803894042969,-8.20327968597412,1.6887023875891113e+18,75.6041115234375,-243.729150390625,143.63304138183594,-141.41507873535156,1.688702387585362e+18,75.60036181640625,-0.56840846935908,0.7197421789169312,-0.3467337191104889,0.1880221863587697,-2.7251546382904053,1.2572120428085327,-1.2033883134524028
0.65,1.6887023876372672e+18,75.65226700846354,10.5072660446167,9.333807945251465,-1.524319847424825,1.6887023876372672e+18,75.65226700846354,7.860023538271586,0.0983051458994547,0.5782654831806819,1.6887023876372672e+18,75.65226700846354,-2.653088172276815,-9.217998186747232,2.039897918701172,1.688702387628615e+18,75.64361474609375,-2.694984753926595,-4.871294021606445,0.9479610721270244,1.688702387632938e+18,75.64793815104167,-2.5480717023213706,-4.125427524248759,1.026253581047058,,,,,,,,,,,,1.6887023876391173e+18,75.65411743164063,11.504599571228027,47.526318359375,-11.963319778442385,1.6887023876391173e+18,75.65411743164063,-243.03619384765625,142.99131774902344,-145.17511596679688,1.6887023876372672e+18,75.65226700846354,-0.5445079604784647,0.6400437553723654,-0.4757570723692576,0.2583447396755218,-2.539743185043335,1.232040603955587,-1.7114711999893188
0.7,1.688702387689166e+18,75.70416609700521,-0.3901829719543457,6.196683247884114,-1.223175287246704,1.688702387689166e+18,75.70416609700521,-1.612164278825124,-3.1818559169769287,1.4673984348773956,1.688702387689166e+18,75.70416609700521,-1.227827290693919,-9.361034711201986,2.6278862953186035,1.6887023876805192e+18,75.69551928710938,-0.0112501109639803,5.29167111714681,2.2010493675867715,1.6887023876848456e+18,75.69984554036459,0.2012800971666971,5.563149770100911,2.0588194926579795,,,,,,,,,,,,1.6887023876891162e+18,75.70411606445313,3.8893598556518554,47.79471893310547,-14.749799728393556,1.6887023876891162e+18,75.70411606445313,-250.6514404296875,143.2597198486328,-147.9615966796875,1.688702387689166e+18,75.70416609700521,-0.6197953820228577,0.6205099026362101,-0.4236850241820017,0.2223805685838063,-2.0480184157689414,1.2837403217951455,-2.0541299184163413
0.75,1.6887023877410714e+18,75.7560714518229,-5.038825750350952,2.4085480372111,3.224095344543457,1.6887023877410714e+18,75.7560714518229,-5.45842719078064,-7.1152574221293134,5.668596903483073,1.6887023877410714e+18,75.7560714518229,-0.4254474937915802,-9.506300926208498,2.381814161936442,1.6887023877324196e+18,75.74741967773438,1.0812314947446189,6.0488386154174805,-0.626747747262319,1.688702387736742e+18,75.75174169921875,1.0506882270177205,5.914499123891194,-0.9100365241368612,,,,,,,,,,,,1.6887023877391163e+18,75.75411640625,-1.8470799207687376,48.72191925048829,-12.609919929504397,1.6887023877391163e+18,75.75411640625,-256.38787536621095,144.1869140625,-145.82171630859375,1.6887023877410714e+18,75.7560714518229,-0.6724719603856405,0.6581705609957377,-0.3049101730187734,0.1405172869563102,-1.8089232444763184,1.3363024393717449,-1.9787495930989585
0.8,1.68870238778432e+18,75.79931994628906,-10.605811595916748,-35.400522232055664,11.706651210784912,1.68870238778432e+18,75.79931994628906,-12.051152229309082,-44.87140655517578,13.90678644180298,1.68870238778432e+18,75.79931994628906,-1.4511865973472595,-9.45337724685669,2.1374471187591553,1.688702387784329e+18,75.79932877604166,0.260992169380188,0.1717040141423543,-4.3601014614105225,1.6887023877886543e+18,75.80365413411458,0.0583885212739308,-0.5176573991775513,-4.538219769795735,,,,,,,,,,,,1.6887023877891182e+18,75.80411840820312,4.04795982837677,49.08059921264648,-10.699399757385256,1.6887023877891182e+18,75.80411840820312,-250.49283752441409,144.54559631347655,-143.91119995117188,1.68870238778432e+18,75.79931994628906,-0.6415645778179169,0.7179229259490967,-0.2548779696226119,0.08665432035923,-2.229391932487488,1.306070327758789,-1.4044596552848816
0.85,1.6887023878275817e+18,75.84258186848957,-3.2086970011393228,-15.724061648050943,1.1738059123357136,1.6887023878275817e+18,75.84258186848957,-6.798407793045044,-24.57289218902588,3.433301647504171,1.6887023878275817e+18,75.84258186848957,-3.595556894938151,-8.83132553100586,2.196808417638143,1.6887023878362337e+18,75.8512333170573,-2.418466409047445,-5.21785831451416,-3.860261201858521,1.6887023878405588e+18,75.85555867513021,-2.50296950340271,-5.454263051350911,-3.7612500190734863,,,,,,,,,,,,1.6887023878391158e+18,75.8541158203125,17.126359748840333,45.530399322509766,-12.019439888000488,1.6887023878391158e+18,75.8541158203125,-237.41443786621093,140.99539794921876,-145.23123779296876,1.6887023878275817e+18,75.84258186848957,-0.5486640334129333,0.7628938953081766,-0.3246860106786092,0.0963960513472556,-2.630852301915487,1.1239005327224731,-1.1325718959172566
0.9,1.6887023878794867e+18,75.89448665364584,35.645914713541664,-3.8960900306701665,-1.9201749165852864,1.6887023878794867e+18,75.89448665364584,29.50789002577464,-11.252647240956623,-0.0843470046917597,1.6887023878794867e+18,75.89448665364584,-6.143869400024414,-7.339052677154541,1.7731404701868694,1.688702387888133e+18,75.90313305664063,-2.306983550389608,-4.814738154411316,-5.735668341318767,1.6887023878924603e+18,75.90746044921876,-2.2086851596832275,-3.984877645969391,-4.770857373873392,1.6887023878924588e+18,75.90745874023438,0.0,0.0,1.1938624382019043,7.372000217437744,2.840853214263916,358.83349609375,43.26872872566412,-122.7524138,49.1882657,1.6887023878891185e+18,75.90411850585937,32.19823989868164,37.83951873779297,-10.643279838562012,1.6887023878891185e+18,75.90411850585937,-222.34255981445312,133.30451354980468,-143.855078125,1.6887023878794867e+18,75.89448665364584,-0.4038771589597066,0.7772656679153442,-0.4586570560932159,0.1323889642953872,-2.8833778699239097,0.8526882727940878,-1.1878397464752195
0.95,1.6887023879313871e+18,75.94638712565104,14.043988386789955,-3.435275872548422,-2.796075960000356,1.6887023879313871e+18,75.94638712565104,7.320242504278817,-10.247661908467611,-0.635493814945221,1.6887023879313871e+18,75.94638712565104,-6.729592005411784,-6.794881343841553,2.0978947480519614,1.688702387940041e+18,75.9550410970052,-0.78684534629186,2.3353377978006997,3.226844787597656,1.688702387935718e+18,75.95071789550781,-0.8980482518672943,2.9110783338546753,3.237814784049988,,,,,,,,,,,,1.6887023879391142e+18,75.9541140625,34.6723991394043,35.2213996887207,-12.648959732055664,1.6887023879391142e+18,75.9541140625,-219.86839599609377,130.6863983154297,-145.86075744628906,1.6887023879313871e+18,75.94638712565104,-0.3723224302132924,0.7653526862462362,-0.5095876057942709,0.1222376401225725,-2.867995182673136,0.7678110798199972,-1.287735899289449
1.0,1.6887023879832952e+18,75.99829500325521,1.867594798405965,4.409875392913818,-3.9443111419677734,1.6887023879832952e+18,75.99829500325521,-3.568695584932963,-3.3611182371775308,-1.3577274481455486,1.6887023879832952e+18,75.99829500325521,-5.442136446634929,-7.753489017486572,2.5238962968190513,1.6887023879919473e+18,76.00694742838542,0.5758423010508219,-0.3145446976025899,2.6112961769104004,1.68870238797897e+18,75.99397029622395,0.2965750793615977,0.2288708512981732,2.8375200430552163,,,,,,,,,,,,1.688702387989117e+18,76.00411684570312,27.962399673461913,39.63535995483399,-14.59607982635498,1.688702387989117e+18,76.00411684570312,-226.57839660644532,135.10036010742186,-147.80787658691406,1.6887023879832952e+18,75.99829500325521,-0.4467015465100606,0.7293019692103068,-0.4979760448137919,0.1420597533384958,-2.7395806312561035,0.9163025617599488,-1.398747483889262
1.05,1.688702388035199e+18,76.0501991373698,2.0708775520324707,7.493451436360677,-5.066683769226074,1.688702388035199e+18,76.0501991373698,-2.4685953855514526,-1.0019944806893666,-3.1158538262049356,1.688702388035199e+18,76.0501991373698,-4.5453189214070635,-8.477941513061523,1.8881425460179648,1.6887023880351882e+18,76.05018811035157,1.0189232528209686,-1.1837804913520813,2.338163137435913,1.688702388030874e+18,76.04587386067708,0.9560550252596536,-1.1130983233451843,2.3678154945373535,,,,,,,,,,,,1.6887023880391155e+18,76.05411552734375,23.136079406738283,43.302679443359374,-12.212199783325197,1.6887023880391155e+18,76.05411552734375,-231.40471496582032,138.7676788330078,-145.4239959716797,1.688702388035199e+18,76.0501991373698,-0.4744706054528554,0.7023584842681885,-0.4891254305839538,0.2045905242363611,-2.779326836268107,1.0492539008458457,-1.427444299062093
1.1,1.688702388087101e+18,76.10210066731771,12.122296253840128,-8.373324235280354,-6.822738806406657,1.688702388087101e+18,76.10210066731771,8.641279856363932,-17.4598282178243,-5.453841050465901,1.688702388087101e+18,76.10210066731771,-3.4868622620900473,-9.068999290466309,1.3062105576197307,1.6887023880784525e+18,76.09345239257813,0.4204789052406947,-0.8015061219533285,2.5710299809773765,1.688702388082779e+18,76.09777888997395,0.6289366874843836,-0.0201585690180462,2.411492347717285,,,,,,,,,,,,1.688702388089114e+18,76.10411372070313,16.599319648742675,46.44051971435547,-9.284199905395509,1.688702388089114e+18,76.10411372070313,-237.94147644042968,141.9055206298828,-142.49599609375,1.688702388087101e+18,76.10210066731771,-0.5001450777053833,0.6679591536521912,-0.4805038968722024,0.2688403725624084,-2.811575094858805,1.1863511800765991,-1.4708260695139568
1.15,1.688702388139008e+18,76.1540078938802,0.3939660390218099,-26.163907368977863,-0.4507743716239929,1.688702388139008e+18,76.1540078938802,-2.2197418212890625,-35.583666483561196,0.5665007929007212,1.688702388139008e+18,76.1540078938802,-2.619553724924723,-9.402254422505695,0.9545877774556478,1.6887023881303524e+18,76.1453526204427,5.034700393676758,14.103096961975098,-0.0629700223604838,1.688702388134683e+18,76.14968302408853,5.175403118133545,14.651806513468424,-0.0912225395441054,,,,,,,,,,,,1.6887023881391183e+18,76.154118359375,10.050360107421875,48.026519012451175,-6.119519901275635,1.6887023881391183e+18,76.154118359375,-244.49043884277344,143.49151916503905,-139.3313201904297,1.688702388139008e+18,76.1540078938802,-0.5830199718475342,0.7496084570884705,-0.2549956242243448,0.1398168752590815,-2.8350624243418374,1.2805359760920207,-0.8829794923464457
1.2,1.6887023881909043e+18,76.20590454101563,3.260254383087158,-3.400073846181234,0.7848914861679077,1.6887023881909043e+18,76.20590454101563,-0.182851493358612,-12.555339336395264,1.6305092374483745,1.6887023881909043e+18,76.20590454101563,-3.448951959609986,-9.137761116027832,0.782930314540863,1.688702388182257e+18,76.19725699869792,1.9285015563170116,6.7112710773944855,-3.640858650207519,1.6887023881865848e+18,76.20158463541667,1.512400542696317,5.243260105450948,-3.659133791923523,,,,,,,,,,,,1.6887023881891146e+18,76.20411455078126,13.983639526367188,47.89475936889649,-2.957279920578003,1.6887023881891146e+18,76.20411455078126,-240.55715637207032,143.35975952148436,-136.16907653808593,1.6887023881909043e+18,76.20590454101563,0.5638337731361389,-0.8242490092913309,0.038915941491723,0.0174925100679198,-2.9382139841715493,1.1912771463394165,-0.2341163357098896
1.25,1.6887023882341568e+18,76.24915686035156,2.6825045347213745,4.906029224395752,1.9634886384010315,1.6887023882341568e+18,76.24915686035156,-0.9798608720302582,-4.1991046667099,2.4367908239364624,1.6887023882341568e+18,76.24915686035156,-3.6682114601135254,-9.087629318237305,0.4106147587299347,1.6887023882341578e+18,76.24915763346354,-0.7427612245082855,-5.282253662745158,1.2398019234339397,1.6887023882384878e+18,76.25348779296876,-0.8648324807484945,-5.599852561950684,1.4137967030207317,,,,,,,,,,,,1.6887023882391158e+18,76.25411586914063,16.018599700927734,47.57267837524414,-1.3737199664115909,1.6887023882391158e+18,76.25411586914063,-238.5222015380859,143.0376770019531,-134.58551940917968,1.6887023882341568e+18,76.24915686035156,-0.5531884431838989,0.8288725912570953,-0.0734185017645359,0.0287036839872598,-3.054625630378723,1.1732014417648315,-0.2344121858477592
1.3,1.68870238827742e+18,76.2924200032552,3.3330254554748535,9.520122528076172,1.4145737489064534,1.68870238827742e+18,76.2924200032552,0.3276172975699107,0.1722832222779592,1.705284913380941,1.68870238827742e+18,76.2924200032552,-3.0112542311350503,-9.330334981282553,0.2280237823724746,1.6887023882860716e+18,76.30107161458334,-2.0831522941589355,-5.38747517267863,1.7289522488911946,1.6887023882903962e+18,76.30539624023437,-2.1509583393732705,-5.245601654052734,1.672803560892741,,,,,,,,,,,,1.6887023882891218e+18,76.30412177734374,12.19755973815918,48.751199340820314,-0.9784399747848512,1.6887023882891218e+18,76.30412177734374,-242.3432373046875,144.21619567871093,-134.19024047851562,1.68870238827742e+18,76.2924200032552,-0.5718961954116821,0.7927897572517395,-0.1706209729115168,0.116366813580195,-3.1035712560017905,1.2471293608347576,-0.4524129728476206
1.35,1.6887023883293276e+18,76.34432763671875,2.989481965700785,10.723791440327965,0.3647134900093078,1.6887023883293276e+18,76.34432763671875,0.5274179577827454,1.2430713772773745,1.173280715942383,1.6887023883293276e+18,76.34432763671875,-2.467910051345825,-9.463215827941896,0.7458798289299011,1.688702388337974e+18,76.35297387695313,-2.192497173945109,-4.088979164759318,0.5714135318994522,1.6887023883423025e+18,76.35730232747396,-2.1141536633173623,-4.03323769569397,0.4736241847276687,,,,,,,,,,,,1.6887023883391183e+18,76.35411826171875,9.9283597946167,49.24651947021484,-4.121159887313842,1.6887023883391183e+18,76.35411826171875,-244.61243591308593,144.71151428222657,-137.33295593261718,1.6887023883293276e+18,76.34432763671875,-0.580978274345398,0.7432165940602621,-0.2784286141395569,0.1775191227595011,-2.916641791661581,1.298432429631551,-0.8881629904111227
1.4,1.688702388381225e+18,76.39622509765626,4.385338942209879,7.019170920054118,-1.8528635501861572,1.688702388381225e+18,76.39622509765626,2.0195422967274985,-2.4526431957880654,-0.6907281478246053,1.688702388381225e+18,76.39622509765626,-2.371642589569092,-9.454309781392416,1.099448045094808,1.6887023883898783e+18,76.40487825520835,0.3065525492032369,0.7380779584248861,0.6722572048505148,1.6887023883855557e+18,76.40055541992187,0.1311833262443542,0.7086800634860992,0.8526151478290558,,,,,,,,,,,,1.6887023883891172e+18,76.40411723632812,8.820599937438965,48.885399627685544,-5.897479915618897,1.6887023883891172e+18,76.40411723632812,-245.7201934814453,144.35039672851562,-139.10927734375,1.688702388381225e+18,76.39622509765626,-0.5773292978604635,0.7155021826426188,-0.3357510467370351,0.2046794643004734,-2.778200705846151,1.3005982637405396,-1.1552940607070925
1.45,1.6887023884331328e+18,76.4481327311198,0.5817032257715861,5.015379746754964,0.858912726243337,1.6887023884331328e+18,76.4481327311198,-1.4526427313685415,-4.555535475413005,1.817947010199229,1.6887023884331328e+18,76.4481327311198,-2.040191968282064,-9.553410847981771,0.896346906820933,1.688702388441785e+18,76.45678515625,1.130711555480957,3.9919025897979736,-0.0628173115352789,1.688702388428807e+18,76.44380680338541,1.2743666966756184,3.7252089182535806,0.0802778763075669,1.6887023884115064e+18,76.42650634765624,0.0,0.0,1.2139067649841309,7.392000198364258,2.9256181716918945,359.57904052734375,43.20902115124693,-122.7524123,49.1882766,1.6887023884391142e+18,76.4541140625,7.178480052947998,49.478318786621095,-4.31147985458374,1.6887023884391142e+18,76.4541140625,-247.36231384277343,144.94331970214844,-137.52327880859374,1.6887023884331328e+18,76.4481327311198,-0.6017053127288818,0.7324815988540649,-0.2680963277816772,0.1688241610924402,-2.8093772729237876,1.3378825187683103,-0.9651764035224916
1.5,1.6887023884850332e+18,76.50003336588541,-9.42605717976888,-25.444599151611328,3.5309539635976157,1.6887023884850332e+18,76.50003336588541,-11.39182949066162,-35.01975695292155,4.585445880889893,1.6887023884850332e+18,76.50003336588541,-1.9716183344523113,-9.557652473449709,0.9918044606844584,1.6887023884850284e+18,76.50002819824219,-0.6328564025461674,0.2831360101699828,0.0063377264887094,1.688702388480712e+18,76.49571199544272,-0.3918700565894444,0.8673268556594849,-0.0447967859605948,,,,,,,,,,,,1.688702388489114e+18,76.5041142578125,6.548959732055664,49.57835922241211,-4.260239887237549,1.688702388489114e+18,76.5041142578125,-247.99183654785156,145.043359375,-137.47203674316407,1.6887023884850332e+18,76.50003336588541,-0.6154378056526184,0.7474735776583353,-0.2182397494713465,0.1216161747773488,-2.755773544311523,1.3385991255442302,-0.8745773037274679
1.55,1.6887023885369413e+18,76.55194108072918,0.8931241830190023,-9.524914741516112,0.6017380952835083,1.6887023885369413e+18,76.55194108072918,-1.8638094067573547,-18.812171936035156,2.2311076720555625,1.6887023885369413e+18,76.55194108072918,-2.762779633204142,-9.269753138224283,1.56668217976888,1.688702388528285e+18,76.54328483072918,-2.34674064318339,-4.285881598790486,-1.7453438242276509,1.6887023885326164e+18,76.5476163736979,-2.3654228846232095,-4.392630259195964,-1.977014442284902,,,,,,,,,,,,1.68870238853912e+18,76.55412026367188,10.252879810333251,48.463279724121094,-8.122759819030762,1.68870238853912e+18,76.55412026367188,-244.2879150390625,143.92827453613282,-141.33455505371094,1.6887023885369413e+18,76.55194108072918,-0.5783589084943136,0.7427036166191101,-0.3047731518745422,0.1398316870133081,-2.680283308029175,1.239896297454834,-1.110833962758382
1.6,1.688702388588836e+18,76.60383610026042,4.305524826049805,1.097012201944987,-1.492202560106913,1.688702388588836e+18,76.60383610026042,-0.3898306960860888,-7.346762975056966,0.2089731792608896,1.688702388588836e+18,76.60383610026042,-4.701201597849528,-8.426270484924316,1.6384883721669514,1.6887023885801894e+18,76.5951893717448,-1.9503399928410847,-4.712316354115804,-3.785430113474528,1.6887023885845102e+18,76.59950992838542,-1.874389131863912,-4.72830073038737,-3.876958131790161,,,,,,,,,,,,1.68870238858911e+18,76.60411005859376,20.752199363708495,44.512918090820314,-9.87224006652832,1.68870238858911e+18,76.60411005859376,-233.7885955810547,139.97791748046876,-143.08403625488282,1.688702388588836e+18,76.60383610026042,-0.4785044689973195,0.752880851427714,-0.4181010325749714,0.1657485216856002,-2.8381381829579673,1.0368701418240864,-1.1894810597101848
1.65,1.6887023886407506e+18,76.65575065104167,38.11000951131185,-4.586589972178142,-0.7379138469696045,1.6887023886407506e+18,76.65575065104167,31.089744567871097,-11.285548528035482,0.683549682299296,1.6887023886407506e+18,76.65575065104167,-7.026112079620361,-6.681453863779704,1.3587761720021565,1.688702388632092e+18,76.64709187825521,-0.859945555528005,-1.6203200904031594,-5.571141801774502,1.6887023886364168e+18,76.65141682942708,-0.8249735136826833,-0.9830349336067836,-4.754415114720662,,,,,,,,,,,,1.6887023886391117e+18,76.65411157226563,35.13355903625488,35.9436393737793,-8.696159934997558,1.6887023886391117e+18,76.65411157226563,-219.40723571777343,131.40863647460938,-141.907958984375,1.6887023886407506e+18,76.65575065104167,-0.3457214037577311,0.7879410982131958,-0.4889281392097473,0.139869083960851,-2.979362646738688,0.7508323192596436,-1.1749786933263142
1.7,1.6887023886926446e+18,76.70764444986979,0.5854794184366862,0.9512317975362142,-4.462633053461711,1.6887023886926446e+18,76.70764444986979,-5.388836065928142,-6.54157829284668,-2.3427727222442627,1.6887023886926446e+18,76.70764444986979,-5.9801615079243975,-7.475305398305257,2.057172973950704,1.6887023886839928e+18,76.69899267578124,-0.368199015657107,1.9127209385236104,4.233041763305664,1.6887023886883226e+18,76.70332250976563,-0.2807434846957525,1.740304172039032,4.259359836578369,,,,,,,,,,,,1.6887023886891144e+18,76.70411440429687,33.288919067382814,36.82203903198242,-11.670519638061524,1.6887023886891144e+18,76.70411440429687,-221.2518737792969,132.2870361328125,-144.88231506347657,1.6887023886926446e+18,76.70764444986979,-0.4151872495810191,0.7578212022781372,-0.4826272924741109,0.1393645505110422,-2.8399824301401773,0.8698955178260803,-1.2767240603764851
1.75,1.6887023887358991e+18,76.75089904785156,2.1604706048965454,6.402785539627075,-3.539322853088379,1.6887023887358991e+18,76.75089904785156,-2.451147675514221,-2.0416759252548218,-1.5260226130485537,1.6887023887358991e+18,76.75089904785156,-4.617464303970337,-8.426957130432129,1.9506129026412964,1.6887023887359e+18,76.75089990234375,0.5984952251116434,-0.4370231765011946,3.7755035559336343,1.6887023887402284e+18,76.75522835286459,0.6327036817868551,-0.5616905738910039,3.7376808325449624,,,,,,,,,,,,1.688702388739111e+18,76.75411064453125,24.21211929321289,42.61704025268555,-12.317119598388672,1.688702388739111e+18,76.75411064453125,-230.32868041992188,138.0820343017578,-145.52891845703124,1.6887023887358991e+18,76.75089904785156,-0.4779855608940124,0.7200667858123779,-0.4676182568073272,0.18459665030241,-2.776289105415344,1.0377154350280762,-1.3623158931732178
1.8,1.6887023887791537e+18,76.79415380859375,0.7683857282002767,5.222827434539795,-6.079151153564453,1.6887023887791537e+18,76.79415380859375,-2.6189444065093994,-3.872584025065104,-4.568097829818726,1.6887023887791537e+18,76.79415380859375,-3.3931761582692466,-9.077906926472982,1.4483658870061238,1.6887023887878054e+18,76.80280566406249,0.1908444762229919,-2.239177425702413,3.483102718989054,1.6887023887921275e+18,76.80712784830729,0.1410080616672834,-2.2689570983250937,3.4487415154774985,,,,,,,,,,,,1.688702388789113e+18,76.80411318359374,14.937679672241211,46.877279663085936,-9.293959808349609,1.688702388789113e+18,76.80411318359374,-239.60311279296872,142.34227905273437,-142.50575561523436,1.6887023887791537e+18,76.79415380859375,-0.5119061470031738,0.676487664381663,-0.4640337526798248,0.2529938369989395,-2.773103396097819,1.189805308977763,-1.4540751377741497
1.85,1.688702388831056e+18,76.84605590820313,13.430540720621744,-18.198108673095703,-5.141319910685222,1.688702388831056e+18,76.84605590820313,11.288938363393148,-27.737799962361652,-4.140181303024292,1.688702388831056e+18,76.84605590820313,-2.1474485794703164,-9.522186915079754,0.9384512702624004,1.6887023888397066e+18,76.85470662434896,2.879924197991689,7.611584710578124,0.1966476837793986,1.6887023888353812e+18,76.85038134765625,2.588159680366516,6.075512945652008,0.6246860921382904,,,,,,,,,,,,1.688702388839111e+18,76.85411079101563,8.032479858398437,48.778038787841794,-6.402559852600097,1.688702388839111e+18,76.85411079101563,-246.50831604003903,144.24303588867187,-139.6143585205078,1.688702388831056e+18,76.84605590820313,-0.5491403738657633,0.6503538886706034,-0.4291656911373138,0.297657569249471,-2.7794059912363687,1.3342186212539673,-1.4518210887908936
1.9,1.6887023888829612e+18,76.89796101888021,-0.4024782975514729,-20.940301577250164,1.1924907366434734,1.6887023888829612e+18,76.89796101888021,-2.791028174882134,-30.453055063883465,1.7740785876909893,1.6887023888829612e+18,76.89796101888021,-2.3943959871927896,-9.495248158772789,0.5189004639784495,1.6887023888916104e+18,76.9066102701823,2.9774081309636435,13.036882400512695,-3.3734524647394815,1.6887023888786353e+18,76.89363533528645,3.672165552775065,14.598966598510742,-2.317011912663778,,,,,,,,,,,,1.688702388889111e+18,76.90411088867188,9.020679759979249,48.78779907226563,-2.347279930114746,1.688702388889111e+18,76.90411088867188,-245.52011413574215,144.25279541015624,-135.5590789794922,1.6887023888829612e+18,76.89796101888021,-0.5974344412485758,0.7660367290178934,-0.1793193419774373,0.1139402389526366,-2.9719956715901694,1.3128821849822998,-0.5929229656855265
1.95,1.688702388934868e+18,76.94986791992187,4.044317404429118,0.1227591832478841,1.3112641374270122,1.688702388934868e+18,76.94986791992187,0.2560320099194844,-8.91864808400472,1.9712870518366497,1.688702388934868e+18,76.94986791992187,-3.7941315174102783,-9.023902575174969,0.5973355074723562,1.688702388934865e+18,76.94986499023437,0.476169466972351,-0.697989821434021,-1.7221818193793297,1.688702388930547e+18,76.94554711914063,0.7299839543799559,1.2101240654786427,-2.6471336285273233,1.6887023889305498e+18,76.9455498046875,0.0,0.0,1.2139067649841309,7.402999877929688,2.97711443901062,0.1107685565948486,43.20902115124693,-122.7524105,49.1882936,1.6887023889391163e+18,76.95411645507812,17.384999465942382,47.22863998413086,-2.2350399017333986,1.6887023889391163e+18,76.95411645507812,-237.15579528808593,142.69363403320312,-135.44683837890625,1.688702388934868e+18,76.94986791992187,0.1858576734860738,-0.2767221530278523,0.0045593834171692,0.0170244149242838,-3.00578244527181,1.1566953659057615,-0.1825130035479863
2.0,1.6887023889867745e+18,77.00177457682291,3.1372461318969727,7.355264504750569,2.059080878893534,1.6887023889867745e+18,77.00177457682291,-0.3417748349408309,-1.8293129230539005,2.086740771929423,1.6887023889867745e+18,77.00177457682291,-3.4848670164744058,-9.167072931925455,-0.0350274567802747,1.6887023889781194e+18,76.99311938476562,-1.1345803638299303,-6.170909722646077,1.3275119860967,1.688702388982447e+18,76.99744718424479,-1.2883657018343608,-6.148816744486491,1.4069753487904866,,,,,,,,,,,,1.688702388989113e+18,77.00411318359374,16.101559448242188,47.71419982910156,0.5148399889469146,1.688702388989113e+18,77.00411318359374,-238.4392303466797,143.1791961669922,-132.69696044921875,1.6887023889867745e+18,77.00177457682291,-0.5540808041890463,0.8160179058710734,-0.1265534336368242,0.0951267145574092,3.102039178212484,1.1953779856363933,-0.2810688416163125
2.05,1.6887023890386772e+18,77.05367716471353,3.302750031153361,10.683306694030762,1.2147040764490764,1.6887023890386772e+18,77.05367716471353,0.5389833146085342,1.2600205341974895,1.4943177302678423,1.6887023890386772e+18,77.05367716471353,-2.7696127891540527,-9.405781745910645,0.2169262530903021,1.6887023890300296e+18,77.04502970377604,-2.338443120320638,-5.039994716644287,1.4161383708318074,1.688702389034355e+18,77.04935498046875,-2.3750950495402017,-4.945666790008545,1.3382530013720195,,,,,,,,,,,,1.6887023890391163e+18,77.05411635742188,12.24391975402832,48.96835861206055,-0.6758799731731415,1.6887023890391163e+18,77.05411635742188,-242.296875,144.43335876464843,-133.88768005371094,1.6887023890386772e+18,77.05367716471353,-0.5683749715487162,0.7658361991246542,-0.2416996856530507,0.1751013447841007,-1.0201021035512288,1.2738991181055703,-0.6325915654500326
2.1,1.6887023890905874e+18,77.10558715820312,3.0455097357432046,10.021628061930338,-0.1116917332013448,1.6887023890905874e+18,77.10558715820312,0.4618148008982343,0.5742774357398351,0.7234300573666891,1.6887023890905874e+18,77.10558715820312,-2.589540958404541,-9.429846127827965,0.77243439356486,1.6887023890819323e+18,77.09693229166668,-2.150805632273356,-4.4206282297770185,0.4147775123516719,1.6887023890862597e+18,77.10125960286457,-2.0727676153182983,-4.35679276784261,0.3746640135844548,,,,,,,,,,,,1.6887023890891195e+18,77.1041197265625,10.928759765625,48.92199935913086,-3.725879907608032,1.6887023890891195e+18,77.1041197265625,-243.6120361328125,144.38699951171876,-136.93767700195312,1.6887023890905874e+18,77.10558715820312,-0.559623102347056,0.7183162172635397,-0.3444838623205821,0.2262234886487324,-2.921727736790975,1.2893611987431843,-1.0598944226900735
2.15,1.6887023891424914e+18,77.15749145507813,5.47473673025767,6.4146835009257,-1.2944140632947283,1.6887023891424914e+18,77.15749145507813,3.0871401603023205,-3.05862549940745,-0.1882353822390238,1.6887023891424914e+18,77.15749145507813,-2.3934426307678223,-9.455804506937662,1.0434913039207458,1.688702389133836e+18,77.14883585611979,-0.4677700599034627,0.0320194959640502,0.4383467137813568,1.6887023891381624e+18,77.15316251627604,-0.2845614055792491,0.5637776851654052,0.3907501337428887,,,,,,,,,,,,1.6887023891391186e+18,77.15411840820312,10.172359657287595,48.59503936767578,-5.729119968414307,1.6887023891391186e+18,77.15411840820312,-244.36843566894532,144.06004028320314,-138.9409149169922,1.6887023891424914e+18,77.15749145507813,-0.5633597373962402,0.6968129873275757,-0.3734882672627767,0.2395688444375991,-2.807044267654419,1.3025983174641926,-1.240114688873291
2.2,1.688702389185751e+18,77.20075085449218,0.6528769731521606,3.750325918197632,1.2888999581336975,1.688702389185751e+18,77.20075085449218,-1.726421594619751,-5.719743490219116,2.4448665976524353,1.688702389185751e+18,77.20075085449218,-2.385144591331482,-9.452564716339111,1.093279242515564,1.6887023891857457e+18,77.20074544270834,0.8487972617149353,3.637651681900024,-0.6485352714856466,1.6887023891900677e+18,77.20506746419271,0.8431467413902283,3.723681767781576,-0.6568328539530436,,,,,,,,,,,,1.6887023891891144e+18,77.20411435546876,10.455399894714356,48.73899917602539,-5.953599834442139,1.6887023891891144e+18,77.20411435546876,-244.08539428710935,144.20399780273436,-139.16539916992187,1.688702389185751e+18,77.20075085449218,-0.5783512592315674,0.7205143868923187,-0.3267713785171509,0.1981397718191146,-2.7899203300476074,1.2987825274467468,-1.1197871565818789
2.25,1.6887023892289994e+18,77.24399951171876,-5.6710991859436035,-24.88071886698405,6.448995113372803,1.6887023892289994e+18,77.24399951171876,-8.097910086313883,-34.31806182861328,7.7651082674662275,1.6887023892289994e+18,77.24399951171876,-2.43265700340271,-9.419838269551596,1.2534254789352417,1.6887023892376486e+18,77.25264876302083,-0.4634431153535843,2.9401962757110596,-0.4864014585812886,1.688702389241975e+18,77.25697517903644,-0.7531459132830302,2.831716775894165,-0.5697336693604788,,,,,,,,,,,,1.6887023892391163e+18,77.25411650390625,10.426119804382324,48.660918426513675,-6.375719928741455,1.6887023892391163e+18,77.25411650390625,-244.11467590332032,144.12591857910155,-139.58751831054687,1.6887023892289994e+18,77.24399951171876,-0.5909294287363688,0.7450136144955953,-0.2735624114672342,0.1429587850968042,-2.741051435470581,1.2840953667958577,-1.004985253016154
2.3,1.6887023892809e+18,77.29590006510416,-0.9098342259724936,-9.05746078491211,1.080767830212911,1.6887023892809e+18,77.29590006510416,-3.7254254817962646,-18.116060256958008,3.630909005800883,1.6887023892809e+18,77.29590006510416,-2.8214372793833413,-9.04109541575114,2.4874538580576577,1.6887023892895532e+18,77.30455314127603,-3.274695873260498,1.2617930223544438,-2.3728551864624023,1.6887023892852132e+18,77.30021313476563,-3.332728147506714,1.6007723808288574,-2.4032965898513794,,,,,,,,,,,,1.6887023892891185e+18,77.30411860351562,12.392759895324708,46.967559051513675,-12.2097599029541,1.6887023892891185e+18,77.30411860351562,-242.14803771972657,142.43255615234375,-145.42156066894532,1.6887023892809e+18,77.29590006510416,-0.5875154733657837,0.7596651315689087,-0.2716810901959737,0.0537899130334456,-2.4830676714579263,1.1749043862024944,-1.1324855883916218
2.35,1.688702389332806e+18,77.34780598958334,-0.170225461324056,2.8876036008199057,-4.451214949289958,1.688702389332806e+18,77.34780598958334,-4.418945233027141,-5.105884710947673,-0.6707879900932312,1.688702389332806e+18,77.34780598958334,-4.254565795262654,-7.975983619689941,3.717739661534627,1.688702389341454e+18,77.3564541829427,-3.4250705242156982,-5.712149898211162,-4.654945929845174,1.688702389328483e+18,77.34348291015625,-3.312060515085856,-2.9158633798360825,-3.4470616976420083,,,,,,,,,,,,1.6887023893391158e+18,77.35411567382812,20.65703945159912,41.416558837890626,-19.193039321899413,1.6887023893391158e+18,77.35411567382812,-233.88375549316407,136.88155517578124,-152.40484008789062,1.688702389332806e+18,77.34780598958334,0.5249609251817068,-0.7795153657595316,0.3382229308287303,0.0069177874247542,-2.4513798554738364,0.953697164853414,-1.1883702278137207
2.4,1.688702389384713e+18,77.3997128092448,40.024428049723305,-8.918916384379068,-3.2674636046091714,1.688702389384713e+18,77.3997128092448,33.13560930887858,-15.435699780782064,-0.7102695405483246,1.688702389384713e+18,77.3997128092448,-6.894665400187175,-6.499279340108235,2.4945066769917807,1.688702389384707e+18,77.39970703124999,-1.463938593864441,-5.206862568855285,0.1962404251098632,1.6887023893803866e+18,77.39538647460938,-1.9343048135439556,-5.482821067174275,-1.4230614304542542,,,,,,,,,,,,1.6887023893891208e+18,77.404120703125,34.36739997863769,34.23563919067383,-15.528159523010254,1.6887023893891208e+18,77.404120703125,-220.17339782714845,129.7006378173828,-148.73995666503907,1.688702389384713e+18,77.3997128092448,-0.3729052742322286,0.7932096123695374,-0.4742994308471679,0.0746585329373677,-2.8206895192464194,0.725229799747467,-1.2008753617604573
2.45,1.6887023894366124e+18,77.4516123046875,-3.6880470911661782,1.1558578809102378,-4.947311719258626,1.6887023894366124e+18,77.4516123046875,-8.866205215454102,-6.58245587348938,-1.8259230852127075,1.6887023894366124e+18,77.4516123046875,-5.184004147847493,-7.720809141794841,3.058701197306315,1.6887023894279606e+18,77.44296061197917,0.8909469445546468,3.38923313220342,4.24123748143514,1.6887023894322903e+18,77.44729020182292,1.0411688884099324,2.8287133077780404,4.233856042226155,1.68870238944959e+18,77.46459008789063,0.0,0.0,1.1893306970596311,7.408999919891357,2.931302070617676,358.9303283691406,43.20902115124693,-122.7524109,49.1883052,1.6887023894391158e+18,77.45411562500001,25.61267967224121,39.77687911987304,-17.133679962158205,1.6887023894391158e+18,77.45411562500001,-228.92811584472656,135.24187927246095,-150.34547424316406,1.6887023894366124e+18,77.4516123046875,-0.474044919013977,0.7573602795600891,-0.4405275285243988,0.0810578763484954,-2.636366685231527,0.9110120534896852,-1.3066399892171223
2.5,1.6887023894885202e+18,77.50352018229167,-1.4371202786763508,6.0020952224731445,-5.523964564005534,1.6887023894885202e+18,77.50352018229167,-5.099902788798015,-2.844866673151652,-3.3425739208857217,1.6887023894885202e+18,77.50352018229167,-3.668628533681234,-8.82945728302002,2.118703246116638,1.6887023894798682e+18,77.4948680013021,1.6681202252705891,-2.1363484462102256,3.836335500081381,1.688702389484196e+18,77.49919612630208,1.6308575073877971,-2.40523099899292,3.831855853398641,,,,,,,,,,,,1.6887023894891228e+18,77.50412299804688,17.8071195602417,45.152198028564456,-12.751439666748048,1.6887023894891228e+18,77.50412299804688,-236.73367614746093,140.61719665527343,-145.963232421875,1.6887023894885202e+18,77.50352018229167,-0.5303666591644287,0.7161998152732849,-0.4189983109633127,0.169879784186681,-2.653881231943766,1.127448320388794,-1.3700634241104126
2.55,1.6887023895404244e+18,77.55542447916666,12.200427691141764,-11.523635546366371,-7.682836691538493,1.6887023895404244e+18,77.55542447916666,9.948359966278076,-21.028324762980144,-6.6488564014434814,1.6887023895404244e+18,77.55542447916666,-2.2579137086868286,-9.487184524536133,0.9712925950686137,1.6887023895317696e+18,77.54676969401042,1.0474302768707275,-3.055853327115377,3.370296319325765,1.6887023895360996e+18,77.5510995279948,1.1660908460617063,-2.2878430684407554,3.1029409567515054,,,,,,,,,,,,1.6887023895391153e+18,77.55411528320312,10.78723964691162,48.17047958374023,-7.158959865570068,1.6887023895391153e+18,77.55411528320312,-243.75355834960936,143.6354766845703,-140.37075805664062,1.6887023895404244e+18,77.55542447916666,-0.5494787693023682,0.658778707186381,-0.4248324334621429,0.2879138588905334,-2.7822302977244058,1.3221944173177085,-1.4252173900604248
2.6,1.6887023895923274e+18,77.60732763671875,5.723966042200725,-23.71911112467448,4.220464706420898,1.6887023895923274e+18,77.60732763671875,3.4494532346725464,-33.26202901204427,4.7762733697891235,1.6887023895923274e+18,77.60732763671875,-2.280358632405599,-9.525413195292154,0.4931210080782572,1.6887023895836754e+18,77.59867521158854,3.836946407953898,15.356541315714518,-1.880904992421468,1.688702389588e+18,77.60300032552084,3.865504264831543,16.40972359975179,-2.083152254422506,,,,,,,,,,,,1.6887023895891185e+18,77.6041185546875,8.264279747009278,48.90979919433594,-2.7571999549865724,1.6887023895891185e+18,77.6041185546875,-246.2765167236328,144.37479553222656,-135.9689971923828,1.6887023895923274e+18,77.60732763671875,-0.5939153830210367,0.7512181798617045,-0.2108154445886611,0.1424233329792817,-2.9779672622680664,1.3265167474746704,-0.6768255432446798
2.65,1.6887023896355835e+18,77.65058337402343,-0.0373505353927612,-4.154277324676514,-1.4918517768383026,1.6887023896355835e+18,77.65058337402343,-3.4414772391319275,-13.31067419052124,-0.4447658658027649,1.6887023896355835e+18,77.65058337402343,-3.409972667694092,-9.138892650604248,0.984398514032364,1.688702389635581e+18,77.65058064778646,1.5675310691197712,7.6339322328567505,-3.6376006603240967,1.6887023896399084e+18,77.65490836588542,1.2730940555532773,5.6636879444122314,-3.4020612935225167,,,,,,,,,,,,1.6887023896391148e+18,77.65411484375,14.801039695739746,47.42139892578125,-3.555079936981201,1.6887023896391148e+18,77.65411484375,-239.73975524902343,142.8863952636719,-136.76687927246093,1.6887023896355835e+18,77.65058337402343,0.5616000890731812,-0.8238663077354431,-0.0166581894300179,0.0687673911452293,-2.8808743953704834,1.1901044249534607,-0.137402445077896
2.7,1.6887023896788365e+18,77.69383618164062,2.162022590637207,4.187130928039551,1.001035173734029,1.6887023896788365e+18,77.69383618164062,-1.4877374569574993,-4.914259433746338,1.5728820860385897,1.6887023896788365e+18,77.69383618164062,-3.6556061108907065,-9.08388582865397,0.5091594854990641,1.6887023896874852e+18,77.70248486328126,-1.102866272131602,-7.106399059295654,1.7249816457430522,1.6887023896918075e+18,77.70680786132813,-1.2562952836354573,-7.289556821187337,1.878868818283081,,,,,,,,,,,,1.6887023896891192e+18,77.70411909179687,16.855519485473632,47.206678771972655,-1.5689200043678284,1.6887023896891192e+18,77.70411909179687,-237.6852783203125,142.6716766357422,-134.7807159423828,1.6887023896788365e+18,77.69383618164062,0.1770099202791849,-0.2827741305033366,-0.0226109791547059,0.0366463751221695,-3.026820182800293,1.173055370648702,-0.1246421535809834
2.75,1.6887023897307397e+18,77.74573958333333,2.44394858678182,9.791385332743326,1.8289642731348672,1.6887023897307397e+18,77.74573958333333,-0.3108675306042035,0.3688935041427612,2.170489509900411,1.6887023897307397e+18,77.74573958333333,-2.7606621583302817,-9.404987335205078,0.2788378447294235,1.6887023897393915e+18,77.75439143880209,-2.5675174395243325,-6.2152994473775225,2.0462458531061807,1.6887023897350666e+18,77.75006677246094,-2.523942470550537,-6.272440671920776,2.101605534553528,,,,,,,,,,,,1.6887023897391186e+18,77.75411860351562,11.843759727478028,48.77315902709961,-1.1248400062322617,1.6887023897391186e+18,77.75411860351562,-242.69703369140623,144.2381591796875,-134.33663635253907,1.6887023897307397e+18,77.74573958333333,-0.5847378770510355,0.7858489354451498,-0.1614905372262,0.1097840641935666,-3.077274640401205,1.2748428185780842,-0.4549368023872375
2.8,1.6887023897826437e+18,77.7976435546875,0.8922573725382487,11.306187947591146,0.7361260255177816,1.6887023897826437e+18,77.7976435546875,-1.2059826254844666,1.7649060885111492,1.8157535791397097,1.6887023897826437e+18,77.7976435546875,-2.1040860414505005,-9.52377732594808,1.016940136750539,1.6887023897912876e+18,77.80628751627604,-2.8815531730651855,-5.65732479095459,1.346957842508952,1.6887023897783206e+18,77.79332063802083,-2.9305750528971353,-5.697336514790853,1.5700763463974,,,,,,,,,,,,1.6887023897891154e+18,77.8041154296875,8.337479591369629,49.161119079589845,-5.294799947738648,1.6887023897891154e+18,77.8041154296875,-246.2033142089844,144.6261199951172,-138.50659790039063,1.6887023897826437e+18,77.7976435546875,-0.5963805516560873,0.7218270500500997,-0.2963652014732361,0.1832247227430343,-2.75611146291097,1.3284719387690227,-1.083343744277954
2.85,1.6887023898345444e+18,77.84954427083333,3.02380899588267,8.416805426279703,-1.7542616327603655,1.6887023898345444e+18,77.84954427083333,0.9437691469987234,-1.037288626035055,-0.0101694980015357,1.6887023898345444e+18,77.84954427083333,-2.085885922114054,-9.436589558919271,1.681404709815979,1.6887023898345482e+18,77.84954833984375,-1.579315721988678,-3.9071704149246216,0.1783726494759321,1.6887023898302228e+18,77.84522281901042,-1.7432058056195576,-4.100636561711629,0.336739460627238,,,,,,,,,,,,1.6887023898391163e+18,77.85411630859375,8.53755989074707,48.543799591064456,-9.533080101013184,1.6887023898391163e+18,77.85411630859375,-246.00323486328125,144.00879516601563,-142.7448760986328,1.6887023898345444e+18,77.84954427083333,-0.5797493855158488,0.6654834548632304,-0.4056018690268199,0.2364889333645502,-2.517169793446859,1.3016781012217205,-1.5766088962554932
2.9,1.6887023898864504e+18,77.9014502766927,2.146213491757711,6.596288522084554,-0.3604317506154378,1.6887023898864504e+18,77.9014502766927,-0.0125623345375061,-2.82532529036204,1.466600884993871,1.6887023898864504e+18,77.9014502766927,-2.164621909459432,-9.404109319051107,1.7643452088038127,1.6887023898778015e+18,77.89280183919271,0.1030835111935933,0.6168720920880636,-0.2693915665149688,1.6887023898821284e+18,77.89712817382814,0.1972076545159021,0.9887363115946451,-0.2705624004205068,,,,,,,,,,,,1.6887023898891151e+18,77.90411518554689,9.196359825134277,48.26807861328125,-10.323639488220214,1.6887023898891151e+18,77.90411518554689,-245.34443359375,143.7330780029297,-143.53544006347656,1.6887023898864504e+18,77.9014502766927,-0.574847936630249,0.6615466674168905,-0.4174131949742635,0.2397573937972386,-2.513361930847168,1.2902971506118774,-1.6053226788838704
2.95,1.6887023899383562e+18,77.95335636393229,-4.645294268925984,-22.380924224853516,9.05854550997416,1.6887023899383562e+18,77.95335636393229,-6.740980307261149,-31.817162831624348,10.881560484568276,1.6887023899383562e+18,77.95335636393229,-2.101532061894735,-9.41873264312744,1.7603272994359334,1.6887023899297055e+18,77.94470589192709,1.1714868148167927,5.009247700373332,-0.8780169983704885,1.6887023899340296e+18,77.94902945963541,1.1078041195869446,5.439296881357829,-1.0520626852909725,,,,,,,,,,,,1.6887023899391127e+18,77.95411274414062,8.408239841461182,48.250999450683594,-10.055239868164062,1.6887023899391127e+18,77.95411274414062,-246.1325531005859,143.71599731445312,-143.26703796386718,1.6887023899383562e+18,77.95335636393229,-0.597326397895813,0.7013204296429952,-0.343330313762029,0.1770191093285878,-2.5094309647878013,1.2922238111495972,-1.3942909240722656
3.0,1.6887023899902597e+18,78.00525919596355,-4.650104840596517,-15.5145050684611,3.102122187614441,1.6887023899902597e+18,78.00525919596355,-6.990830898284912,-24.58665053049723,6.078168272972107,1.6887023899902597e+18,78.00525919596355,-2.346572160720825,-9.054640769958496,2.913358688354492,1.688702389981604e+18,77.99660432942709,-1.6637424230575562,6.612310886383057,-2.2633066972096763,1.6887023899859323e+18,78.00093277994792,-1.9036088188489275,6.204354763031006,-2.244471629460653,1.6887023899686356e+18,77.9836357421875,0.0,0.0,1.1893306970596311,7.439000129699707,2.8912434577941895,357.6695556640625,43.20902115124693,-122.7524125,49.1883161,1.6887023899891164e+18,78.00411625976562,8.552199935913086,47.36527862548828,-14.474080085754396,1.6887023899891164e+18,78.00411625976562,-245.98859252929688,142.8302764892578,-147.68587646484374,1.6887023899902597e+18,78.00525919596355,-0.2058287461598714,0.244894007841746,-0.0911818494399388,0.038491464840869,-2.305354118347168,1.1799614429473877,-1.233398715655009
3.05,1.6887023900421663e+18,78.05716642252604,-2.9204562505086265,-0.8769105275472006,-4.86835773785909,1.6887023900421663e+18,78.05716642252604,-7.036294301350911,-8.679964224497477,-0.7222336928049723,1.6887023900421663e+18,78.05716642252604,-4.121684153874715,-7.78554900487264,4.083436727523804,1.6887023900335112e+18,78.04851123046875,-4.1073051293691,-3.9672643343607583,-4.529311339060466,1.6887023900378417e+18,78.05284147135417,-4.262719551722209,-5.090085585912068,-4.920061270395915,,,,,,,,,,,,1.6887023900391145e+18,78.0541146484375,16.321159744262694,41.50927886962891,-21.95755958557129,1.6887023900391145e+18,78.0541146484375,-238.21963195800785,136.97427673339843,-155.1693603515625,1.6887023900421663e+18,78.05716642252604,0.5280531744162241,-0.7802977959314982,0.3213716646035512,0.0458484074721733,-2.367080052693685,0.9264159401257832,-1.1918687025705974
3.1,1.6887023900854134e+18,78.10041345214844,59.356496810913086,-11.441003322601318,-1.749510943889618,1.6887023900854134e+18,78.10041345214844,52.29603576660156,-17.704195976257324,1.010070264339447,1.6887023900854134e+18,78.10041345214844,-7.066307067871094,-6.2456886768341064,2.696893811225891,1.6887023900854162e+18,78.10041617838542,-2.981327851613363,-6.50836181640625,-1.5995506644248962,1.6887023900897452e+18,78.1047450358073,-2.6151140928268433,-4.966945171356201,-0.7187847296396891,,,,,,,,,,,,1.6887023900891164e+18,78.10411655273438,36.43896026611328,32.54471969604492,-16.806719398498537,1.6887023900891164e+18,78.10411655273438,-218.10183715820312,128.009716796875,-150.01851806640624,1.6887023900854134e+18,78.10041345214844,-0.3651600331068039,0.7912060618400574,-0.4861247539520263,0.0611732881516217,-2.799469828605652,0.691742479801178,-1.2261720895767212
3.15,1.688702390128673e+18,78.14367309570314,3.6401607195536294,-1.508965810139974,-5.214542071024577,1.688702390128673e+18,78.14367309570314,-2.565504550933838,-8.080961068471273,-1.3577274183432262,1.688702390128673e+18,78.14367309570314,-6.211511135101318,-6.554490566253662,3.7941273848215737,1.6887023901373233e+18,78.15232316080728,-0.1903863300879796,3.4319936831792197,1.922392964363098,1.688702390141649e+18,78.15664868164062,-0.0657189252475897,2.913521726926168,2.068746010462443,,,,,,,,,,,,1.688702390139114e+18,78.15411396484375,30.81475982666016,34.062399291992186,-22.367479705810545,1.688702390139114e+18,78.15411396484375,-223.72603759765624,129.52740173339845,-155.57927551269532,1.688702390128673e+18,78.14367309570314,-0.4224250018596649,0.7651052276293436,-0.4844000041484833,0.0248500161493817,-2.615641434987386,0.7349984248479208,-1.336362401644389
3.2,1.688702390180574e+18,78.19557373046875,1.7244242827097576,5.589628616968791,-5.548971811930339,1.688702390180574e+18,78.19557373046875,-3.359523057937622,-1.771685779094696,-1.4554343620936077,1.688702390180574e+18,78.19557373046875,-5.08979336420695,-7.343809922536214,4.030850092569987,1.688702390189224e+18,78.20422387695312,0.7829256057739258,-0.5336416959762573,2.9377527236938477,1.6887023901849044e+18,78.19990441894531,0.7780896127223969,-0.3776674438267946,2.921692132949829,,,,,,,,,,,,1.6887023901891185e+18,78.2041185546875,24.592759704589845,38.146959686279295,-22.979919815063475,1.6887023901891185e+18,78.2041185546875,-229.94803771972656,133.61195373535156,-156.19171447753905,1.688702390180574e+18,78.19557373046875,-0.4857942859331767,0.7354593873023987,-0.4701128800710042,0.0398625253389278,-2.49104905128479,0.8516325751940409,-1.4415569305419922
3.25,1.6887023902324818e+18,78.24748185221354,1.3122782707214355,6.991368293762207,-6.929622173309326,1.6887023902324818e+18,78.24748185221354,-2.836491823196411,-1.245862998068333,-3.5124642848968506,1.6887023902324818e+18,78.24748185221354,-4.154616117477417,-8.219726721445719,3.3544704914093018,1.6887023902411277e+18,78.25612784830729,0.4174754967292149,-2.366186539332072,3.339854876200358,1.6887023902281536e+18,78.24315380859375,0.5743660430113474,-1.9799669583638508,3.2373313109079995,,,,,,,,,,,,1.688702390239113e+18,78.25411303710936,19.900639724731445,42.2339584350586,-19.790839385986327,1.688702390239113e+18,78.25411303710936,-234.6401550292969,137.6989532470703,-153.00263366699218,1.6887023902324818e+18,78.24748185221354,-0.5229539672533671,0.6969470183054606,-0.4753275712331136,0.1179286564389864,-2.4745678106943765,1.000650982062022,-1.5720350742340088
