seconds_elapsed_rounded,accelerometer_time,accelerometer_seconds_elapsed,accelerometer_z,accelerometer_y,accelerometer_x,accelerometeruncalibrated_time,accelerometeruncalibrated_seconds_elapsed,accelerometeruncalibrated_z,accelerometeruncalibrated_y,accelerometeruncalibrated_x,gravity_time,gravity_seconds_elapsed,gravity_z,gravity_y,gravity_x,gyroscope_time,gyroscope_seconds_elapsed,gyroscope_z,gyroscope_y,gyroscope_x,gyroscopeuncalibrated_time,gyroscopeuncalibrated_seconds_elapsed,gyroscopeuncalibrated_z,gyroscopeuncalibrated_y,gyroscopeuncalibrated_x,location_time,location_seconds_elapsed,location_bearingAccuracy,location_speedAccuracy,location_verticalAccuracy,location_horizontalAccuracy,location_speed,location_bearing,location_altitude,location_longitude,location_latitude,magnetometer_time,magnetometer_seconds_elapsed,magnetometer_z,magnetometer_y,magnetometer_x,magnetometeruncalibrated_time,magnetometeruncalibrated_seconds_elapsed,magnetometeruncalibrated_z,magnetometeruncalibrated_y,magnetometeruncalibrated_x,orientation_time,orientation_seconds_elapsed,orientation_qz,orientation_qy,orientation_qx,orientation_qw,orientation_roll,orientation_pitch,orientation_yaw
0.0,1.6887025807121357e+18,60.007135579427086,4.066371997197469,10.085848808288574,0.8793147802352905,1.6887025807121357e+18,60.007135579427086,0.8913264324267706,0.7928219189246496,1.1316056648890178,1.6887025807121357e+18,60.007135579427086,-3.180891672770182,-9.275522549947103,0.1896034789582093,1.6887025807034842e+18,59.99848429361979,-2.683123826980591,-4.4938812255859375,0.1457931647698084,1.6887025807034842e+18,59.99848429361979,-2.684040069580078,-4.489197810490926,0.1480839153130849,1.6887025807207854e+18,60.01578540039063,0.0,0.0,4.081239700317383,7.256999969482422,2.693367719650269,0.8125824928283691,43.400001525878906,-122.7524014,49.1883282,1.688702580703656e+18,59.998655859375006,10.294359970092774,49.295319366455075,1.903199937939644,1.688702580703656e+18,59.998655859375006,-244.2464385986328,144.76031799316405,-131.3085968017578,1.6887025807121357e+18,60.007135579427086,-0.5727420647939047,0.8186744650204977,-0.0261790379881858,0.0168765590836603,-1.038697083791097,1.2198181947072346,-0.0703371663888295
0.05,1.6887025807553818e+18,60.0503818359375,3.370140314102173,7.466184139251709,-0.3483700454235076,1.6887025807553818e+18,60.0503818359375,0.3960121423006058,-1.86729896068573,0.4645066931843757,1.6887025807553818e+18,60.0503818359375,-2.9799742698669434,-9.315978527069092,0.750189334154129,1.6887025807553882e+18,60.05038802083334,-0.9921469589074452,0.2229657856126626,0.2307543472076455,1.6887025807553882e+18,60.05038802083334,-0.9931141833464304,0.2277000385026135,0.2330450892137984,,,,,,,,,,,,1.688702580753661e+18,60.04866103515625,9.001159858703613,49.60519866943359,-2.3423999547958374,1.688702580753661e+18,60.04866103515625,-245.53963623046872,145.0701934814453,-135.55419921875,1.6887025807553818e+18,60.0503818359375,-0.5809186100959778,0.8105964064598083,-0.0720348022878169,0.0162172317504882,-2.966469645500183,1.2348791360855105,-0.3017966598272323
0.1,1.6887025807986414e+18,60.093641601562496,1.611360788345337,2.7413970629374185,2.8782339493433633,1.6887025807986414e+18,60.093641601562496,-1.3573286632696788,-6.557929118474324,4.0410787264506025,1.6887025807986414e+18,60.093641601562496,-2.9745354652404785,-9.281821568806969,1.100157340367635,1.6887025808072916e+18,60.10229150390625,0.967559645573298,6.137312173843384,-1.544827292362849,1.6887025808072916e+18,60.10229150390625,0.9665924608707428,6.141995429992676,-1.5425365666548412,,,,,,,,,,,,1.688702580803661e+18,60.09866098632813,8.962119865417481,49.37827835083008,-3.962559938430786,1.688702580803661e+18,60.09866098632813,-245.57867431640625,144.84327697753906,-137.1743591308594,1.6887025807986414e+18,60.093641601562496,0.5777947306632996,-0.8137033979098002,0.0289487520543237,0.0381573094055056,-2.8577014605204263,1.2221635580062866,-0.2705555111169815
0.15,1.6887025808505457e+18,60.14554549153646,-15.183046499888102,-33.995443979899086,8.935733636220297,1.6887025808505457e+18,60.14554549153646,-19.197018305460613,-42.73840459187826,10.861022154490152,1.6887025808505457e+18,60.14554549153646,-4.0198179880778,-8.725454966227213,1.862600882848104,1.6887025808591903e+18,60.15419067382813,0.9633853832880656,8.068358739217123,-5.391140143076579,1.6887025808591903e+18,60.15419067382813,0.962367316087087,8.072991371154785,-5.388849417368571,,,,,,,,,,,,1.6887025808536653e+18,60.14866513671875,15.618439865112304,46.96999969482422,-5.697399997711182,1.6887025808536653e+18,60.14866513671875,-238.92235717773437,142.43499755859375,-138.90919799804686,1.6887025808505457e+18,60.14554549153646,0.4933865169684092,-0.835708737373352,-0.1315033808350562,0.1858229885498682,-2.743389368057251,1.0748067895571392,0.0718238999446232
0.2,1.688702580902448e+18,60.19744799804687,-5.24970014890035,-8.684608141581217,-5.432862122853597,1.688702580902448e+18,60.19744799804687,-10.466804583867392,-16.447664896647137,-2.3924237887064614,1.688702580902448e+18,60.19744799804687,-5.222950458526611,-7.745552221934001,2.977750857671102,1.6887025809110948e+18,60.20609480794271,-2.8303932348887124,-2.0512345830599465,-1.5279776255289714,1.6887025809110948e+18,60.20609480794271,-2.8313094774881997,-2.046551396449407,-1.5256868998209636,,,,,,,,,,,,1.688702580903659e+18,60.19865908203125,23.763159561157227,43.03427963256836,-10.848239707946778,1.688702580903659e+18,60.19865908203125,-230.7776336669922,138.49927368164063,-144.0600372314453,1.688702580902448e+18,60.19744799804687,0.3940873742103576,-0.864113430182139,-0.1772887905438741,0.2569136470556259,-2.6426305770874023,0.8828385273615519,0.165457434952259
0.25,1.6887025809543462e+18,60.249346272786454,53.46407699584961,-2.1656082471211757,-9.07923412322998,1.6887025809543462e+18,60.249346272786454,46.120260874430336,-8.183254023392996,-6.678767045338948,1.6887025809543462e+18,60.249346272786454,-7.349663098653157,-6.000140984853108,2.3377793629964194,1.6887025809543514e+18,60.24935144042969,-3.036763906478882,-7.751498222351075,-5.287420392036437,1.6887025809543514e+18,60.24935144042969,-3.037680149078369,-7.746840476989746,-5.285129651427269,,,,,,,,,,,,1.6887025809536612e+18,60.248661328125,36.15591888427734,34.772439575195314,-9.418399906158449,1.6887025809536612e+18,60.248661328125,-218.38487854003907,130.23743743896483,-142.63019409179688,1.6887025809543462e+18,60.249346272786454,0.2999786635239919,-0.936704655488332,-0.0822252941628296,0.1503862341245015,-2.8476434548695884,0.6299310922622681,0.0764985332886377
0.3,1.688702581006255e+18,60.30125512695312,-2.6681509017944336,-0.7747149467468262,-5.881926854451497,1.688702581006255e+18,60.30125512695312,-9.197810808817543,-7.4995048840840655,-2.9553353786468506,1.688702581006255e+18,60.30125512695312,-6.535505930582683,-6.707285404205322,2.8639042377471924,1.6887025809976005e+18,60.29260050455729,-0.6921103273828825,2.710001786549886,3.9237402280171714,1.6887025809976005e+18,60.29260050455729,-0.693128414452076,2.714583416779836,3.926030953725179,,,,,,,,,,,,1.6887025810036577e+18,60.29865791015625,32.94243965148926,37.3173583984375,-11.5119197845459,1.6887025810036577e+18,60.29865791015625,-221.59835510253907,132.78235473632813,-144.72371520996094,1.688702581006255e+18,60.30125512695312,0.350933293501536,-0.9181113839149476,-0.052011868606011,0.1741421570380528,-2.7514143784840903,0.7245819369951884,-0.0375979385959604
0.35,1.6887025810581542e+18,60.35315413411458,1.5285022258758545,8.246725718180338,-4.641769727071126,1.6887025810581542e+18,60.35315413411458,-3.8233317534128823,0.405982236067454,-2.099502444267273,1.6887025810581542e+18,60.35315413411458,-5.357680002848308,-7.823239167531331,2.47957992553711,1.688702581049504e+18,60.34450398763021,0.2194533385336399,-1.9302324056625368,3.4784704049428306,1.688702581049504e+18,60.34450398763021,0.218537038192153,-1.9254981676737468,3.4807611306508384,,,,,,,,,,,,1.688702581053658e+18,60.34865791015625,25.19787940979004,42.62192001342773,-10.962919807434082,1.688702581053658e+18,60.34865791015625,-229.342919921875,138.08692016601563,-144.17471923828126,1.6887025810581542e+18,60.35315413411458,0.4355507890383402,-0.8859616120656332,-0.0332286258538563,0.1528904438018798,-2.741431474685669,0.898985763390859,-0.1200028310219446
0.4,1.6887025811100608e+18,60.40506062825521,1.9482098420461016,3.5714543660481772,-7.569679578145345,1.6887025811100608e+18,60.40506062825521,-2.385644268244505,-5.0153563022613525,-5.542574882507324,1.6887025811100608e+18,60.40506062825521,-4.3397001425425215,-8.569306055704752,1.9644174575805664,1.688702581101411e+18,60.39641088867188,-1.5160656968752544,-4.053141832351685,3.4383060137430825,1.688702581101411e+18,60.39641088867188,-1.5169820586840312,-4.0485603014628095,3.4405967394510903,,,,,,,,,,,,1.688702581103659e+18,60.39865913085937,18.500079345703124,46.11599960327148,-9.018239784240723,1.688702581103659e+18,60.39865913085937,-236.04071960449215,141.58099670410155,-142.23003845214845,1.6887025811100608e+18,60.40506062825521,0.5093240141868591,-0.8545935750007629,0.0420729327015578,0.0824121857682863,-2.76283860206604,1.045101284980774,-0.3192703078190484
0.45,1.6887025811619668e+18,60.45696712239583,18.438470204671223,-28.17020543416341,-3.8301246960957847,1.6887025811619668e+18,60.45696712239583,15.422739187876385,-37.37967872619629,-2.242274284362793,1.6887025811619668e+18,60.45696712239583,-3.0215773582458496,-9.19196923573812,1.525162974993388,1.6887025811533176e+18,60.44831762695313,2.1962642470995584,3.520416498184204,2.5360070864359536,1.6887025811533176e+18,60.44831762695313,2.1951952377955117,3.525150616963705,2.5382978518803916,,,,,,,,,,,,1.6887025811536591e+18,60.44865908203125,12.024319744110109,47.95575790405273,-8.36675968170166,1.6887025811536591e+18,60.44865908203125,-242.51647338867187,143.4207550048828,-141.57855529785155,1.6887025811619668e+18,60.45696712239583,0.5708242257436117,-0.8135817845662435,0.0195883388320605,0.074863647421201,-2.7419371604919434,1.1988444725672405,-0.3204371954003969
0.5,1.6887025812052173e+18,60.50021728515625,1.4422398805618286,-20.321876525878903,6.687053918838501,1.6887025812052173e+18,60.50021728515625,-0.8359924405813217,-29.804101943969727,7.930711746215821,1.6887025812052173e+18,60.50021728515625,-2.284078359603882,-9.464720249176024,1.1809702515602112,1.6887025812052175e+18,60.5002176920573,4.79569951693217,22.608784357706707,-2.3361014127731323,1.6887025812052175e+18,60.5002176920573,4.794732252756755,22.61341667175293,-2.333708882331848,,,,,,,,,,,,1.688702581203665e+18,60.498664990234374,7.400519943237304,49.44171905517578,-1.029679962992668,1.688702581203665e+18,60.498664990234374,-247.14027709960936,144.9067169189453,-134.2414794921875,1.6887025812052173e+18,60.50021728515625,0.5194594264030457,-0.7290208041667938,-0.3051304519176483,0.3077523708343505,-2.6727858781814575,1.2732954025268557,0.4438634663820267
0.55,1.6887025812484588e+18,60.54345874023437,-0.1779667536417643,0.8446650505065918,-3.3420773347218833,1.6887025812484588e+18,60.54345874023437,-2.8971100449562073,-8.44347365697225,-1.6053845783074696,1.6887025812484588e+18,60.54345874023437,-2.724989334742228,-9.270634015401203,1.674005389213562,1.688702581257123e+18,60.55212296549479,0.0385354167471329,-2.6025404930114746,-1.0102183719476063,1.688702581257123e+18,60.55212296549479,0.0375682041049003,-2.5979081789652505,-1.0079276363054912,1.6887025812398203e+18,60.534820556640625,0.0,0.0,4.0827155113220215,7.300000190734863,2.7084105014801025,0.601336658000946,43.400001525878906,-122.7524018,49.1883353,1.688702581253658e+18,60.5486578125,13.995839881896972,48.329078674316406,-1.32247998714447,1.688702581253658e+18,60.5486578125,-240.54495849609376,143.79407958984376,-134.53427734375,1.6887025812484588e+18,60.54345874023437,0.4002708395322163,-0.653294841448466,-0.4700568219025929,0.4375283320744832,-2.5567915439605713,1.2076202630996704,0.837381899356842
0.6,1.6887025813003697e+18,60.59536987304688,2.303218046824137,6.720532258351644,1.197657346725464,1.6887025813003697e+18,60.59536987304688,-0.6466603477795919,-2.604388028383255,2.178465644518534,1.6887025813003697e+18,60.59536987304688,-2.9557243982950845,-9.3074156443278,0.9181209007898966,1.688702581309024e+18,60.604024007161456,-1.2519174218177795,-7.7887864112854,1.0437651077906291,1.688702581309024e+18,60.604024007161456,-1.2528846263885498,-7.784153938293457,1.0461067358652751,,,,,,,,,,,,1.688702581303656e+18,60.59865615234376,13.776239585876464,48.4583984375,1.8617199301719665,1.688702581303656e+18,60.59865615234376,-240.76455383300785,143.92340087890625,-131.35007934570314,1.6887025813003697e+18,60.59536987304688,0.4765299161275227,-0.7185404499371847,-0.3811204135417938,0.3288068572680155,-2.818220297495524,1.2188029289245603,0.7487908800443014
0.65,1.688702581352278e+18,60.64727815755208,2.5482872327168784,10.701282819112144,1.235790014266968,1.688702581352278e+18,60.64727815755208,-0.2364906457563241,1.3098710179328918,2.0574286778767905,1.688702581352278e+18,60.64727815755208,-2.790623982747396,-9.373907407124838,0.7589512666066488,1.6887025813609236e+18,60.65592366536458,-1.9413806597391765,-5.930992603302002,0.5922338465849558,1.6887025813609236e+18,60.65592366536458,-1.94239874680837,-5.926258087158203,0.5945754945278168,,,,,,,,,,,,1.688702581353662e+18,60.648661914062494,11.031239891052246,49.35143814086914,2.005679965019226,1.688702581353662e+18,60.648661914062494,-243.50955505371093,144.81643676757812,-131.20611267089845,1.688702581352278e+18,60.64727815755208,0.5391353567441305,-0.7689298788706461,-0.2520449558893839,0.22954623401165,-2.886199394861857,1.2424054940541585,0.4501585165659587
0.7,1.6887025814041818e+18,60.699181803385414,1.2333923975626628,10.735404332478842,0.8627870082855225,1.6887025814041818e+18,60.699181803385414,-1.6855441828568776,1.4069797595342,1.9150556723276777,1.6887025814041818e+18,60.699181803385414,-2.9247825940450034,-9.310920079549154,0.9895812670389812,1.688702581404181e+18,60.699180908203125,-2.1357375383377075,-5.7956602573394775,0.2008219510316848,1.688702581404181e+18,60.699180908203125,-2.1367303133010864,-5.791002511978149,0.2031126916408538,,,,,,,,,,,,1.688702581403661e+18,60.698661181640624,9.269560050964357,49.44415817260742,-0.2610799789428711,1.688702581403661e+18,60.698661181640624,-245.27123413085937,144.9091583251953,-133.4728759765625,1.6887025814041818e+18,60.699181803385414,0.5625565052032471,-0.8025659521420797,-0.1259574567278225,0.1473443234960238,-2.856144666671753,1.2279284000396729,0.1096839005282769
0.75,1.688702581456085e+18,60.75108487955729,3.522526502609253,7.448408126831055,0.1471476952234904,1.688702581456085e+18,60.75108487955729,0.5210371414820353,-1.8225332647562027,1.458624800046285,1.688702581456085e+18,60.75108487955729,-3.0073354244232178,-9.253436724344889,1.2487897078196208,1.688702581447434e+18,60.74243400065104,-1.4222469727198284,-3.2061262925465903,0.3473787059386571,1.688702581447434e+18,60.74243400065104,-1.42316331466039,-3.201442837715149,0.3497203489144643,,,,,,,,,,,,1.688702581453663e+18,60.74866313476563,9.23051986694336,49.30507888793945,-2.9060400247573854,1.688702581453663e+18,60.74866313476563,-245.3102783203125,144.77007751464845,-136.11783752441406,1.688702581456085e+18,60.75108487955729,0.5716843207677206,-0.814634382724762,-0.0300824735313653,0.0918310930331547,-2.8047974904378257,1.2142246166865032,-0.1613618557651837
0.8,1.688702581507984e+18,60.802984212239586,-0.5037136872609457,-3.1307247479756675,3.236118793487549,1.688702581507984e+18,60.802984212239586,-3.185644606749217,-12.467204252878824,4.769094944000244,1.688702581507984e+18,60.802984212239586,-2.687776962916056,-9.31897513071696,1.4702887535095217,1.6887025814993377e+18,60.79433764648437,0.6227262156705061,3.4393749634424844,0.1823941767215728,1.6887025814993377e+18,60.79433764648437,0.6218098948399226,3.444007396697998,0.184684932231903,,,,,,,,,,,,1.6887025815036588e+18,60.79865888671875,7.864119815826416,49.47343978881836,-3.74783992767334,1.6887025815036588e+18,60.79865888671875,-246.67667541503903,144.93843688964844,-136.95963439941406,1.688702581507984e+18,60.802984212239586,0.5770322481791178,-0.8032348155975342,-0.0600753482431173,0.1305312812328338,-2.7024412155151367,1.2341176668802898,-0.164712332189083
0.85,1.688702581559892e+18,60.85489208984375,-8.930540402730307,-30.299933115641277,2.716792742411295,1.688702581559892e+18,60.85489208984375,-12.272388458251951,-39.346579233805336,4.587838550408681,1.688702581559892e+18,60.85489208984375,-3.347694158554077,-9.02914047241211,1.8083582321802776,1.6887025815512369e+18,60.84623673502605,1.0495174104968708,6.477513154347737,-3.423187017440796,1.6887025815512369e+18,60.84623673502605,1.0484993010759354,6.482247511545817,-3.420896291732788,,,,,,,,,,,,1.6887025815536594e+18,60.848659375,11.101999759674072,48.8634391784668,-3.545319890975952,1.6887025815536594e+18,60.848659375,-243.4387939453125,144.32843933105468,-136.75711669921876,1.688702581559892e+18,60.85489208984375,0.5122446020444235,-0.8054254253705343,-0.1834214528401692,0.2291278342405954,-2.6800804138183594,1.147708813349406,0.1458254282673199
0.9,1.6887025816117957e+18,60.90679557291667,-2.3278037707010903,-6.143903732299805,-6.321532249450684,1.6887025816117957e+18,60.90679557291667,-6.867002169291179,-14.398810386657717,-3.513062397638957,1.6887025816117957e+18,60.90679557291667,-4.545044422149658,-8.237402280171713,2.7457825342814126,1.688702581603143e+18,60.89814322916667,-1.7212146123250325,0.9821186065673828,-2.775211731592814,1.688702581603143e+18,60.89814322916667,-1.722232739130656,0.9868018825848898,-2.7728700637817383,,,,,,,,,,,,1.6887025816036613e+18,60.898661474609376,18.64403953552246,45.74755859375,-7.705519771575927,1.6887025816036613e+18,60.898661474609376,-235.89675598144532,141.21255493164062,-140.91731872558594,1.6887025816117957e+18,60.90679557291667,0.4221928616364797,-0.8344427148501078,-0.2168712466955184,0.2790487209955851,-2.6165738900502524,0.9721362590789796,0.2266338616609573
0.95,1.6887025816550423e+18,60.950042358398434,45.82863235473633,-3.010281801223755,-5.8403990268707275,1.6887025816550423e+18,60.950042358398434,38.82145404815674,-9.436394929885864,-3.60089910030365,1.6887025816550423e+18,60.950042358398434,-7.013025283813477,-6.408608436584473,2.1768125891685486,1.688702581655048e+18,60.95004777018229,-2.9184087117513022,-8.342433929443361,-6.009844859441121,1.688702581655048e+18,60.95004777018229,-2.919426918029785,-8.337750752766928,-6.007554093996684,,,,,,,,,,,,1.6887025816536604e+18,60.94866040039062,32.422719192504886,38.05667953491211,-7.8494797706604,1.6887025816536604e+18,60.94866040039062,-222.11807556152343,133.52167663574218,-141.061279296875,1.6887025816550423e+18,60.950042358398434,0.3136083334684372,-0.917480319738388,-0.1575753092765808,0.1747371591627597,-2.8459593057632446,0.6858945786952972,0.2296414300799369
1.0,1.688702581698297e+18,60.99329711914063,17.76852210362752,-3.119826316833496,-6.485394636789958,1.688702581698297e+18,60.99329711914063,10.486744244893393,-9.393424034118652,-4.579264243443807,1.688702581698297e+18,60.99329711914063,-7.28762420018514,-6.2560930252075195,1.8434429168701172,1.6887025817069445e+18,61.00194449869792,-1.7071138223012288,2.7708847522735596,3.583081007003784,1.6887025817069445e+18,61.00194449869792,-1.7081319292386372,2.775618950525919,3.585371732711792,,,,,,,,,,,,1.6887025817036618e+18,60.99866176757812,35.79479904174805,35.71427917480469,-6.307399797439575,1.6887025817036618e+18,60.99866176757812,-218.74599609375,131.1792785644531,-139.51919555664062,1.688702581698297e+18,60.99329711914063,0.316779355208079,-0.934537967046102,-0.0920989289879798,0.1275693674882253,-2.907768487930298,0.662847618261973,0.1133506620923677
1.05,1.6887025817502057e+18,61.04520572916667,0.910585880279541,5.840603351593018,-4.327248573303223,1.6887025817502057e+18,61.04520572916667,-4.99302323659261,-1.6317056367794671,-1.9110677242279053,1.6887025817502057e+18,61.04520572916667,-5.909455140431722,-7.454804420471191,2.353493611017863,1.6887025817588554e+18,61.05385555013021,0.0675515135129292,-1.711898962656657,3.495981772740682,1.6887025817588554e+18,61.05385555013021,0.066584313288331,-1.7072156469027202,3.49827249844869,1.6887025817588534e+18,61.05385327148438,0.0,0.0,4.0827155113220215,7.331999778747559,2.7237308025360107,0.3996652364730835,43.400001525878906,-122.7524026,49.1883543,1.6887025817536594e+18,61.048659472656254,28.04047966003418,41.472679138183594,-9.052399826049804,1.6887025817536594e+18,61.048659472656254,-226.50031433105468,136.93767700195312,-142.26419982910156,1.6887025817502057e+18,61.04520572916667,0.3993127346038818,-0.898715595404307,-0.0758942663669585,0.1625074942906697,-2.787839889526367,0.8374651670455933,0.0097546397397915
1.1,1.6887025818021056e+18,61.097105712890624,1.6798466046651204,8.306755860646566,-5.819072246551514,1.6887025818021056e+18,61.097105712890624,-3.133002440134684,-0.0683948596318562,-4.022733767827352,1.6887025818021056e+18,61.097105712890624,-4.818695068359375,-8.357646306355795,1.733651081720988,1.6887025818107546e+18,61.10575447591146,-1.2610294620196023,-3.411987860997518,3.587000767389933,1.6887025818107546e+18,61.10575447591146,-1.2619458039601643,-3.407304525375366,3.589291493097941,,,,,,,,,,,,1.6887025818036616e+18,61.09866147460938,20.971799468994146,45.54015884399414,-6.84419994354248,1.6887025818036616e+18,61.09866147460938,-233.568994140625,141.00515747070312,-140.05599975585938,1.6887025818021056e+18,61.097105712890624,0.4791307946046193,-0.8694620132446289,-0.0301731176829586,0.1109456519285837,-2.831251541773478,0.9990169803301492,-0.1014634308715661
1.15,1.6887025818540073e+18,61.149007486979166,10.579268455505373,-16.824162483215332,-8.384191672007242,1.6887025818540073e+18,61.149007486979166,7.249056299527486,-25.918057123819988,-6.764310201009114,1.6887025818540073e+18,61.149007486979166,-3.3360582192738852,-9.07638963063558,1.5571937561035156,1.6887025818626609e+18,61.157660644531255,2.197791278362274,5.806936105092366,2.9465085665384927,1.6887025818626609e+18,61.157660644531255,2.196824153264364,5.811568419138591,2.948850154876709,,,,,,,,,,,,1.688702581853658e+18,61.148657812500005,12.47815990447998,48.02407989501953,-6.458679866790772,1.688702581853658e+18,61.148657812500005,-242.06263427734376,143.48907470703125,-139.67047424316405,1.6887025818540073e+18,61.149007486979166,0.5572582284609476,-0.8253899812698364,0.0122023162742455,0.0804071227709452,-2.7574973106384277,1.1666288773218791,-0.2857769131660461
1.2,1.6887025819059116e+18,61.20091137695312,8.456366856892904,-24.85208511352539,3.836334983507792,1.6887025819059116e+18,61.20091137695312,6.438088417053223,-34.41437276204427,4.907878637313843,1.6887025819059116e+18,61.20091137695312,-2.0241244633992515,-9.544782320658364,1.0088561773300169,1.6887025819059174e+18,61.20091735839844,5.842391490936279,23.071922302246097,-1.6042084693908691,1.6887025819059174e+18,61.20091735839844,5.841322660446167,23.076656341552734,-1.601917743682861,,,,,,,,,,,,1.6887025819036603e+18,61.19866049804688,5.526599979400634,49.344119262695315,-0.5294800281524659,1.6887025819036603e+18,61.19866049804688,-249.01419372558593,144.80912170410156,-133.74127807617188,1.6887025819059116e+18,61.20091137695312,0.528778483470281,-0.7114269932111105,-0.3057257235050201,0.3051141450802484,-2.689900000890096,1.309179186820984,0.4634646326303482
1.25,1.688702581957817e+18,61.25281697591146,-2.251193722089132,-0.5090300242106119,-3.8664069970448818,1.688702581957817e+18,61.25281697591146,-5.007978320121766,-9.853843053181969,-2.5643083254496255,1.688702581957817e+18,61.25281697591146,-2.762630542119344,-9.327308336893717,1.239411433537801,1.6887025819491663e+18,61.24416625976562,0.1768963982661565,3.3160822689533234,-2.474513332049052,1.6887025819491663e+18,61.24416625976562,0.1758782863616943,3.320765659213066,-2.472222606341044,,,,,,,,,,,,1.6887025819536594e+18,61.24865942382812,13.236999893188475,48.1631591796875,0.38307999484241,1.6887025819536594e+18,61.24865942382812,-241.30379333496097,143.62815856933594,-132.82871704101564,1.688702581957817e+18,61.25281697591146,0.4050650993982951,-0.6379273136456808,-0.4919179280598958,0.4307543933391571,-2.6729025840759277,1.2283414999643962,0.97977081934611
1.3,1.6887025820097208e+18,61.30472102864584,2.217258294423422,7.492950439453125,1.999327818552653,1.6887025820097208e+18,61.30472102864584,-0.6993023753166199,-1.8727825606862705,2.6023940245310464,1.6887025820097208e+18,61.30472102864584,-2.9224067529042563,-9.348228772481283,0.5403788387775421,1.6887025820010673e+18,61.29606730143229,-1.2622003157933552,-8.65682601928711,0.7441865801811218,1.6887025820010673e+18,61.29606730143229,-1.2632184227307637,-8.652193705240885,0.7464773058891296,,,,,,,,,,,,1.6887025820036552e+18,61.29865522460938,13.68107967376709,48.116798400878906,3.284239888191223,1.6887025820036552e+18,61.29865522460938,-240.859716796875,143.58179931640626,-129.92755737304688,1.6887025820097208e+18,61.30472102864584,0.4916803538799286,-0.7171482642491659,-0.3807309468587239,0.3088069955507914,-2.9315549532572427,1.2344423532485962,0.8268073598543803
1.35,1.6887025820616233e+18,61.356623128255215,2.6227640310923257,10.550148963928224,1.5408501625061035,1.6887025820616233e+18,61.356623128255215,-0.2612164616584778,1.1722837289174397,2.11545459429423,1.6887025820616233e+18,61.356623128255215,-2.889826536178589,-9.360360781351725,0.5119170347849528,1.6887025820529713e+18,61.34797102864584,-2.208481470743815,-7.051624774932861,0.2691879491321742,1.6887025820529713e+18,61.34797102864584,-2.20944873491923,-7.04694143931071,0.2714787010724345,,,,,,,,,,,,1.6887025820536612e+18,61.34866118164062,10.557879638671874,49.0122787475586,3.220800018310547,1.6887025820536612e+18,61.34866118164062,-243.98291931152343,144.4772735595703,-129.99099426269532,1.6887025820616233e+18,61.356623128255215,0.546850343545278,-0.7768175403277079,-0.234762484828631,0.1996533672014872,-2.9768524964650473,1.2397527694702148,0.4694496790568034
1.4,1.688702582104872e+18,61.399871826171875,1.9342585802078247,10.377222537994385,1.342904567718506,1.688702582104872e+18,61.399871826171875,-1.2756735384464264,1.1159526407718658,2.0673987865448,1.688702582104872e+18,61.399871826171875,-3.215778112411499,-9.243765354156494,0.6618067622184753,1.6887025821048778e+18,61.399877929687506,-2.201252897580465,-6.4239606857299805,-0.4624249935150146,1.6887025821048778e+18,61.399877929687506,-2.20222008228302,-6.419328371683757,-0.4601342380046844,,,,,,,,,,,,1.6887025821036603e+18,61.398660546875,10.69451961517334,49.356319427490234,0.9637999653816224,1.6887025821036603e+18,61.398660546875,-243.84627380371097,144.82131958007812,-132.247998046875,1.688702582104872e+18,61.399871826171875,0.5580623149871826,-0.813491016626358,-0.1131648607552051,0.1143467836081981,-2.973170518875122,1.2074638605117798,0.1602930873632431
1.45,1.68870258214813e+18,61.44312988281249,9.581746419270832,8.347923119862875,-1.2664579153060913,1.68870258214813e+18,61.44312988281249,6.626722653706868,-0.9832506701350212,-0.4061816353350878,1.68870258214813e+18,61.44312988281249,-2.960869630177816,-9.313669522603352,0.7975889046986898,1.688702582156772e+18,61.45177205403646,-0.0853684196869532,1.6058120528856914,1.706910212834676,1.688702582156772e+18,61.45177205403646,-0.0863356217741966,1.6104953090349834,1.709251840909322,,,,,,,,,,,,1.6887025821536632e+18,61.44866323242187,8.910879802703857,49.59543914794922,-0.8979199916124344,1.6887025821536632e+18,61.44866323242187,-245.62991638183593,145.06043701171876,-134.109716796875,1.68870258214813e+18,61.44312988281249,0.5736499627431234,-0.8113103111584982,-0.065185435116291,0.0899566238125165,-2.9235666592915854,1.230997920036316,0.0050265927954266
1.5,1.688702582200035e+18,61.49503499348958,-0.5842330853144327,5.202252388000488,1.6055804093678792,1.688702582200035e+18,61.49503499348958,-2.93838624159495,-4.303292115529378,2.464009165763855,1.688702582200035e+18,61.49503499348958,-2.359999179840088,-9.48803997039795,0.7957413593928019,1.6887025822086843e+18,61.503684244791664,1.4485142230987549,3.3833789030710855,-0.5538511276245117,1.6887025822086843e+18,61.503684244791664,1.447597901026408,3.388062318166097,-0.5515603919823965,,,,,,,,,,,,1.6887025822036603e+18,61.49866040039062,5.826719760894775,50.00291976928711,0.5123999774456024,1.6887025822036603e+18,61.49866040039062,-248.71407470703124,145.467919921875,-132.69939575195312,1.688702582200035e+18,61.49503499348958,0.5923122962315878,-0.7867090304692587,-0.111801691353321,0.1308652162551879,-2.8699985345204673,1.2933136224746704,0.0767727495792011
1.55,1.6887025822519378e+18,61.54693790690104,-10.707956631978352,-17.409119923909504,5.344875653584798,1.6887025822519378e+18,61.54693790690104,-14.11805216471354,-26.577480634053547,6.121039708455403,1.6887025822519378e+18,61.54693790690104,-3.41594131787618,-9.150856018066406,0.7134766976038615,1.6887025822605893e+18,61.55558935546875,1.0763954520225525,4.099465688069661,-4.136983156204224,1.6887025822605893e+18,61.55558935546875,1.0754282474517822,4.104149103164673,-4.1346414883931475,1.6887025822778898e+18,61.572889892578125,0.0,0.0,4.155368328094482,7.335999965667725,2.7358033657073975,0.4128561913967132,43.400001525878906,-122.7524028,49.1883617,1.6887025822536586e+18,61.54865864257813,12.378119850158692,48.673118591308594,1.9007599353790283,1.6887025822536586e+18,61.54865864257813,-242.1626770019531,144.13811645507812,-131.3110382080078,1.6887025822519378e+18,61.54693790690104,0.529491106669108,-0.7994423906008402,-0.2122114996115366,0.1831511706113815,-2.9527316093444824,1.1838555733362834,0.389837086200714
1.6,1.6887025823038415e+18,61.598841796875,-11.64175271987915,-19.806281407674152,-0.9671271244684856,1.6887025823038415e+18,61.598841796875,-16.49233039220174,-28.21536636352539,0.5204389194647471,1.6887025823038415e+18,61.598841796875,-4.856423695882161,-8.391580899556478,1.424878676732381,1.6887025823124913e+18,61.60749129231771,-2.5533149242401123,-0.2037744422753652,-2.036064783732096,1.6887025823124913e+18,61.60749129231771,-2.5542312065760293,-0.1990911662578582,-2.0337740182876587,,,,,,,,,,,,1.688702582303659e+18,61.59865908203125,20.96692008972168,45.63775787353516,-0.8979199886322021,1.688702582303659e+18,61.59865908203125,-233.5738739013672,141.10275573730468,-134.10971374511718,1.6887025823038415e+18,61.598841796875,0.4396828015645345,-0.8326172431310018,-0.2530494978030522,0.2209057211875915,-2.869967063268026,1.0049018065134685,0.4415282408396403
1.65,1.6887025823557353e+18,61.650735026041666,28.65779423713684,-9.087084929148356,-8.350078423817953,1.6887025823557353e+18,61.650735026041666,22.15713890393575,-16.12602965037028,-6.732206265131633,1.6887025823557353e+18,61.650735026041666,-6.506502628326416,-7.021440347035726,1.5551847020785017,1.6887025823557448e+18,61.65074462890625,-2.518597364425659,-3.899992823600769,-8.191397309303284,1.6887025823557448e+18,61.65074462890625,-2.519513726234436,-3.89525842666626,-8.189106583595276,,,,,,,,,,,,1.6887025823536602e+18,61.64866015625,28.391839599609376,40.99931945800781,-4.313919925689698,1.6887025823536602e+18,61.64866015625,-226.14895324707032,136.46431579589844,-137.5257141113281,1.6887025823557353e+18,61.650735026041666,0.3566591739654541,-0.8965850671132406,-0.18775009115537,0.1639228512843449,-2.9065595467885337,0.7836998701095581,0.309367686510086
1.7,1.6887025824076485e+18,61.70264876302084,30.81595468521118,-5.835031509399414,-5.0546964804331465,1.6887025824076485e+18,61.70264876302084,22.961525281270344,-11.66162077585856,-4.987041155497233,1.6887025824076485e+18,61.70264876302084,-7.860275586446126,-5.809084574381511,0.0049680595596631,1.6887025823989957e+18,61.69399584960937,-1.694081981976827,-3.3936619361241664,0.3954333464304606,1.6887025823989957e+18,61.69399584960937,-1.6951510508855183,-3.3890295823415126,0.3977240721384684,,,,,,,,,,,,1.688702582403659e+18,61.69865908203125,40.2843994140625,32.34951934814453,3.657559847831726,1.688702582403659e+18,61.69865908203125,-214.256396484375,127.81451721191408,-129.55423889160156,1.6887025824076485e+18,61.70264876302084,0.1210230390230814,-0.3080244263013204,-0.0370279600222905,0.0349336441916723,1.039747714996338,0.6093823512395223,0.2465617855389912
1.75,1.6887025824595515e+18,61.754551920572915,-1.0967973073323567,5.424193064371745,-2.55737034479777,1.6887025824595515e+18,61.754551920572915,-7.101698080698649,-2.2873389798526964,-1.848056674003601,1.6887025824595515e+18,61.754551920572915,-6.010746796925862,-7.694027582804362,0.6466263135274252,1.688702582450906e+18,61.74590559895833,0.2916881466905276,0.1391245573759079,5.3264396985371905,1.688702582450906e+18,61.74590559895833,0.2906700372695923,0.143807828426361,5.328781286875407,,,,,,,,,,,,1.688702582453658e+18,61.74865791015625,30.79767951965332,40.65039978027344,-0.2659599959850311,1.688702582453658e+18,61.74865791015625,-223.743115234375,136.1153991699219,-133.47775573730468,1.6887025824595515e+18,61.754551920572915,0.4177960952123006,-0.8953421115875244,-0.1209425628185272,0.0885111888249714,-3.0528201262156167,0.8796903689702352,0.2277709146340687
1.8,1.68870258251145e+18,61.806449951171864,0.6600657304128011,9.322661717732748,-2.424391031265259,1.68870258251145e+18,61.806449951171864,-3.479164123535156,0.4404787619908651,-2.659422953923543,1.68870258251145e+18,61.806449951171864,-4.145075877507527,-8.864678382873535,-0.2977192879964908,1.6887025825028032e+18,61.79780314127604,-0.2002619927128156,-4.379445711771647,4.289750258127849,1.6887025825028032e+18,61.79780314127604,-0.2011782949169476,-4.374762296676636,4.2920918464660645,,,,,,,,,,,,1.6887025825036588e+18,61.79865878906249,19.217439651489254,46.347798919677736,3.162239933013916,1.6887025825036588e+18,61.79865878906249,-235.32335815429687,141.81279907226562,-130.049560546875,1.68870258251145e+18,61.806449951171864,0.153744488954544,-0.2932517329851786,-0.0463770069181919,0.0288165609041849,3.038326899210612,1.1100573142369587,0.250228852033615
1.85,1.6887025825547085e+18,61.84970837402344,6.990936636924744,-9.05102825164795,-8.724645614624023,1.6887025825547085e+18,61.84970837402344,4.482654243707657,-18.530317306518555,-9.197710990905762,1.6887025825547085e+18,61.84970837402344,-2.5141282081604004,-9.461785316467283,-0.5357529819011688,1.6887025825547113e+18,61.84971126302083,-1.0663671294848125,-2.7662524382273355,3.568471113840739,1.6887025825547113e+18,61.84971126302083,-1.0674360990524292,-2.7615181605021157,3.5707618395487466,,,,,,,,,,,,1.6887025825536614e+18,61.8486615234375,7.773839950561523,49.478318786621095,3.7990798950195312,1.6887025825536614e+18,61.8486615234375,-246.76695556640624,144.9433166503906,-129.41271362304687,1.6887025825547085e+18,61.84970837402344,-0.6011828780174255,0.7973252832889557,-0.0052526993677019,0.0484780929982661,2.8859376907348633,1.2857502102851868,0.178920954465866
1.9,1.688702582597961e+18,61.89296118164062,15.150967995325724,-31.08510939280192,1.8274259567260744,1.688702582597961e+18,61.89296118164062,13.198012351989746,-40.67499415079752,1.099103291829427,1.688702582597961e+18,61.89296118164062,-1.958801786104838,-9.572380383809408,-0.7910101811091105,1.6887025826066104e+18,61.90161067708333,4.2652647495269775,20.1054588953654,-0.3219768206278483,1.6887025826066104e+18,61.90161067708333,4.264297644297282,20.11014207204183,-0.3196860949198405,,,,,,,,,,,,1.688702582603664e+18,61.898664257812506,2.68887996673584,49.40755996704102,6.9637597560882565,1.688702582603664e+18,61.898664257812506,-251.85191650390624,144.87255859375,-126.24803771972655,1.688702582597961e+18,61.89296118164062,0.1911470095316569,-0.241676906744639,-0.1427365802228451,0.0875007845461368,2.7556565602620444,1.3298997084299724,0.7068458298842112
1.95,1.6887025826498632e+18,61.944863118489586,-4.052237431208293,0.2297304471333821,-2.198446273803711,1.6887025826498632e+18,61.944863118489586,-6.9876402815183,-9.142178058624268,-2.011566162109375,1.6887025826498632e+18,61.944863118489586,-2.941248814264933,-9.354404131571451,0.1241927246252695,1.688702582658511e+18,61.95351114908854,0.8488481442133585,6.450228055318196,-0.6137159466743469,1.688702582658511e+18,61.95351114908854,0.8478809595108032,6.454809506734212,-0.6114251961310705,,,,,,,,,,,,1.6887025826536591e+18,61.9486591796875,13.576159858703614,47.37015914916992,8.086159706115723,1.6887025826536591e+18,61.9486591796875,-240.96463623046876,142.83515625,-125.1256378173828,1.6887025826498632e+18,61.944863118489586,0.455501655737559,-0.6485211054484049,-0.4859034915765126,0.3620777527491252,-0.9627002080281576,1.244988481203715,1.225437879562378
2.0,1.6887025827017636e+18,61.996763671874994,2.35439924399058,5.728764057159424,1.3781496385733287,1.6887025827017636e+18,61.996763671874994,-0.8624131679534912,-3.546362559000651,1.1236296345790229,1.6887025827017636e+18,61.996763671874994,-3.222658395767212,-9.257622083028158,-0.317207367469867,1.6887025827104092e+18,62.00540926106771,-1.3563753962516785,-8.368803024291992,-0.3042108975350856,1.6887025827104092e+18,62.00540926106771,-1.3573425610860188,-8.364119529724121,-0.301920140782992,,,,,,,,,,,,1.6887025827036626e+18,61.9986626953125,14.903519630432127,47.04563980102539,9.06947956085205,1.6887025827036626e+18,61.9986626953125,-239.63727416992188,142.51063232421876,-124.14231567382812,1.6887025827017636e+18,61.996763671874994,0.4815414746602376,-0.6843493580818176,-0.4518519143263499,0.3032666246096293,0.989736557006836,1.213320215543111,1.2069083452224731
2.05,1.68870258275367e+18,62.04867008463541,5.64788818359375,10.09890333811442,3.049741586049398,1.68870258275367e+18,62.04867008463541,2.571087976296743,0.7890332341194153,2.49591334660848,1.68870258275367e+18,62.04867008463541,-3.082646290461222,-9.292365709940592,-0.6165156364440918,1.68870258276232e+18,62.05731982421875,-2.4570017655690513,-6.246758937835693,-0.3762929886579513,1.68870258276232e+18,62.05731982421875,-2.457918167114258,-6.242024898529053,-0.3740022480487823,,,,,,,,,,,,1.6887025827536604e+18,62.048660546875,11.521679878234863,48.1411994934082,9.72827968597412,1.6887025827536604e+18,62.048660546875,-243.0191162109375,143.6061981201172,-123.48351593017578,1.68870258275367e+18,62.04867008463541,0.5454162160555521,-0.7549330989519755,-0.3105902870496114,0.1836991111437479,2.9608476956685386,1.2220751841862996,0.9072872598965964
2.1,1.6887025828055716e+18,62.10057137044271,1.5761870940526326,10.69595718383789,1.756201942761739,1.6887025828055716e+18,62.10057137044271,-1.6654045581817627,1.424527128537496,1.6406787236531577,1.6887025828055716e+18,62.10057137044271,-3.2474377155303955,-9.253925323486328,-0.1782106657822926,1.688702582805575e+18,62.10057470703125,-2.5996897220611572,-5.062087535858154,-0.6393468379974365,1.688702582805575e+18,62.10057470703125,-2.6006059646606445,-5.057353496551514,-0.6370560824871063,1.6887025827969242e+18,62.09192407226563,0.0,0.0,4.155368328094482,7.328999996185303,2.752774715423584,0.3481228053569793,43.400001525878906,-122.752403,49.1883832,1.6887025828036613e+18,62.09866118164062,11.16543960571289,48.83171844482422,6.3220398902893065,1.6887025828036613e+18,62.09866118164062,-243.37535705566407,144.29671630859374,-126.88975830078124,1.6887025828055716e+18,62.10057137044271,0.5580742756525675,-0.79953400293986,-0.1859051932891209,0.1146475498874982,3.0710485776265464,1.2119906743367512,0.5062312881151835
2.15,1.6887025828574682e+18,62.15246826171875,3.615474383036295,7.792993227640788,-0.1689889033635457,1.6887025828574682e+18,62.15246826171875,0.1202393472194671,-1.386241890490055,0.077567329009374,1.6887025828574682e+18,62.15246826171875,-3.5010811487833657,-9.161730766296388,0.1838688229521115,1.68870258284882e+18,62.14381974283854,-1.81762957572937,-3.329470078150431,-0.4959207673867543,1.68870258284882e+18,62.14381974283854,-1.8185458183288576,-3.324786822001139,-0.4936300317446391,,,,,,,,,,,,1.6887025828536532e+18,62.14865336914063,11.677839851379394,49.007398986816405,2.9865599632263184,1.6887025828536532e+18,62.14865336914063,-242.86295471191409,144.47239990234374,-130.22523498535156,1.6887025828574682e+18,62.15246826171875,0.555914024511973,-0.8239144881566366,-0.0877389386296271,0.0639071899155775,-3.1213608582814536,1.1877638498942058,0.198672687013944
2.2,1.6887025829093742e+18,62.204374267578125,0.0680529276529948,0.8151151339213053,0.7845839262008667,1.6887025829093742e+18,62.204374267578125,-3.61934365828832,-8.272984663645426,1.383849134047826,1.6887025829093742e+18,62.204374267578125,-3.6932426293691,-9.070595105489096,0.5365778009096781,1.6887025829007224e+18,62.19572224934896,-0.1482366373141606,1.9313013938566048,-0.5694791277249653,1.6887025829007224e+18,62.19572224934896,-0.1491529395182927,1.93603556851546,-0.5671883722146353,,,,,,,,,,,,1.6887025829036544e+18,62.198654296875,12.370799827575684,48.61211929321289,1.3517599701881409,1.6887025829036544e+18,62.198654296875,-242.1700012207031,144.07711791992188,-131.86004028320312,1.6887025829093742e+18,62.204374267578125,0.5436061422030131,-0.8301015098889669,-0.0878317629297574,0.0839593994120756,-3.0310341517130532,1.162722110748291,0.1383253882328668
2.25,1.6887025829612782e+18,62.25627815755208,-9.829250494639078,-31.506663004557293,2.1777060826619468,1.6887025829612782e+18,62.25627815755208,-13.687942504882812,-40.4877560933431,3.216751277446747,1.6887025829612782e+18,62.25627815755208,-3.864538113276163,-8.963587443033854,0.9763577779134112,1.6887025829526285e+18,62.24762866210938,1.9887736439704895,6.2331671714782715,-0.7742207944393158,1.6887025829526285e+18,62.24762866210938,1.9878064393997192,6.237850348154704,-0.771930068731308,,,,,,,,,,,,1.6887025829536538e+18,62.248653955078126,14.547279739379883,48.13875885009766,-0.1878799974918365,1.6887025829536538e+18,62.248653955078126,-239.99351806640624,143.6037567138672,-133.39967346191406,1.6887025829612782e+18,62.25627815755208,0.5103462835152944,-0.8169333934783936,-0.193920537829399,0.1791524092356363,-2.9158257643381753,1.132952888806661,0.3222395678361257
2.3,1.6887025830045343e+18,62.299534179687505,-2.5485438108444214,-8.119710445404053,-6.111037969589233,1.6887025830045343e+18,62.299534179687505,-6.605386972427368,-16.944773197174072,-4.6007996797561646,1.6887025830045343e+18,62.299534179687505,-4.062689185142517,-8.807558536529541,1.4475507736206057,1.688702583004533e+18,62.29953312174479,-0.3322598040103912,4.468123038609822,-1.8747454086939497,1.688702583004533e+18,62.29953312174479,-0.3331761062145233,4.472755352656047,-1.8724038203557332,,,,,,,,,,,,1.6887025830036554e+18,62.29865532226563,16.526119422912597,47.25303955078125,-0.583159989118576,1.6887025830036554e+18,62.29865532226563,-238.01467590332032,142.71803588867186,-133.79495544433593,1.6887025830045343e+18,62.299534179687505,0.4647394716739654,-0.7977384328842163,-0.2836741060018539,0.2583100870251655,-2.8127917051315308,1.0938984155654907,0.4823075085878372
2.35,1.6887025830477804e+18,62.342780273437505,6.421515782674153,1.7447268168131511,-9.619515419006348,1.6887025830477804e+18,62.342780273437505,1.1050853530565898,-5.987041632334392,-6.935795783996582,1.6887025830477804e+18,62.342780273437505,-5.3222762743632,-7.714263757069905,2.6210323174794516,1.6887025830564332e+18,62.351432942708335,-5.010978539784749,-5.876065631707509,-6.893461386362712,1.6887025830564332e+18,62.351432942708335,-5.011945565541585,-5.871432989835739,-6.891170660654704,,,,,,,,,,,,1.6887025830536558e+18,62.348655859375,24.23407936096191,42.71219940185547,-7.671359729766846,1.6887025830536558e+18,62.348655859375,-230.3067169189453,138.177197265625,-140.8831573486328,1.6887025830477804e+18,62.342780273437505,0.3748199939727783,-0.8439052899678549,-0.2581003954013188,0.2759151061375935,-2.692430098851522,0.8924361268679301,0.3755689064661662
2.4,1.688702583099688e+18,62.39468806966146,38.94510459899902,-7.822880268096924,-7.229971726735433,1.688702583099688e+18,62.39468806966146,31.30370267232259,-13.683355967203775,-5.31126872698466,1.688702583099688e+18,62.39468806966146,-7.64724858601888,-5.842971483866374,1.85601540406545,1.6887025831083356e+18,62.403335693359374,-2.328618367513021,-0.4148283799489338,1.9724839131037395,1.6887025831083356e+18,62.403335693359374,-2.3295346101125083,-0.4101960659027101,1.9747746388117473,,,,,,,,,,,,1.6887025831036544e+18,62.3986544921875,38.400719451904294,33.83791885375977,-5.572959947586059,1.6887025831036544e+18,62.3986544921875,-216.14007568359375,129.30292053222655,-138.78475952148438,1.688702583099688e+18,62.39468806966146,0.2863172193368276,-0.93681401014328,-0.1410636007785797,0.1406084994475046,-2.914959987004598,0.6138463815053304,0.2260729024807611
2.45,1.6887025831515935e+18,62.44659358723958,0.1741007169087728,3.988454818725586,-5.1832248369852705,1.6887025831515935e+18,62.44659358723958,-6.434698740641276,-2.9014968276023865,-2.8713870843251548,1.6887025831515935e+18,62.44659358723958,-6.614645481109619,-6.8724470138549805,2.249150514602661,1.688702583160243e+18,62.45524300130209,-0.5557346642017365,-2.635018110275269,3.4343353112538657,1.688702583160243e+18,62.45524300130209,-0.5566509564717611,-2.6303348938624063,3.4366260369618735,,,,,,,,,,,,1.6887025831536568e+18,62.448656835937506,32.522760009765626,38.476358795166014,-8.764479637145996,1.6887025831536568e+18,62.448656835937506,-222.01803588867188,133.94135437011718,-141.9762756347656,1.6887025831515935e+18,62.44659358723958,0.3560932477315267,-0.9144841432571412,-0.1014659379919369,0.1604185849428176,-2.832730293273926,0.7540033062299093,0.0980816707015037
2.5,1.6887025832035064e+18,62.49850642903646,3.337913672129313,8.18668540318807,-4.628306865692139,1.6887025832035064e+18,62.49850642903646,-2.4303102493286133,0.354137768348058,-3.277967611948649,1.6887025832035064e+18,62.49850642903646,-5.774069945017497,-7.815043290456136,1.287651777267456,1.6887025832121487e+18,62.507148600260415,-1.1018991072972617,-4.035070339838664,2.9573513666788735,1.6887025832121487e+18,62.507148600260415,-1.1029171844323475,-4.03043794631958,2.9596930344899497,,,,,,,,,,,,1.6887025832036613e+18,62.49866127929688,26.364199447631837,42.943999481201175,-5.297239971160889,1.6887025832036613e+18,62.49866127929688,-228.1765930175781,138.40899658203125,-138.50903930664063,1.6887025832035064e+18,62.49850642903646,0.4336933990319569,-0.8949040174484253,-0.0448838776598373,0.0881903693079947,-2.948035796483358,0.9032304286956788,0.0065152576814095
2.55,1.6887025832554048e+18,62.55040486653646,7.88420836130778,-10.237459341684977,-7.214767297108968,1.6887025832554048e+18,62.55040486653646,3.21276307106018,-18.838494141896565,-6.460621198018392,1.6887025832554048e+18,62.55040486653646,-4.677291393280029,-8.583530108133951,0.6914585630098978,1.6887025832554102e+18,62.55041003417968,-0.8058840036392212,-3.018132448196411,3.097086787223816,1.6887025832554102e+18,62.55041003417968,-0.806876629590988,-3.0133983492851257,3.099453926086426,,,,,,,,,,,,1.6887025832536612e+18,62.548661132812505,20.315439224243164,45.79635925292969,-3.3964798927307127,1.6887025832536612e+18,62.548661132812505,-234.2253570556641,141.26135864257813,-136.6082763671875,1.6887025832554048e+18,62.55040486653646,0.502387672662735,-0.8635643323262533,0.0286445748060941,0.0150047906984885,-3.0316596825917563,1.0502783854802449,-0.1297171041369438
2.6,1.6887025833073088e+18,62.602308837890625,7.052446365356445,-33.642202377319336,7.250343362490336,1.6887025833073088e+18,62.602308837890625,3.984647591908773,-42.960537592569985,7.6925259828567505,1.6887025833073088e+18,62.602308837890625,-3.073645035425822,-9.300830523173014,0.3794947465260823,1.688702583298661e+18,62.59366080729166,6.225582281748454,16.956703186035156,2.616793990135193,1.688702583298661e+18,62.59366080729166,6.2246659596761065,16.961437225341797,2.6190847158432007,1.6887025833159583e+18,62.61095825195312,0.0,0.0,4.1378889083862305,7.313000202178955,2.7599635124206543,0.3647460341453552,43.400001525878906,-122.7524026,49.1883903,1.688702583303661e+18,62.59866127929688,11.924279594421389,48.31443862915039,1.0028399944305422,1.688702583303661e+18,62.59866127929688,-242.61651306152345,143.7794403076172,-132.2089599609375,1.6887025833073088e+18,62.602308837890625,0.5404601891835531,-0.7793360153834025,-0.2023272824784119,0.1674839345117409,-3.026153564453125,1.2249146699905396,0.4299903896947701
2.65,1.6887025833592092e+18,62.6542090657552,0.3380016485850011,0.9457818667093912,-1.9027255574862163,1.6887025833592092e+18,62.6542090657552,-2.440878629684448,-8.437291940053305,-1.0069794865945976,1.6887025833592092e+18,62.6542090657552,-2.7847262223561606,-9.36556911468506,0.8330586155255636,1.688702583350557e+18,62.64555696614584,1.9944749971230824,10.59810479482015,-1.113250970840454,1.688702583350557e+18,62.64555696614584,1.9935079117616017,10.60283891359965,-1.1109602451324463,,,,,,,,,,,,1.6887025833536563e+18,62.64865639648438,12.956399536132812,48.24123916625977,3.6282799243927,1.6887025833536563e+18,62.64865639648438,-241.5843933105469,143.70623474121095,-129.5835205078125,1.6887025833592092e+18,62.6542090657552,0.4217333793640136,-0.6330396135648092,-0.4989972015221913,0.4141813615957896,-2.8074053128560386,1.2472219864527383,1.0930078824361165
2.7,1.6887025834111135e+18,62.706113606770835,2.366075038909912,6.391345342000325,1.9294482866923015,1.6887025834111135e+18,62.706113606770835,-0.879561722278595,-2.8719854156176248,2.3988046646118164,1.6887025834111135e+18,62.706113606770835,-3.2514827251434326,-9.24582608540853,0.4066689908504486,1.6887025834024632e+18,62.69746321614584,-1.5510377883911133,-8.049574851989746,-0.0696386297543843,1.6887025834024632e+18,62.69746321614584,-1.5519540309906006,-8.044942537943522,-0.0673478879034519,,,,,,,,,,,,1.6887025834036613e+18,62.69866127929688,14.38135986328125,47.57755966186524,4.982479858398437,1.6887025834036613e+18,62.69866127929688,-240.15943603515623,143.0425567626953,-128.22931671142578,1.6887025834111135e+18,62.706113606770835,0.4701278507709503,-0.7049035827318827,-0.4206585387388865,0.3186347385247548,-2.989945332209269,1.2066983779271443,0.9715339740117392
2.75,1.6887025834543685e+18,62.74936853027344,3.1417418718338013,10.207852840423584,2.2571083307266235,1.6887025834543685e+18,62.74936853027344,-0.1205384470522403,0.9445667266845704,2.586043119430542,1.6887025834543685e+18,62.74936853027344,-3.268126368522644,-9.245781421661375,0.266247421503067,1.6887025834543665e+18,62.74936637369792,-2.48739242553711,-7.597992738087972,0.1978694349527359,1.6887025834543665e+18,62.74936637369792,-2.4883086681365967,-7.59330940246582,0.2001601805289586,,,,,,,,,,,,1.6887025834536563e+18,62.74865634765625,12.453759956359862,48.61699905395508,4.862919902801513,1.6887025834536563e+18,62.74865634765625,-242.0870330810547,144.08199768066407,-128.348876953125,1.6887025834543685e+18,62.74936853027344,0.5230075120925903,-0.7673433721065521,-0.2960860133171081,0.2209263071417808,-3.058951735496521,1.2070903778076172,0.679534912109375
2.8,1.6887025834976212e+18,62.792621175130215,2.003955602645874,11.091182072957356,1.951189438501994,1.6887025834976212e+18,62.792621175130215,-1.351147174835205,1.8658034404118855,2.4005993207295737,1.6887025834976212e+18,62.792621175130215,-3.3609488010406494,-9.207873980204264,0.3867224852244059,1.6887025835062715e+18,62.801271484375,-2.745941082636515,-6.834004084269206,-0.0149152930825949,1.6887025835062715e+18,62.801271484375,-2.7468574047088623,-6.82942263285319,-0.0126245481272538,,,,,,,,,,,,1.6887025835036628e+18,62.79866284179688,11.558279991149902,49.12451934814453,2.0739999532699587,1.6887025835036628e+18,62.79866284179688,-242.9825134277344,144.58951721191406,-131.1377960205078,1.6887025834976212e+18,62.792621175130215,0.5484013160069784,-0.8069357872009277,-0.1659015665451685,0.1334781646728515,-3.0496548811594644,1.1995401779810588,0.342816228667895
2.85,1.6887025835495247e+18,62.84452465820312,6.022902488708496,8.689078013102213,0.0988338390986124,1.6887025835495247e+18,62.84452465820312,2.555534501870474,-0.478365143140157,0.8225327779849371,1.6887025835495247e+18,62.84452465820312,-3.4732139905293784,-9.149938583374023,0.661011536916097,1.68870258355817e+18,62.85317016601562,-1.7407114505767822,-2.457052697738012,0.3687589888771375,1.68870258355817e+18,62.85317016601562,-1.7417295376459758,-2.4524712363878884,0.3710497294863065,,,,,,,,,,,,1.6887025835536584e+18,62.848658300781246,11.10687999725342,49.24651870727539,-0.9076799869537352,1.6887025835536584e+18,62.848658300781246,-243.4339141845703,144.71151428222657,-134.11947937011718,1.6887025835495247e+18,62.84452465820312,0.5582776268323263,-0.8267988165219625,-0.032681204068164,0.0553759907682736,-2.993519147237142,1.186843752861023,-0.0210848102966944
2.9,1.6887025836014282e+18,62.896428222656255,2.56667951742808,5.875138759613037,0.2644759019215901,1.6887025836014282e+18,62.896428222656255,-0.5828516992429892,-3.368695537249247,1.3932209809621174,1.6887025836014282e+18,62.896428222656255,-3.155377229054769,-9.2263298034668,1.0660576820373535,1.6887025836100782e+18,62.90507820638021,0.2630792955557505,2.8471920092900596,0.1105666061242421,1.6887025836100782e+18,62.90507820638021,0.2621629933516184,2.8518752654393515,0.1128573616345723,,,,,,,,,,,,1.6887025836036593e+18,62.89865908203125,9.491599845886231,49.25627975463867,-3.2012799263000487,1.6887025836036593e+18,62.89865908203125,-245.0491973876953,144.72127685546874,-136.41307983398437,1.6887025836014282e+18,62.896428222656255,0.5703469316164652,-0.8183116714159647,-0.0126650178184111,0.0677277992169061,-2.8649566968282065,1.2095532814661665,-0.1609964122374852
2.95,1.6887025836533286e+18,62.94832861328124,-7.641515731811523,-17.074975331624348,5.874043305714925,1.6887025836533286e+18,62.94832861328124,-11.115458965301514,-26.15853722890218,7.283552805582683,1.6887025836533286e+18,62.94832861328124,-3.4797890186309814,-9.066057205200195,1.346821904182434,1.6887025836619817e+18,62.956981852213545,2.504700263341268,6.290384928385417,-3.4649295012156167,1.6887025836619817e+18,62.956981852213545,2.503783901532491,6.295118967692058,-3.462638775507609,,,,,,,,,,,,1.688702583653658e+18,62.9486578125,11.170319747924804,48.85123901367187,-3.35743989944458,1.688702583653658e+18,62.9486578125,-243.37047729492187,144.3162414550781,-136.56924133300782,1.6887025836533286e+18,62.94832861328124,0.5371240973472595,-0.8202937444051107,-0.1121459578474362,0.1514895111322402,-2.805626630783081,1.1625932057698567,0.0480748818566401
3.0,1.6887025837052347e+18,63.00023486328124,-12.008668263753256,-22.31239064534505,-6.057448069254558,1.6887025837052347e+18,63.00023486328124,-16.737594922383625,-30.818758010864254,-4.709473729133606,1.6887025837052347e+18,63.00023486328124,-4.734772523244222,-8.488862673441568,1.2852867444356282,1.688702583705232e+18,63.000232177734375,0.7166976481676102,1.9227747321128843,-2.6973519325256348,1.688702583705232e+18,63.000232177734375,0.7157813161611557,1.9275089502334597,-2.6950610876083374,,,,,,,,,,,,1.688702583703659e+18,62.998659082031246,18.72699966430664,46.45027923583984,-1.4518000125885009,1.688702583703659e+18,62.998659082031246,-235.8137969970703,141.91527709960937,-134.6635986328125,1.6887025837052347e+18,63.00023486328124,0.4551892777283986,-0.835038443406423,-0.2315317293008168,0.2036788562933603,-2.888637065887451,1.025272786617279,0.3977854152520497
3.05,1.6887025837571387e+18,63.05213867187499,29.863094488779705,-1.534353256225586,-5.622712294260661,1.6887025837571387e+18,63.05213867187499,23.62393983205159,-8.793623288472494,-3.8079779148101807,1.6887025837571387e+18,63.05213867187499,-6.245000680287679,-7.2417653401692705,1.752047022183736,1.6887025837484838e+18,63.04348364257813,-3.0348803202311196,-1.4669419924418132,-5.384013533592224,1.6887025837484838e+18,63.04348364257813,-3.0358475844065347,-1.462207833925883,-5.381722728411357,,,,,,,,,,,,1.6887025837536612e+18,63.048661181640625,25.468719482421875,43.061119842529294,-3.3891599655151365,1.6887025837536612e+18,63.048661181640625,-229.0720764160156,138.5261199951172,-136.60095825195313,1.6887025837571387e+18,63.05213867187499,0.3711792826652527,-0.8897640506426493,-0.1856922755638758,0.1767110228538513,-2.8813835779825845,0.8178028265635172,0.2993691662947336
3.1,1.6887025838090383e+18,63.10403849283855,24.362577597300213,-3.056722323099772,-6.805980046590169,1.6887025838090383e+18,63.10403849283855,16.733607292175293,-9.042675971984863,-5.302694479624431,1.6887025838090383e+18,63.10403849283855,-7.634817600250244,-5.968448956807454,1.4405984083811445,1.688702583800391e+18,63.09539086914063,-1.8646152814229329,-2.871270378430685,-0.0677042007446289,1.688702583800391e+18,63.09539086914063,-1.8655825058619184,-2.8665870428085327,-0.0653624534606933,,,,,,,,,,,,1.688702583803659e+18,63.09865913085937,38.62276000976563,33.652478790283205,-4.601839971542359,1.688702583803659e+18,63.09865913085937,-215.91803588867188,129.1174774169922,-137.81363830566406,1.6887025838090383e+18,63.10403849283855,0.2983054916063944,-0.9383144776026408,-0.1285948132475216,0.1153510858615238,-2.966082493464152,0.6305827299753824,0.2141257027784983
3.15,1.688702583860949e+18,63.155949137369795,1.4339776833852131,5.718728701273601,-4.43899138768514,1.688702583860949e+18,63.155949137369795,-4.949154774347941,-1.6143576701482136,-3.105484962463379,1.688702583860949e+18,63.155949137369795,-6.388978481292725,-7.315581798553467,1.270819067955017,1.6887025838522888e+18,63.14728881835938,-0.8194757302602133,-2.4231497645378113,4.044844150543213,1.6887025838522888e+18,63.14728881835938,-0.8204938371976217,-2.4184664487838745,4.0472367604573565,1.6887025838349932e+18,63.1299931640625,0.0,0.0,4.1378889083862305,7.331999778747559,2.770143985748291,0.5452080368995667,43.400001525878906,-122.7524017,49.1884081,1.688702583853659e+18,63.14865903320312,32.54471969604492,38.59591903686523,-4.699439954757691,1.688702583853659e+18,63.14865903320312,-221.99607849121097,134.0609130859375,-137.91124267578124,1.688702583860949e+18,63.155949137369795,0.3921391367912292,-0.909824828306834,-0.0828785176078478,0.1014156391223271,-2.9652744134267173,0.8204796115557352,0.105455624560515
3.2,1.688702583904193e+18,63.19919299316406,3.4078670740127563,9.22355604171753,-4.302618861198425,1.688702583904193e+18,63.19919299316406,-1.9226330518722536,0.9972088038921356,-3.700500249862671,1.688702583904193e+18,63.19919299316406,-5.33634614944458,-8.208842754364014,0.5394311398267746,1.688702583904198e+18,63.19919799804688,-1.5338826378186543,-4.2308017412821455,3.575190623601278,1.688702583904198e+18,63.19919799804688,-1.5347989400227864,-4.226067543029785,3.5775322914123535,,,,,,,,,,,,1.688702583903659e+18,63.19865908203125,24.153559494018555,44.3738395690918,-1.9666399717330936,1.688702583903659e+18,63.19865908203125,-230.38723449707032,139.83883666992188,-135.17843627929688,1.688702583904193e+18,63.19919299316406,0.4665571600198746,-0.8830538690090179,-0.0240449029952286,0.0363787971436976,-3.0668469667434692,0.9725669622421264,0.014931087847799
3.25,1.68870258394745e+18,63.242450113932286,8.438909689585367,-4.202781995137532,-4.828555425008138,1.68870258394745e+18,63.242450113932286,4.237489491701126,-13.065010706583658,-4.399403889973958,1.68870258394745e+18,63.242450113932286,-4.2072664101918535,-8.844724337259928,0.3664640486240387,1.688702583956101e+18,63.25110115559895,-0.1564324498176574,-0.9163997173309326,3.0116165479024253,1.688702583956101e+18,63.25110115559895,-0.1573487122853595,-0.9117163022359211,3.013907273610433,,,,,,,,,,,,1.6887025839536622e+18,63.248662158203125,15.291479682922365,47.75079879760742,-1.76167995929718,1.6887025839536622e+18,63.248662158203125,-239.24931945800785,143.2157958984375,-134.97347717285157,1.68870258394745e+18,63.242450113932286,-0.525842010974884,0.8485708435376486,-0.0480117828895647,0.0175838028468812,-3.094237486521403,1.108084758122762,-0.1425540645917256
