seconds_elapsed_rounded,accelerometer_time,accelerometer_seconds_elapsed,accelerometer_z,accelerometer_y,accelerometer_x,accelerometeruncalibrated_time,accelerometeruncalibrated_seconds_elapsed,accelerometeruncalibrated_z,accelerometeruncalibrated_y,accelerometeruncalibrated_x,gravity_time,gravity_seconds_elapsed,gravity_z,gravity_y,gravity_x,gyroscope_time,gyroscope_seconds_elapsed,gyroscope_z,gyroscope_y,gyroscope_x,gyroscopeuncalibrated_time,gyroscopeuncalibrated_seconds_elapsed,gyroscopeuncalibrated_z,gyroscopeuncalibrated_y,gyroscopeuncalibrated_x,location_time,location_seconds_elapsed,location_bearingAccuracy,location_speedAccuracy,location_verticalAccuracy,location_horizontalAccuracy,location_speed,location_bearing,location_altitude,location_longitude,location_latitude,magnetometer_time,magnetometer_seconds_elapsed,magnetometer_z,magnetometer_y,magnetometer_x,magnetometeruncalibrated_time,magnetometeruncalibrated_seconds_elapsed,magnetometeruncalibrated_z,magnetometeruncalibrated_y,magnetometeruncalibrated_x,orientation_time,orientation_seconds_elapsed,orientation_qz,orientation_qy,orientation_qx,orientation_qw,orientation_roll,orientation_pitch,orientation_yaw
0.0,1.6887029262456722e+18,105.00067244466146,1.97275177637736,0.3386197884877522,-4.153410275777181,1.6887029262456722e+18,105.00067244466146,-4.11505667368571,-5.950152397155762,0.3288137093186378,1.6887029262456722e+18,105.00067244466146,-6.09365447362264,-6.271267573038737,4.419536431630452,1.6887029262456722e+18,105.00067244466146,-0.2560034369428952,2.3896539211273193,2.5401304960250854,1.6887029262456722e+18,105.00067244466146,-0.2570724462469419,2.3940827449162803,2.5424212217330933,,,,,,,,,,,,1.6887029262467784e+18,105.00177827148435,-2.5058799147605897,37.32467956542969,-37.754119873046875,1.6887029262467784e+18,105.00177827148435,-259.9258728027344,131.9478790283203,-170.6365173339844,1.6887029262456722e+18,105.00067244466146,0.435413122177124,-0.7994009852409363,0.407611737648646,0.0677953014771143,-2.491464535395304,0.6955077846844991,-1.1873619556427002
0.05,1.6887029262975772e+18,105.05257722981771,0.6302151679992676,3.973875999450683,-5.900688012440999,1.6887029262975772e+18,105.05257722981771,-4.086143334706624,-3.278366486231486,-1.2137593030929563,1.6887029262975772e+18,105.05257722981771,-4.722204526265462,-7.234738032023112,4.624241352081299,1.6887029262975772e+18,105.05257722981771,0.7359399000803629,0.4574362436930339,3.3843461672465005,1.6887029262975772e+18,105.05257722981771,0.7350235978762308,0.4618650476137797,3.3866368929545083,1.6887029262802793e+18,105.035279296875,0.0,0.0,3.6743476390838623,7.407999992370605,2.6684374809265137,159.14508056640625,43.400001525878906,-122.7534497,49.1874906,1.688702926296776e+18,105.05177602539064,-11.3362398147583,36.47555847167969,-35.50443954467774,1.688702926296776e+18,105.05177602539064,-268.7562316894531,131.0987579345703,-168.3868377685547,1.6887029262975772e+18,105.05257722981771,0.5112772683302561,-0.7637567122777303,0.3893266518910725,0.0555198242266972,-2.3412207762400308,0.8300403157869974,-1.312410871187846
0.1,1.688702926349475e+18,105.10447501627606,10.150845448176064,-10.320411205291748,-1.799998919169108,1.688702926349475e+18,105.10447501627606,7.018348217010499,-18.62294006347656,2.435893495877584,1.688702926349475e+18,105.10447501627606,-3.138343652089437,-8.285025119781494,4.173205057779948,1.688702926349475e+18,105.10447501627606,1.7715092698733013,3.102889994780222,2.6237679918607077,1.688702926349475e+18,105.10447501627606,1.770542025566101,3.1073187987009683,2.62605873743693,,,,,,,,,,,,1.688702926346776e+18,105.10177626953126,-18.480559730529784,35.41659927368164,-33.87695960998535,1.688702926346776e+18,105.10177626953126,-275.9005554199219,130.0397979736328,-166.7593566894531,1.688702926349475e+18,105.10447501627606,0.1951444546381632,-0.2465829253196716,0.1089891493320465,0.0155862369574606,-2.180996576944987,1.0047508080800374,-1.4767775138219197
0.15,1.688702926401379e+18,105.15637882486978,-5.383887608846028,-27.25347391764323,11.52462879816691,1.688702926401379e+18,105.15637882486978,-7.481159999966621,-35.80141258239746,15.928023338317873,1.688702926401379e+18,105.15637882486978,-2.1031183004379272,-8.53043301900228,4.340706666310628,1.688702926401379e+18,105.15637882486978,2.0413589080174765,10.350755135218302,-6.6323167483011884,1.688702926401379e+18,105.15637882486978,2.040391763051351,10.355183998743692,-6.630026022593181,,,,,,,,,,,,1.6887029263967793e+18,105.15177934570312,-28.269839096069337,38.9911994934082,-19.773759651184083,1.6887029263967793e+18,105.15177934570312,-285.68983154296876,133.61439819335936,-152.65615539550782,1.688702926401379e+18,105.15637882486978,0.6043530305226644,-0.7581735849380493,0.1419366250435511,0.177730972568194,-1.98881196975708,1.057958682378133,-1.1000354488690691
0.2,1.6887029264446423e+18,105.19964221191408,20.863819122314453,-5.080775499343872,2.5154693126678467,1.6887029264446423e+18,105.19964221191408,16.586448669433594,-12.835699081420898,6.809075832366943,1.6887029264446423e+18,105.19964221191408,-4.283215522766113,-7.737419366836548,4.230919122695923,1.6887029264446423e+18,105.19964221191408,1.7420349717140198,4.298658847808838,-8.148178577423096,1.6887029264446423e+18,105.19964221191408,1.7410423159599304,4.30308735370636,-8.145811557769775,,,,,,,,,,,,1.6887029264467827e+18,105.20178266601565,-12.895400047302246,49.22943954467773,-5.231359815597534,1.6887029264467827e+18,105.20178266601565,-270.3153991699219,143.8526397705078,-138.11375732421874,1.6887029264446423e+18,105.19964221191408,0.4726636260747909,-0.8430114388465881,0.002483488060534,0.2535948306322098,-2.3451720476150513,0.9216643273830414,-0.4188586473464966
0.25,1.6887029264878828e+18,105.2428827311198,2.5070509115854898,6.204796155293782,-0.594710906346639,1.6887029264878828e+18,105.2428827311198,-2.2225334644317627,-1.4237294892470045,3.4335011641184487,1.6887029264878828e+18,105.2428827311198,-4.735430399576823,-7.611021200815837,3.965524673461914,1.6887029264878828e+18,105.2428827311198,1.0185159941514332,-2.516510327657064,0.9774353504180908,1.6887029264878828e+18,105.2428827311198,1.0175996919473012,-2.5120814641316733,0.9797260761260986,,,,,,,,,,,,1.688702926496783e+18,105.25178305664062,-5.0215198516845705,51.142399597167966,-0.7051599740982055,1.688702926496783e+18,105.25178305664062,-262.44150390625,145.76559448242188,-133.58755493164062,1.6887029264878828e+18,105.2428827311198,0.445169856150945,-0.8560802141825358,-0.0418040410925944,0.2572243809700011,-2.4332613945007324,0.9021144509315492,-0.2562792648871739
0.3,1.6887029265397906e+18,105.29479069010416,3.0977654457092285,10.567636489868164,-1.6090113719304402,1.6887029265397906e+18,105.29479069010416,-0.8378867109616598,2.078964094320933,1.4059827129046123,1.6887029265397906e+18,105.29479069010416,-3.941498200098674,-8.47116788228353,2.9523066679636636,1.6887029265397906e+18,105.29479069010416,-0.7166976432005564,-4.871039390563965,4.868545055389404,1.6887029265397906e+18,105.29479069010416,-0.7177157700061798,-4.866610685984294,4.870835781097412,,,,,,,,,,,,1.688702926546782e+18,105.30178198242189,-15.947840118408203,48.12899932861328,-3.9723199129104616,1.688702926546782e+18,105.30178198242189,-273.3678344726562,142.7521942138672,-136.85471801757814,1.6887029265397906e+18,105.29479069010416,0.5297392010688782,-0.8313220342000326,0.0394328587378064,0.1563602189222971,-2.473983208338419,1.0553183555603027,-0.4957358737786611
0.35,1.6887029265916908e+18,105.34669083658856,1.069998860359192,12.406365076700846,-1.7152056694030762,1.6887029265916908e+18,105.34669083658856,-1.3950156172116597,3.331407308578491,1.1641082564989726,1.6887029265916908e+18,105.34669083658856,-2.470860481262207,-9.057453155517578,2.81662654876709,1.6887029265916908e+18,105.34669083658856,-1.5860607226689656,-4.882798671722412,4.709822018941243,1.6887029265916908e+18,105.34669083658856,-1.5869770050048828,-4.8783698081970215,4.712112744649251,,,,,,,,,,,,1.6887029265967803e+18,105.35178071289064,-25.166159439086915,42.107080078125,-12.361039924621585,1.6887029265967803e+18,105.35178071289064,-282.5861572265625,136.73027954101562,-145.24343566894532,1.6887029265916908e+18,105.34669083658856,0.6129447817802429,-0.7708627382914225,0.1515466719865798,0.0689433726171652,-2.2449119885762534,1.1814010938008626,-1.0157586733500164
0.4,1.688702926643592e+18,105.39859204101562,4.667027910550435,8.371587753295898,-2.4936602115631104,1.688702926643592e+18,105.39859204101562,3.35812721028924,-0.8600202798843384,0.6600202283201119,1.688702926643592e+18,105.39859204101562,-1.3147466977437336,-9.21410338083903,3.0909930070241294,1.688702926643592e+18,105.39859204101562,-1.1766791542371111,-4.844619512557983,3.342400074005127,1.688702926643592e+18,105.39859204101562,-1.1776973009109497,-4.8401908079783125,3.3446908791859946,,,,,,,,,,,,1.6887029266467853e+18,105.40178510742189,-28.582159423828124,35.05547943115234,-22.606599426269533,1.6887029266467853e+18,105.40178510742189,-286.0021484375,129.67867736816407,-155.48899536132814,1.688702926643592e+18,105.39859204101562,-0.2272439996401468,0.2171451052029927,-0.1134422868490218,0.0273425110305348,-1.9280925989151,1.2144946654637654,-1.6346242825190227
0.45,1.6887029266954977e+18,105.45049788411455,2.0221182107925415,5.071211655934651,0.5086835225423177,1.6887029266954977e+18,105.45049788411455,1.0243274370829265,-4.1912282307942705,3.695315718650818,1.6887029266954977e+18,105.45049788411455,-1.0036367972691853,-9.244935353597006,3.1239447593688965,1.6887029266954977e+18,105.45049788411455,0.3347032405436039,0.9160433212916056,-0.1810706357161204,1.6887029266954977e+18,105.45049788411455,0.333685136710604,0.9204721053441366,-0.1787798802057902,,,,,,,,,,,,1.6887029266967834e+18,105.451783203125,-28.262519454956056,33.31087951660156,-25.86887969970703,1.6887029266967834e+18,105.451783203125,-285.68251342773436,127.93407897949218,-158.75127258300782,1.6887029266954977e+18,105.45049788411455,-0.6715406974156698,0.673403779665629,-0.303475817044576,0.0573852236072222,-1.8405627806981404,1.2209710677464802,-1.8253069718678792
0.5,1.688702926747398e+18,105.50239794921876,-5.3867612679799395,-18.90153916676839,19.22706890106201,1.688702926747398e+18,105.50239794921876,-6.780062993367513,-28.190042813618977,22.142382939656574,1.688702926747398e+18,105.50239794921876,-1.3991475502649944,-9.27099895477295,2.85262664159139,1.688702926747398e+18,105.50239794921876,1.0021244684855144,5.01459280649821,-4.0176098346710205,1.688702926747398e+18,105.50239794921876,1.0012081265449524,5.019021511077881,-4.0153190692265825,,,,,,,,,,,,1.6887029267467802e+18,105.50177998046874,-29.101879501342772,37.12215957641602,-18.800199699401855,1.6887029267467802e+18,105.50177998046874,-286.521875,131.745361328125,-151.6825958251953,1.688702926747398e+18,105.50239794921876,0.2082213759422302,-0.2582104603449504,0.0450852463642756,0.0275031573449571,-1.9725215037663777,1.2352242072423298,-1.4610402584075928
0.55,1.6887029267992983e+18,105.55429817708334,-1.7954940795898438,-10.615204334259031,7.072417338689168,1.6887029267992983e+18,105.55429817708334,-5.25324281056722,-19.042880376180012,10.743574301401772,1.6887029267992983e+18,105.55429817708334,-3.463594913482666,-8.41017198562622,3.608469565709432,1.6887029267992983e+18,105.55429817708334,-2.6558894316355386,-0.7143559654553732,-4.403524001439412,1.6887029267992983e+18,105.55429817708334,-2.6568565368652344,-0.7099272410074869,-4.401182413101196,1.6887029268021169e+18,105.55711694335938,0.0,0.0,3.6743476390838623,7.401000022888184,2.6698243618011475,158.00672912597656,43.400001525878906,-122.7534307,49.1874783,1.688702926796776e+18,105.55177607421874,-21.12795944213867,42.58287963867187,-17.360599327087403,1.688702926796776e+18,105.55177607421874,-278.54795532226564,137.20607299804686,-150.2429962158203,1.6887029267992983e+18,105.55429817708334,0.5666999618212382,-0.7920217315355936,0.2047421137491861,0.0913432513674099,-2.2995522816975913,1.0375858147939043,-1.0086883306503296
0.6,1.6887029268511992e+18,105.6061993001302,-1.2347010771433513,1.2408552169799805,-3.1490162213643393,1.6887029268511992e+18,105.6061993001302,-6.577669819196065,-5.796014626820882,1.1339985529581706,1.6887029268511992e+18,105.6061993001302,-5.348814805348714,-7.019365151723226,4.220327377319336,1.6887029268511992e+18,105.6061993001302,-3.6755252679189048,-4.796157439549764,-3.339396715164185,1.6887029268511992e+18,105.6061993001302,-3.67649245262146,-4.791728655497233,-3.3371058305104575,,,,,,,,,,,,1.688702926846782e+18,105.60178188476564,-11.053199672698977,42.39255905151367,-25.11247901916504,1.688702926846782e+18,105.60178188476564,-268.473193359375,137.01575927734376,-157.9948760986328,1.6887029268511992e+18,105.6061993001302,0.4716756343841553,-0.8233364820480347,0.2960163950920104,0.09918824583292,-2.4478869438171387,0.8034399549166361,-0.9963125586509703
0.65,1.6887029268944502e+18,105.64945031738282,63.85647010803223,-13.98804259300232,15.07729148864746,1.6887029268944502e+18,105.64945031738282,56.20740509033203,-19.913668632507324,16.594823360443115,1.6887029268944502e+18,105.64945031738282,-7.654912948608398,-5.908121585845947,1.4548441469669342,1.6887029268944502e+18,105.64945031738282,-3.344487190246582,-15.658767223358154,1.6694183349609375,1.6887029268944502e+18,105.64945031738282,-3.3454798460006714,-15.654338359832762,1.671709060668945,,,,,,,,,,,,1.6887029268967777e+18,105.65177768554688,10.926319670677184,38.33727951049805,-31.81027946472168,1.6887029268967777e+18,105.65177768554688,-246.49367980957032,132.96047973632812,-164.69267578125,1.6887029268944502e+18,105.64945031738282,-0.320840522646904,0.8232124149799347,-0.4575513303279876,0.0801902236416935,-2.9369795322418213,0.649584949016571,-1.0820148587226868
0.7,1.6887029269377073e+18,105.69270735677084,15.486749013264976,-1.2463401158650715,1.0135689973831177,1.6887029269377073e+18,105.69270735677084,8.814759413401285,-8.259026845296225,2.584248423576355,1.6887029269377073e+18,105.69270735677084,-6.6778364181518555,-6.995182037353516,1.5079920093218486,1.6887029269377073e+18,105.69270735677084,-1.485573371251424,3.3332881244520345,2.1369084119796753,1.6887029269377073e+18,105.69270735677084,-1.4864896734555562,3.33771679798762,2.139250079790751,,,,,,,,,,,,1.6887029269467796e+18,105.70177978515626,9.862479782104492,36.29255981445313,-34.08679885864258,1.6887029269467796e+18,105.70177978515626,-247.5575164794922,130.91575622558594,-166.96919860839844,1.6887029269377073e+18,105.69270735677084,-0.378883143266042,0.7747799555460612,-0.4879347582658132,0.1292303726077079,-2.8954361279805503,0.7943277955055237,-1.2288031180699666
0.75,1.6887029269896095e+18,105.7446095377604,0.3071152369181316,3.5203121503194175,-2.789107839266459,1.6887029269896095e+18,105.7446095377604,-5.195017337799072,-4.009971857070923,0.3130609691143036,1.6887029269896095e+18,105.7446095377604,-5.507978598276774,-7.5127793947855634,3.0394814014434814,1.6887029269896095e+18,105.7446095377604,0.241546298066775,3.4997998078664145,2.12815268834432,1.6887029269896095e+18,105.7446095377604,0.2405790934960047,3.504228432973226,2.1304434140523276,,,,,,,,,,,,1.6887029269967782e+18,105.75177822265626,-1.3346799366176127,36.18763961791992,-35.40195999145508,1.6887029269967782e+18,105.75177822265626,-258.7546722412109,130.81083984375,-168.28435668945312,1.6887029269896095e+18,105.7446095377604,-0.4675269822279611,0.7606527805328369,-0.445412943760554,0.0605466291308402,-2.611060698827108,0.8719220161437988,-1.3122973044713335
0.8,1.6887029270415045e+18,105.79650472005208,-1.3420726458231609,-3.3817947705586753,-4.0123889446258545,1.6887029270415045e+18,105.79650472005208,-5.130411148071289,-11.81496032079061,-0.6997012024124464,1.6887029270415045e+18,105.79650472005208,-3.7941845258076983,-8.415661176045736,3.250000238418579,1.6887029270415045e+18,105.79650472005208,0.5146030485630035,1.0962485869725545,4.487925052642822,1.6887029270415045e+18,105.79650472005208,0.5136358638604482,1.1006773710250854,4.49021593729655,,,,,,,,,,,,1.688702927046782e+18,105.80178193359374,-10.862879848480224,35.95583953857422,-34.22343826293945,1.688702927046782e+18,105.80178193359374,-268.2828735351562,130.57903747558595,-167.1058380126953,1.6887029270415045e+18,105.79650472005208,-0.5521372556686401,0.7243906855583191,-0.4051725963751475,0.0709760636091232,-2.3957794507344565,1.0306671659151714,-1.459867000579834
0.85,1.6887029270934095e+18,105.84840942382812,11.288379987080893,-29.09408124287923,13.731380303700766,1.6887029270934095e+18,105.84840942382812,9.5082794825236,-38.05166244506836,17.404793739318848,1.6887029270934095e+18,105.84840942382812,-1.785945971806844,-8.940075238545736,3.610726435979207,1.6887029270934095e+18,105.84840942382812,1.0248282353083291,10.481175104777018,-2.3907737731933594,1.6887029270934095e+18,105.84840942382812,1.0238101879755657,10.48560380935669,-2.3884830474853516,,,,,,,,,,,,1.6887029270967788e+18,105.85177880859374,-24.96851921081543,35.27995910644531,-27.44999961853027,1.6887029270967788e+18,105.85177880859374,-282.3885192871094,129.90315856933594,-160.3323974609375,1.6887029270934095e+18,105.84840942382812,0.2236264944076538,-0.249278167883555,0.042987361550331,0.053946762268121,-1.995057662328084,1.1421104272206624,-1.5641506910324097
0.9,1.688702927145313e+18,105.90031290690104,8.613471190134684,-7.77700138092041,3.817875623703003,1.688702927145313e+18,105.90031290690104,5.1162535349528,-16.234304428100586,7.410172939300537,1.688702927145313e+18,105.90031290690104,-3.5030635992685952,-8.439798672993978,3.529609759648641,1.688702927145313e+18,105.90031290690104,2.87223744392395,5.605706691741943,-7.244912783304851,1.688702927145313e+18,105.90031290690104,2.8712703386942544,5.610135555267334,-7.242622057596843,,,,,,,,,,,,1.6887029271467791e+18,105.901779296875,-18.36831912994385,46.0476791381836,-11.321599864959715,1.6887029271467791e+18,105.901779296875,-275.7883056640625,140.6708770751953,-144.20399475097656,1.688702927145313e+18,105.90031290690104,0.5484321117401123,-0.8129387696584066,0.0894331236680348,0.1609225322802861,-2.322112957636515,1.0447215636571248,-0.7140650550524393
0.95,1.688702927197216e+18,105.9522159016927,-0.8323648770650228,6.157373110453288,1.0585360527038574,1.688702927197216e+18,105.9522159016927,-4.893122831980388,-2.333001991113027,3.9070804913838706,1.688702927197216e+18,105.9522159016927,-4.066603978474935,-8.472870508829752,2.7858570416768393,1.688702927197216e+18,105.9522159016927,1.173675792912642,-3.067001779874166,1.4906639456748962,1.688702927197216e+18,105.9522159016927,1.172657646238804,-3.062572951118151,1.492954671382904,,,,,,,,,,,,1.688702927196777e+18,105.95177685546874,-13.236999893188475,49.51979904174805,-3.228120040893555,1.688702927196777e+18,105.95177685546874,-270.65699462890626,144.14299621582032,-136.1105163574219,1.688702927197216e+18,105.9522159016927,0.522856871287028,-0.8365538914998373,0.0194754973053932,0.1588110799590746,-2.523184617360433,1.0546787579854329,-0.4138685862223307
1.0,1.68870292724912e+18,106.00411971028647,2.2779921293258667,11.167801221211752,0.3831222852071126,1.68870292724912e+18,106.00411971028647,-0.8566304842631022,2.1128623286883035,2.5816562175750732,1.68870292724912e+18,106.00411971028647,-3.14046859741211,-9.037434577941896,2.135846535364786,1.68870292724912e+18,106.00411971028647,-1.2043208281199138,-4.710280100504558,3.8429532051086426,1.68870292724912e+18,106.00411971028647,-1.205288032690684,-4.705851236979167,3.8452439308166504,,,,,,,,,,,,1.688702927246782e+18,106.0017818359375,-20.474039840698243,46.255078887939455,-7.481039810180664,1.688702927246782e+18,106.0017818359375,-277.8940368652344,140.87827758789064,-140.36343688964843,1.68870292724912e+18,106.00411971028647,0.585053026676178,-0.800340493520101,0.1083362052838007,0.0597736239433288,-2.506430149078369,1.180347998936971,-0.7050165335337321
1.05,1.6887029273010217e+18,106.05602180989584,0.1772820750872294,12.335456212361654,-0.0968062082926432,1.6887029273010217e+18,106.05602180989584,-1.4476577043533323,2.9553353786468506,2.341775814692179,1.6887029273010217e+18,106.05602180989584,-1.630785842736562,-9.362616856892904,2.375894625981649,1.6887029273010217e+18,106.05602180989584,-1.3361659049987793,-3.9539271195729575,4.7564005851745605,1.6887029273010217e+18,106.05602180989584,-1.3371840119361875,-3.949498256047567,4.758691310882568,1.6887029273183224e+18,106.07332250976565,0.0,0.0,3.6747288703918457,7.426000118255615,2.6701109409332275,155.8650665283203,43.400001525878906,-122.7534074,49.1874695,1.6887029272967777e+18,106.05177758789064,-27.184039688110353,40.51864013671875,-15.628199768066406,1.6887029272967777e+18,106.05177758789064,-284.6040283203125,135.14183654785157,-148.51060180664064,1.6887029273010217e+18,106.05602180989584,-0.2319780786832173,0.2234017451604207,-0.0907531479994455,0.0220717781533797,-2.1100732882817588,1.2666707038879397,-1.356448729832967
1.1,1.688702927344279e+18,106.09927905273436,-0.6354617327451705,11.870705604553224,-1.8644088506698608,1.688702927344279e+18,106.09927905273436,-0.4932205975055694,2.405983090400696,0.8114659935235977,1.688702927344279e+18,106.09927905273436,0.1363950967788696,-9.44721794128418,2.6131874322891235,1.688702927344279e+18,106.09927905273436,-0.4448626041412353,-2.895424962043762,5.359349966049194,1.688702927344279e+18,106.09927905273436,-0.4457789063453674,-2.8909960985183716,5.361640691757202,,,,,,,,,,,,1.6887029273467814e+18,106.10178134765624,-33.17179946899414,31.86883888244629,-22.555359649658204,1.6887029273467814e+18,106.10178134765624,-290.5917907714844,126.4920379638672,-155.43775634765626,1.688702927344279e+18,106.09927905273436,-0.7109218537807465,0.6450493633747101,-0.2673436105251312,0.0797200426459312,-1.4878860712051392,1.2855796813964844,-2.1548701524734497
1.15,1.6887029273875249e+18,106.14252490234374,2.10554846127828,6.258066018422444,-0.5056045452753702,1.6887029273875249e+18,106.14252490234374,2.42093825340271,-3.1770702997843423,2.2277178366978965,1.6887029273875249e+18,106.14252490234374,0.3095438182353973,-9.41763178507487,2.6706349849700928,1.6887029273875249e+18,106.14252490234374,0.7991644591093063,-5.222083409627278,-0.9416487216949462,1.6887029273875249e+18,106.14252490234374,0.7981463521718979,-5.217654546101888,-0.9393579959869384,,,,,,,,,,,,1.6887029273967785e+18,106.1517783203125,-29.216559219360352,29.63135948181152,-29.85583953857422,1.6887029273967785e+18,106.1517783203125,-286.6365539550781,124.25455627441406,-162.7382354736328,1.6887029273875249e+18,106.14252490234374,-0.704114556312561,0.6071796417236328,-0.3330793182055155,0.1497332875927288,-1.4461955626805625,1.27299702167511,-2.400874694188436
1.2,1.6887029274394263e+18,106.19442602539064,1.4217567443847656,6.360240459442139,2.130003730456034,1.6887029274394263e+18,106.19442602539064,-0.2307079831759134,-3.136990567048391,4.019742727279663,1.6887029274394263e+18,106.19442602539064,-1.6583107709884644,-9.479726473490397,1.8270515600840251,1.6887029274394263e+18,106.19442602539064,2.1959078709284463,1.16140749057134,-3.8879536787668862,1.6887029274394263e+18,106.19442602539064,2.1948897441228232,1.1658363143603008,-3.8856629530588784,,,,,,,,,,,,1.688702927446777e+18,106.2017775390625,-20.110479354858395,36.97575912475586,-29.387359619140625,1.688702927446777e+18,106.2017775390625,-277.53046875,131.5989532470703,-162.2697540283203,1.6887029274394263e+18,106.19442602539064,-0.6199497977892557,0.6716993451118469,-0.3598389526208241,0.1838068862756093,-2.2451455195744834,1.3043129841486614,-1.69318425655365
1.25,1.68870292749133e+18,106.24632983398438,-13.36497751871745,-24.043057123819988,22.987120310465496,1.68870292749133e+18,106.24632983398438,-16.399409612019856,-32.99303690592448,25.64547602335612,1.68870292749133e+18,106.24632983398438,-3.0402782758076987,-8.932475090026855,2.5956685543060303,1.68870292749133e+18,106.24632983398438,-0.9516262114048004,9.401419639587402,-4.4036258061726885,1.68870292749133e+18,106.24632983398438,-0.9526443680127462,9.405848503112791,-4.401284138361613,,,,,,,,,,,,1.688702927496784e+18,106.25178388671875,-21.047439575195312,42.21443862915039,-21.16455955505371,1.688702927496784e+18,106.25178388671875,-278.467431640625,136.83763427734374,-154.04695739746094,1.68870292749133e+18,106.24632983398438,-0.2012019753456115,0.2420016924540201,-0.1094540208578109,0.0584699424604574,-2.4088521798451743,1.14979084332784,-1.1316067377726238
1.3,1.6887029275432325e+18,106.2982323404948,-2.975216865539551,-7.057294209798177,2.220661719640096,1.6887029275432325e+18,106.2982323404948,-6.622734944025676,-15.00319766998291,6.725227435429891,1.6887029275432325e+18,106.2982323404948,-3.653364102045695,-7.928399085998535,4.441878239313762,1.6887029275432325e+18,106.2982323404948,-3.6406041781107583,0.2838996375600497,-1.6792176961898804,1.6887029275432325e+18,106.2982323404948,-3.641622304916382,0.2883283918102582,-1.6769269506136577,,,,,,,,,,,,1.6887029275467812e+18,106.30178125,-19.53707962036133,42.72683944702148,-21.45247917175293,1.6887029275467812e+18,106.30178125,-276.9570739746094,137.35003967285155,-154.33487854003906,1.6887029275432325e+18,106.2982323404948,0.5514032443364462,-0.7886778910954794,0.2395784258842468,0.1251111850142478,-2.234833161036174,0.9449368317921956,-1.0773223638534546
1.35,1.68870292759513e+18,106.35013028971356,23.192859172821045,-5.266929944356283,-1.3717375596364338,1.68870292759513e+18,106.35013028971356,16.77986780802409,-11.242477734883629,2.781855742136637,1.68870292759513e+18,106.35013028971356,-6.418837547302246,-5.958043893178304,4.090905745824178,1.68870292759513e+18,106.35013028971356,-4.836831013361613,-10.947723388671877,-3.0272954305013022,1.68870292759513e+18,106.35013028971356,-4.837798118591309,-10.943294525146484,-3.025004625320435,,,,,,,,,,,,1.6887029275967798e+18,106.35177978515624,-2.5131998538970945,37.27831878662109,-33.07419929504395,1.6887029275967798e+18,106.35177978515624,-259.9331909179688,131.90151672363282,-165.95659790039062,1.68870292759513e+18,106.35013028971356,0.4066927333672841,-0.8079805771509806,0.4072932004928589,0.0665369387716054,-2.540411949157715,0.6568123698234558,-1.1521872679392495
1.4,1.6887029276470354e+18,106.40203548177084,12.40820058186849,-4.941612561543783,-2.410508712132772,1.6887029276470354e+18,106.40203548177084,5.549554189046224,-11.041879494984943,1.1134601434071858,1.6887029276470354e+18,106.40203548177084,-6.864492893218994,-6.082762241363525,3.4612815380096436,1.6887029276470354e+18,106.40203548177084,-0.6375906144579252,1.1245520114898682,2.544406453768412,1.6887029276470354e+18,106.40203548177084,-0.6386087040106455,1.128980775674184,2.5467989842096963,,,,,,,,,,,,1.688702927646782e+18,106.40178188476564,7.024760055541992,33.85011978149414,-37.92735900878906,1.688702927646782e+18,106.40178188476564,-250.39523620605468,128.47332153320312,-170.80975952148438,1.6887029276470354e+18,106.40203548177084,-0.3912848929564158,0.7847083608309428,-0.4803599516550699,0.005731715587899,-2.6541481018066406,0.6681592663129171,-1.2714236577351887
1.45,1.6887029276989343e+18,106.45393440755208,2.6672611236572266,3.0301462014516196,-4.30862553914388,1.6887029276989343e+18,106.45393440755208,-3.163112163543701,-4.013361771901448,-0.6919245372215906,1.6887029276989343e+18,106.45393440755208,-5.836219310760498,-7.026003519694011,3.5540135701497397,1.6887029276989343e+18,106.45393440755208,0.7513642410437266,-0.0156788776318231,2.946915785471598,1.6887029276989343e+18,106.45393440755208,0.7503970464070638,-0.0112501134475072,2.949206511179606,,,,,,,,,,,,1.6887029276967798e+18,106.45177958984377,0.3147599831223487,34.02824020385742,-37.88099899291992,1.6887029276967798e+18,106.45177958984377,-257.10523681640626,128.65143585205078,-170.76339416503907,1.6887029276989343e+18,106.45393440755208,-0.452366570631663,0.7583085298538208,-0.4678411384423573,0.0311159308378894,-2.572185834248861,0.7973458170890808,-1.351176341374715
1.5,1.6887029277508431e+18,106.50584318033854,8.286305904388428,-4.566781361897786,-4.145957946777344,1.6887029277508431e+18,106.50584318033854,3.737987796465556,-12.62493085861206,-0.8313064376513163,1.6887029277508431e+18,106.50584318033854,-4.554163773854573,-8.040645122528076,3.2519641717274985,1.6887029277508431e+18,106.50584318033854,0.93569282690684,2.298176800211271,2.771597385406494,1.6887029277508431e+18,106.50584318033854,0.9347256422042848,2.302605594197909,2.773888111114502,,,,,,,,,,,,1.6887029277467825e+18,106.50178247070312,-5.550999879837036,35.33851928710938,-35.73623962402344,1.6887029277467825e+18,106.50178247070312,-262.97099609375,129.9617156982422,-168.61863403320314,1.6887029277508431e+18,106.50584318033854,-0.5157644053300222,0.7337397933006287,-0.4355901479721069,0.0703933537006377,-2.491174697875977,0.9592108925183614,-1.4201701879501345
1.55,1.6887029277940913e+18,106.54909130859374,6.57426118850708,-21.01379013061523,5.885074496269226,1.6887029277940913e+18,106.54909130859374,3.7477585077285767,-29.635108947753903,9.687342405319214,1.6887029277940913e+18,106.54909130859374,-2.8323487043380737,-8.603813171386719,3.739580392837525,1.6887029277940913e+18,106.54909130859374,1.925065517425537,10.38532018661499,0.9135489761829376,1.6887029277940913e+18,106.54909130859374,1.924072802066803,10.389748573303224,0.9158397167921066,,,,,,,,,,,,1.688702927796777e+18,106.55177709960938,-19.75423946380615,36.787879943847656,-27.10351982116699,1.688702927796777e+18,106.55177709960938,-277.1742370605469,131.41108093261718,-159.9859161376953,1.6887029277940913e+18,106.54909130859374,0.0184055268764495,-0.001122772693634,-0.0364932119846344,0.02992903906852,-2.184871196746826,1.0671119093894958,-1.4362443089485168
1.6,1.6887029278373396e+18,106.59233968098958,3.601957519849142,-22.301056226094563,13.98635482788086,1.6887029278373396e+18,106.59233968098958,0.6831510464350382,-30.85544713338216,17.805192629496258,1.6887029278373396e+18,106.59233968098958,-2.924652338027954,-8.536886215209961,3.756150722503662,1.6887029278373396e+18,106.59233968098958,3.1114421685536704,7.440796852111816,-7.659639199574788,1.6887029278373396e+18,106.59233968098958,3.1104749043782554,7.445225715637207,-7.657297452290853,1.6887029278373458e+18,106.592345703125,0.0,0.0,3.6747288703918457,7.467000007629395,2.6721765995025635,154.39234924316406,43.400001525878906,-122.7533868,49.1874577,1.688702927846782e+18,106.60178198242188,-17.067799949645995,44.9203987121582,-11.187399768829346,1.688702927846782e+18,106.60178198242188,-274.4877990722656,139.5436004638672,-144.06979675292968,1.6887029278373396e+18,106.59233968098958,0.5787479082743326,-0.7874690095583597,0.1358000437418619,0.1429360831777254,-2.192986329396566,1.061438997586568,-0.937646488348643
1.65,1.6887029278892434e+18,106.6442432454427,3.0059965451558432,1.3843307495117188,2.2572174072265625,1.6887029278892434e+18,106.6442432454427,-1.566501220067342,-6.639085610707601,5.657829125722249,1.6887029278892434e+18,106.6442432454427,-4.5783437093098955,-8.005911668141684,3.337924321492513,1.6887029278892434e+18,106.6442432454427,1.8111645181973777,1.1168653170267742,-1.9813414017359416,1.6887029278892434e+18,106.6442432454427,1.8100955088933308,1.121294021606445,-1.9790506760279336,,,,,,,,,,,,1.688702927896776e+18,106.65177578125,-7.512759876251221,48.74631881713867,-3.411119890213013,1.688702927896776e+18,106.65177578125,-264.93275146484376,143.36951599121093,-136.29351806640625,1.6887029278892434e+18,106.6442432454427,0.4836830794811249,-0.852469285329183,0.0055075648706406,0.1976432154575983,-2.4952708880106607,0.9657103021939596,-0.3606669505437215
1.7,1.688702927941145e+18,106.69614542643228,1.4392542044321697,9.210370222727455,0.6787895361582438,1.688702927941145e+18,106.69614542643228,-2.8602205912272134,0.7182456254959106,3.1343983014424643,1.688702927941145e+18,106.69614542643228,-4.305320819218953,-8.47462018330892,2.3929213682810464,1.688702927941145e+18,106.69614542643228,-0.3521128992239634,-5.2115457852681475,3.3838371435801187,1.688702927941145e+18,106.69614542643228,-0.3530292014280955,-5.207117239634196,3.3861278692881265,,,,,,,,,,,,1.6887029279467845e+18,106.70178408203124,-12.063359832763672,47.81911849975586,-4.584759998321533,1.6887029279467845e+18,106.70178408203124,-269.4833557128906,142.44231567382812,-137.4671600341797,1.688702927941145e+18,106.69614542643228,0.5218016902605692,-0.8424696723620096,0.0484744273126124,0.1164607256650924,-2.6146108309427896,1.054854194323222,-0.4269742866357167
1.75,1.6887029279930483e+18,106.74804858398436,2.058887322743734,12.812947909037272,0.066792885462443,1.6887029279930483e+18,106.74804858398436,-1.0203394691149394,3.708875099817912,2.1238295237223306,1.6887029279930483e+18,106.74804858398436,-3.085072755813598,-9.086568196614584,1.994349241256714,1.6887029279930483e+18,106.74804858398436,-1.769065777460734,-5.324556032816569,4.315508524576823,1.6887029279930483e+18,106.74804858398436,-1.7700838645299275,-5.320127169291179,4.317850112915039,,,,,,,,,,,,1.68870292799678e+18,106.7517799316406,-19.742039489746094,43.336839294433595,-12.28051986694336,1.68870292799678e+18,106.7517799316406,-277.1620300292969,137.9600372314453,-145.1629150390625,1.6887029279930483e+18,106.74804858398436,0.1824457049369812,-0.2794412573178609,0.0272632837295532,0.0242328116049368,-2.5238571961720786,1.1917833089828491,-0.8354958295822144
1.8,1.6887029280449485e+18,106.79994840494793,0.5894004106521606,12.271544138590494,-0.8826267321904501,1.6887029280449485e+18,106.79994840494793,-0.7447660466035207,2.8329025904337564,1.4989039699236553,1.6887029280449485e+18,106.79994840494793,-1.3400124907493591,-9.421136856079102,2.3188432852427163,1.6887029280449485e+18,106.79994840494793,-1.435889681180318,-3.95245091120402,4.958444118499756,1.6887029280449485e+18,106.79994840494793,-1.4368568658828735,-3.9480221271514897,4.960785706837972,,,,,,,,,,,,1.6887029280467802e+18,106.8017802246094,-25.432119369506836,36.88059997558594,-20.72535934448242,1.6887029280467802e+18,106.8017802246094,-282.85211791992185,131.50379638671876,-153.60775756835938,1.6887029280449485e+18,106.79994840494793,-0.6563368240992228,0.7009785970052084,-0.2654337336619695,0.0730658409496147,-2.0329681237538657,1.2833926677703855,-1.5973695119222004
1.85,1.688702928096854e+18,106.85185416666668,1.2558541595935822,7.8390655517578125,-2.495516856511434,1.688702928096854e+18,106.85185416666668,1.2011969306816657,-1.6348960399627686,0.1744766732056935,1.688702928096854e+18,106.85185416666668,-0.0605032847573359,-9.456456820170084,2.607306162516276,1.688702928096854e+18,106.85185416666668,0.0281507025162378,-2.1765637397766113,1.4696399370829265,1.688702928096854e+18,106.85185416666668,0.0271325955788293,-2.1721349954605103,1.471930722395579,,,,,,,,,,,,1.6887029280967793e+18,106.85177924804688,-27.635439300537108,30.785480117797853,-26.754599380493165,1.6887029280967793e+18,106.85177924804688,-285.05543212890626,125.40867767333984,-159.63699951171876,1.688702928096854e+18,106.85185416666668,-0.6944868365923563,0.6279386679331461,-0.3234722316265105,0.1358713805675505,-1.5640124082565308,1.2881542841593423,-2.2461915016174316
1.9,1.6887029281487516e+18,106.90375179036458,1.4207894802093506,5.269426345825195,3.879296143849691,1.6887029281487516e+18,106.90375179036458,0.8191429376602173,-4.305086692174275,6.039284944534302,1.6887029281487516e+18,106.90375179036458,-0.6074925909439722,-9.557008425394692,2.0973012447357178,1.6887029281487516e+18,106.90375179036458,1.628719449043274,3.569081981976827,-2.938821872075399,1.6887029281487516e+18,106.90375179036458,1.6277522643407183,3.5735108455022178,-2.936531146367391,,,,,,,,,,,,1.6887029281467845e+18,106.9017841796875,-25.917679595947263,33.04491958618164,-25.366239547729492,1.6887029281467845e+18,106.9017841796875,-283.3376708984375,127.66811676025392,-158.2486358642578,1.6887029281487516e+18,106.90375179036458,-0.6754417419433594,0.6631699999173483,-0.2929458916187286,0.1288149158159891,-1.8094746669133503,1.333530068397522,-1.9426096280415852
1.95,1.688702928200658e+18,106.95565787760415,-4.430642743905385,-24.304338455200195,23.906869888305664,1.688702928200658e+18,106.95565787760415,-7.107680221398671,-33.36212921142578,26.469204584757488,1.688702928200658e+18,106.95565787760415,-2.6828835010528564,-9.04028606414795,2.4996474583943686,1.688702928200658e+18,106.95565787760415,-1.5322536428769429,7.021386941274007,-7.277746677398682,1.688702928200658e+18,106.95565787760415,-1.533271809418996,7.0258158047993975,-7.275455951690674,,,,,,,,,,,,1.6887029281967775e+18,106.95177734375,-23.262959671020507,40.11115951538086,-16.62859973907471,1.6887029281967775e+18,106.95177734375,-280.682958984375,134.73435668945314,-149.51099548339843,1.688702928200658e+18,106.95565787760415,0.1740651329358419,-0.2825718522071838,0.044548749923706,0.054918298497796,-2.3404255708058677,1.1874861319859822,-1.0394543806711831
2.0,1.6887029282525594e+18,107.00755916341144,-2.0830398400624595,-7.449726899464925,3.02710223197937,1.6887029282525594e+18,107.00755916341144,-6.687540451685588,-14.968900203704834,7.378468116124471,1.6887029282525594e+18,107.00755916341144,-4.610346635182698,-7.501669247945149,4.288678407669067,1.6887029282525594e+18,107.00755916341144,-3.2519919872283936,0.1251764595508575,-3.141425450642904,1.6887029282525594e+18,107.00755916341144,-3.2529083093007407,0.129605213801066,-3.139134724934896,,,,,,,,,,,,1.688702928246777e+18,107.00177729492188,-12.956399726867676,43.96879959106445,-17.19223976135254,1.688702928246777e+18,107.00177729492188,-270.37639770507815,138.5919952392578,-150.07463684082032,1.6887029282525594e+18,107.00755916341144,0.4980037709077199,-0.8307283719380697,0.1960520396629969,0.1503022015094756,-2.3709903558095298,0.8774868249893188,-0.8395368059476217
2.05,1.688702928295811e+18,107.05081115722656,-3.6085997819900513,2.559822916984558,-7.690752267837524,1.688702928295811e+18,107.05081115722656,-9.397212862968445,-3.73041033744812,-2.84865540266037,1.688702928295811e+18,107.05081115722656,-5.794459104537964,-6.272728681564331,4.779409646987915,1.688702928295811e+18,107.05081115722656,-5.203044891357422,-7.411704421043396,-2.730643928050995,1.688702928295811e+18,107.05081115722656,-5.20396089553833,-7.407275557518005,-2.7283531725406647,,,,,,,,,,,,1.6887029282967777e+18,107.051777734375,-3.086599922180176,40.989559173583984,-26.07383918762207,1.6887029282967777e+18,107.051777734375,-260.506591796875,135.61275634765624,-158.95623779296875,1.688702928295811e+18,107.05081115722656,0.4325416982173919,-0.8401111662387848,0.2878882884979248,0.1483691111207007,-2.430872917175293,0.6986652314662933,-0.9301468133926392
2.1,1.6887029283390597e+18,107.0940594889323,54.22622489929199,-13.286826292673746,-0.6305240790049235,1.6887029283390597e+18,107.0940594889323,47.01039123535156,-19.156339645385746,2.5128625631332397,1.6887029283390597e+18,107.0940594889323,-7.221680482228597,-5.852009455362956,3.0806992053985596,1.6887029283390597e+18,107.0940594889323,-3.168558120727539,-4.072129607200623,3.415754795074463,1.6887029283390597e+18,107.0940594889323,-3.169525146484375,-4.067700783411662,3.41804567972819,1.6887029283563663e+18,107.11136645507813,0.0,0.0,3.8628201484680176,7.427999973297119,2.675468683242798,152.06576538085938,43.400001525878906,-122.7533652,49.1874546,1.688702928346781e+18,107.10178090820314,8.679079818725587,35.153079986572266,-33.506080627441406,1.688702928346781e+18,107.10178090820314,-248.74091796875,129.77627563476562,-166.3884765625,1.6887029283390597e+18,107.0940594889323,0.1238422592480977,-0.2755367954572041,0.1396194597085316,0.0120105078579702,-2.7192091147104898,0.6408628424008688,-1.131875197092692
2.15,1.6887029283909652e+18,107.14596533203124,0.519741932551066,0.4897731145222981,-4.40946380297343,1.6887029283909652e+18,107.14596533203124,-5.080361286799113,-6.487340927124023,-0.3365903894106547,1.6887029283909652e+18,107.14596533203124,-5.605949242909749,-6.959609349568685,4.010185956954956,1.6887029283909652e+18,107.14596533203124,-0.0463239525755246,1.9301305611928303,3.5260159174601235,1.6887029283909652e+18,107.14596533203124,-0.0473420619964599,1.9345593849817913,3.528306722640991,,,,,,,,,,,,1.6887029283967798e+18,107.15177973632812,-1.9763999223709103,34.06483917236328,-35.11159896850586,1.6887029283967798e+18,107.15177973632812,-259.3963928222656,128.688037109375,-167.99400024414064,1.6887029283909652e+18,107.14596533203124,0.4661826690038045,-0.7673709591229757,0.4393134812513987,0.0075121494786192,-2.498384475708008,0.7879558801651001,-1.316735863685608
2.2,1.688702928442867e+18,107.19786686197916,-0.6895333925882975,-0.5135073661804199,-6.850899378458659,1.688702928442867e+18,107.19786686197916,-4.839084943135579,-8.523234208424887,-2.9328028758366904,1.688702928442867e+18,107.19786686197916,-4.1553975741068525,-7.992222150166829,3.8554089069366455,1.688702928442867e+18,107.19786686197916,1.056491454442342,0.1747074543188016,3.3485596974690757,1.688702928442867e+18,107.19786686197916,1.05557515223821,0.1791362380608916,3.3509012858072915,,,,,,,,,,,,1.6887029284467802e+18,107.20178017578124,-9.110959911346436,34.2234390258789,-33.80863876342774,1.6887029284467802e+18,107.20178017578124,-266.5309631347656,128.8466369628906,-166.6910369873047,1.688702928442867e+18,107.19786686197916,-0.5393515825271606,0.7328130205472311,-0.4131418367226918,0.0276814494282006,-2.367177645365397,0.9504901568094888,-1.441494385401408
2.25,1.688702928494764e+18,107.24976424153648,13.5066868464152,-15.776939392089844,2.0582450230916343,1.688702928494764e+18,107.24976424153648,10.796415567398071,-24.524438222249348,5.658826112747192,1.688702928494764e+18,107.24976424153648,-2.7161171436309814,-8.729994138081869,3.537893454233805,1.688702928494764e+18,107.24976424153648,1.6172657410303752,5.4325773268938065,0.6432411273320516,1.688702928494764e+18,107.24976424153648,1.6163494785626729,5.437006160616875,0.6455318530400594,,,,,,,,,,,,1.6887029284967788e+18,107.25177871093751,-16.374839782714844,34.34299850463867,-30.604919815063475,1.6887029284967788e+18,107.25177871093751,-273.7948364257812,128.96619873046876,-163.48731384277343,1.688702928494764e+18,107.24976424153648,-0.6024548411369324,0.7086405952771505,-0.3608140647411346,0.0437256900283197,-2.1924689610799155,1.0931727886199951,-1.5479207436243694
2.3,1.6887029285466708e+18,107.3016709798177,2.8813047409057617,-21.477728525797527,12.467175483703612,1.6887029285466708e+18,107.3016709798177,0.3002993563810972,-30.172497431437176,16.240485509236652,1.6887029285466708e+18,107.3016709798177,-2.586851398150126,-8.677263895670572,3.710622708002726,1.6887029285466708e+18,107.3016709798177,2.863532622655233,10.571532408396402,-7.88347053527832,1.6887029285466708e+18,107.3016709798177,2.8624637126922607,10.575960795084637,-7.881179809570312,,,,,,,,,,,,1.6887029285467817e+18,107.3017818359375,-20.988879776000974,41.40191879272461,-13.981199645996094,1.6887029285467817e+18,107.3017818359375,-278.40887451171875,136.02511901855468,-146.8635986328125,1.6887029285466708e+18,107.3016709798177,0.5899499257405599,-0.7784400383631388,0.117625677337249,0.1518551235397656,-2.142324924468994,1.090449333190918,-0.9487194617589316
2.35,1.688702928598567e+18,107.35356665039065,5.1393983364105225,0.7200776735941569,2.570405801137289,1.688702928598567e+18,107.35356665039065,0.7264211177825933,-7.352745056152344,6.063811302185059,1.688702928598567e+18,107.35356665039065,-4.4188232421875,-8.055318196614584,3.430717865626017,1.688702928598567e+18,107.35356665039065,1.7756325403849285,1.2254465818405151,-2.5120815436045327,1.688702928598567e+18,107.35356665039065,1.7747162580490112,1.2298753261566162,-2.509790817896525,,,,,,,,,,,,1.6887029285967798e+18,107.35177983398437,-6.609959888458252,48.66823883056641,-3.4623599529266356,1.6887029285967798e+18,107.35177983398437,-264.0299560546875,143.29143676757812,-136.34475708007812,1.688702928598567e+18,107.35356665039065,0.4786036312580108,-0.8471080462137858,-0.0362847422560055,0.2273410310347874,-2.4669421513875327,0.9743970433870952,-0.2820282429456711
2.4,1.6887029286504753e+18,107.40547509765626,2.766425927480062,8.610979080200195,0.3630157709121704,1.6887029286504753e+18,107.40547509765626,-1.2957134346167247,0.0155533303817113,2.8602206309636435,1.6887029286504753e+18,107.40547509765626,-4.067985375722249,-8.577921231587728,2.4345174630482993,1.6887029286504753e+18,107.40547509765626,-0.2576833168665568,-5.144299825032552,3.709937334060669,1.6887029286504753e+18,107.40547509765626,-0.2586505214373271,-5.139870961507161,3.712279081344605,,,,,,,,,,,,1.688702928646782e+18,107.40178188476564,-10.677439785003662,48.3095588684082,-2.991439938545227,1.688702928646782e+18,107.40178188476564,-268.0974365234375,142.93275756835936,-135.87383728027345,1.6887029286504753e+18,107.40547509765626,0.5265145897865295,-0.836750864982605,0.0096501723552743,0.1430515547593434,-2.5832592646280923,1.0763037999471028,-0.3628125687440236
2.45,1.6887029287023772e+18,107.45737711588542,1.2176343202590942,12.887136141459148,-0.3343577782313029,1.6887029287023772e+18,107.45737711588542,-1.499901016553243,3.6851462523142495,1.796610951423645,1.6887029287023772e+18,107.45737711588542,-2.7233813603719077,-9.184485753377276,2.068281332651774,1.6887029287023772e+18,107.45737711588542,-1.197295884291331,-4.664159933725993,4.329863707224528,1.6887029287023772e+18,107.45737711588542,-1.1982121864954631,-4.6597310702006025,4.332256317138672,,,,,,,,,,,,1.6887029286967782e+18,107.4517782714844,-19.368719482421874,45.454759216308595,-8.93283987045288,1.6887029286967782e+18,107.4517782714844,-276.78871459960936,140.0779571533203,-141.81523742675782,1.6887029287023772e+18,107.45737711588542,0.6032939155896505,-0.7866324981053671,0.1120756641030311,0.0510147120803594,-2.447054147720337,1.2194788058598836,-0.7821187973022461
2.5,1.6887029287456353e+18,107.50063513183592,-0.6653366982936859,12.533818244934082,-0.5468540191650391,1.6887029287456353e+18,107.50063513183592,-1.955534279346466,3.045464992523194,1.6974085569381714,1.6887029287456353e+18,107.50063513183592,-1.2960436046123505,-9.470848560333252,2.1815751791000366,1.6887029287456353e+18,107.50063513183592,-1.078024446964264,-4.6733481884002686,4.956178903579712,1.6887029287456353e+18,107.50063513183592,-1.0789406895637512,-4.668919563293457,4.95846962928772,,,,,,,,,,,,1.6887029287467822e+18,107.50178203125,-26.576479339599608,39.7134391784668,-16.662759590148926,1.6887029287467822e+18,107.50178203125,-283.99647827148436,134.33663635253907,-149.54515991210937,1.6887029287456353e+18,107.50063513183592,-0.6624269485473633,0.7213720381259918,-0.1985378339886665,0.0223256284371018,-2.0463789105415344,1.3047046065330503,-1.4117236733436584
2.55,1.688702928788877e+18,107.5438770345052,1.3868433435757954,9.3865917523702,-2.092705806096395,1.688702928788877e+18,107.5438770345052,1.398405412832896,-0.1164506499965985,0.4530410791436831,1.688702928788877e+18,107.5438770345052,0.0057160456975301,-9.48553784688314,2.4830594857533774,1.688702928788877e+18,107.5438770345052,-0.6498588096971313,-3.2353459199269614,3.1552208264668784,1.688702928788877e+18,107.5438770345052,-0.6508260359987617,-3.2309172550837197,3.157511591911316,,,,,,,,,,,,1.688702928796784e+18,107.55178413085936,-30.414599609375,32.727719116210935,-24.812359619140626,1.688702928796784e+18,107.55178413085936,-287.8346008300781,127.35091705322266,-157.69475708007812,1.688702928788877e+18,107.5438770345052,-0.7047484914461771,0.6499080856641134,-0.2686614741881688,0.0887677048643429,-1.5376395384470622,1.3015933434168498,-2.1199278036753335
2.6,1.6887029288407788e+18,107.59577880859376,1.7740156253178914,6.978537241617839,1.228754242261251,1.6887029288407788e+18,107.59577880859376,2.2071794470151267,-2.5347967942555747,3.715455253918966,1.6887029288407788e+18,107.59577880859376,0.4273178577423095,-9.495829582214355,2.424013614654541,1.6887029288407788e+18,107.59577880859376,0.2652682289481163,3.864333430926005,-1.2276355028152466,1.6887029288407788e+18,107.59577880859376,0.2643519391616185,3.868762274583181,-1.2253447671731312,,,,,,,,,,,,1.68870292884678e+18,107.60178002929688,-32.142119598388675,32.02255973815918,-24.4317195892334,1.68870292884678e+18,107.60178002929688,-289.56211547851564,126.64575653076172,-157.31411743164062,1.6887029288407788e+18,107.59577880859376,-0.7201018929481506,0.6394534309705099,-0.2532299061616261,0.084248837083578,-1.369985858599345,1.3048641284306843,-2.2582525412241616
2.65,1.688702928892678e+18,107.647677734375,-4.705303192138672,-16.643566926320393,17.494344393412273,1.688702928892678e+18,107.647677734375,-5.66341249148051,-25.94278383255005,20.44886302947998,1.688702928892678e+18,107.647677734375,-0.9639552806814512,-9.28171189626058,2.891831318537394,1.688702928892678e+18,107.647677734375,-2.0621792872746787,5.064836502075195,-6.663267135620117,1.688702928892678e+18,107.647677734375,-2.063146452109019,5.069265166918437,-6.660976409912109,1.6887029288753736e+18,107.63037353515624,0.0,0.0,3.8628201484680176,7.372000217437744,2.6782257556915283,151.0185089111328,43.400001525878906,-122.753348,49.187448,1.6887029288967834e+18,107.65178330078125,-31.54432029724121,38.193318939208986,-16.450479888916014,1.6887029288967834e+18,107.65178330078125,-288.9643127441406,132.81651916503907,-149.33287963867187,1.688702928892678e+18,107.647677734375,0.6711750229199728,-0.7184398969014486,0.1609758287668228,0.0572521139789993,-1.8130847215652464,1.24363378683726,-1.4771305322647097
2.7,1.6887029289445788e+18,107.69957877604168,-3.4164950052897134,-17.269876797993977,9.348573048909506,1.6887029289445788e+18,107.69957877604168,-7.502296765645345,-25.236501693725582,13.372488657633465,1.6887029289445788e+18,107.69957877604168,-4.091647783915202,-7.949120203653972,3.9612279733022056,1.6887029289445788e+18,107.69957877604168,-2.7820330460866294,-3.0332004626592,-4.9807407061258955,1.6887029289445788e+18,107.69957877604168,-2.7830003102620444,-3.0287716388702393,-4.978449821472168,,,,,,,,,,,,1.6887029289467756e+18,107.70177548828124,-16.216239547729494,44.93015975952149,-20.886399841308595,1.6887029289467756e+18,107.70177548828124,-273.6362365722656,139.55335693359376,-153.768798828125,1.6887029289445788e+18,107.69957877604168,0.5296241740385691,-0.8142911394437155,0.1973508248726526,0.1249810035030046,-2.342388391494751,0.9515200853347778,-0.9072729746500652
2.75,1.6887029289964813e+18,107.75148136393229,23.408677180608112,-3.237094879150391,-0.3007656733194987,1.6887029289964813e+18,107.75148136393229,17.22772494951884,-9.825926621754965,3.451048493385315,1.6887029289964813e+18,107.75148136393229,-6.186798254648845,-6.571327368418376,3.68912672996521,1.6887029289964813e+18,107.75148136393229,-4.057316144307454,-8.578482627868652,-2.090329964955648,1.6887029289964813e+18,107.75148136393229,-4.058232227961223,-8.574053764343262,-2.087988336881002,,,,,,,,,,,,1.6887029289967767e+18,107.75177680664062,-2.0007999897003175,42.458438873291016,-30.214519882202147,1.6887029289967767e+18,107.75177680664062,-259.42079467773436,137.08163757324218,-163.09691772460937,1.6887029289964813e+18,107.75148136393229,0.4248153567314148,-0.8382494648297628,0.3249413271745046,0.0685090686505039,-2.5797149340311685,0.7386785546938578,-0.964864412943522
2.8,1.688702929048391e+18,107.80339078776042,32.623853047688804,-5.531145254770915,0.3625644048055013,1.688702929048391e+18,107.80339078776042,25.557937622070312,-11.835698127746582,2.9702905813852944,1.688702929048391e+18,107.80339078776042,-7.071763038635254,-6.28704818089803,2.5450387795766196,1.688702929048391e+18,107.80339078776042,-2.4275275468826294,-0.3377065658569334,1.9032524426778157,1.688702929048391e+18,107.80339078776042,-2.428494850794474,-0.333277940750122,1.9055432081222536,,,,,,,,,,,,1.688702929046778e+18,107.80177807617189,11.016599464416505,36.946478271484374,-37.08068008422852,1.688702929046778e+18,107.80177807617189,-246.4033966064453,131.5696807861328,-169.96307373046875,1.688702929048391e+18,107.80339078776042,-0.3733480075995127,0.8044464389483134,-0.459248016277949,0.0442505534738301,-2.778510014216105,0.6957207719484965,-1.1710757811864216
2.85,1.6887029291002929e+18,107.85529264322918,2.488241672515869,1.1138705412546794,-3.749977827072144,1.6887029291002929e+18,107.85529264322918,-3.5363925298055015,-5.67039140065511,0.0386839595933755,1.6887029291002929e+18,107.85529264322918,-6.0304802258809405,-6.766757329305013,3.725974400838216,1.6887029291002929e+18,107.85529264322918,-0.4651738852262497,2.2068525155385337,2.27684752146403,1.6887029291002929e+18,107.85529264322918,-0.4660901849468548,2.2112812995910645,2.2791382471720376,,,,,,,,,,,,1.6887029290967818e+18,107.85178188476564,2.608359944820404,35.46295928955078,-39.30351867675781,1.6887029290967818e+18,107.85178188476564,-254.81163024902344,130.0861572265625,-172.1859161376953,1.6887029291002929e+18,107.85529264322918,-0.4417430559794108,0.7732337117195129,-0.4543253978093465,0.0063835587352514,-2.5691146850585938,0.759982705116272,-1.2974769274393718
2.9,1.6887029291521946e+18,107.90719474283856,0.5920677979787191,1.954982042312622,-5.78839095433553,1.6887029291521946e+18,107.90719474283856,-4.071985960006714,-5.639085133870442,-1.6269200245539348,1.6887029291521946e+18,107.90719474283856,-4.669899781545003,-7.576562563578288,4.098783493041992,1.6887029291521946e+18,107.90719474283856,0.0285070464015007,0.7554367085297901,3.429295619328817,1.6887029291521946e+18,107.90719474283856,0.0274380321304003,0.7598654627799988,3.4315863450368247,,,,,,,,,,,,1.6887029291467863e+18,107.90178627929689,-6.5123598098754885,34.78219909667969,-39.34011993408203,1.6887029291467863e+18,107.90178627929689,-263.93235473632814,129.4053985595703,-172.22251586914064,1.6887029291521946e+18,107.90719474283856,-0.5144554972648621,0.7374797860781351,-0.4366071025530497,0.0138381137512623,-2.39898419380188,0.8802412549654642,-1.4333298603693645
2.95,1.68870292919544e+18,107.95044006347656,11.921179056167604,-12.339322090148926,-2.006354331970215,1.68870292919544e+18,107.95044006347656,8.662317156791687,-20.62493467330933,2.194517508149147,1.68870292919544e+18,107.95044006347656,-3.264707922935486,-8.268107891082764,4.138184547424316,1.68870292919544e+18,107.95044006347656,0.9387471862137318,3.0547080114483833,2.450791299343109,1.68870292919544e+18,107.95044006347656,0.9377544987946748,3.0591368302702904,2.453082025051117,,,,,,,,,,,,1.688702929196784e+18,107.9517837890625,-14.969399642944335,33.684200286865234,-38.024958801269534,1.688702929196784e+18,107.9517837890625,-272.38939208984374,128.3073959350586,-170.90735778808593,1.68870292919544e+18,107.95044006347656,-0.579320877790451,0.6997328698635101,-0.4160127341747284,0.0349683323875069,-2.215039610862732,0.9976074993610382,-1.604617953300476
3.0,1.6887029292386988e+18,107.99369848632811,0.3537233670552571,-25.68208948771159,10.631870905558268,1.6887029292386988e+18,107.99369848632811,-1.6961123943328855,-34.365918477376304,14.794822692871094,1.6887029292386988e+18,107.99369848632811,-2.0556817054748535,-8.666324297587076,4.1002646287282305,1.6887029292386988e+18,107.99369848632811,3.4143295288085938,11.451279958089192,-3.8089993397394815,1.6887029292386988e+18,107.99369848632811,3.4132604598999023,11.455708503723145,-3.806606729825338,,,,,,,,,,,,1.68870292924678e+18,108.0017799316406,-27.181599426269532,39.767119598388675,-21.9258394241333,1.68870292924678e+18,108.0017799316406,-284.6015930175781,134.39031982421875,-154.80823974609376,1.6887029292386988e+18,107.99369848632811,0.6245009899139404,-0.7323817809422811,0.2383922388156255,0.0857358252008755,-2.007204373677572,1.0815157492955525,-1.3590265115102131
3.05,1.6887029292905966e+18,108.04559676106771,10.424479007720947,-6.615257740020752,4.6733574867248535,1.6887029292905966e+18,108.04559676106771,6.597011963526408,-14.881362915039062,8.356733640034994,1.6887029292905966e+18,108.04559676106771,-3.833312670389811,-8.248600800832113,3.620688358942667,1.6887029292905966e+18,108.04559676106771,2.463263154029846,4.272137085596721,-7.380015691121419,1.6887029292905966e+18,108.04559676106771,2.462346911430359,4.276565710703532,-7.377724965413411,,,,,,,,,,,,1.688702929296781e+18,108.05178115234376,-13.810399532318115,50.32255935668945,-6.624599981307983,1.688702929296781e+18,108.05178115234376,-271.2303894042969,144.9457580566406,-139.50699768066406,1.6887029292905966e+18,108.04559676106771,0.5176527897516886,-0.8286373813947042,0.0328408641119798,0.2015779912471771,-2.3601370652516684,1.0082141757011414,-0.5314730803171793
3.1,1.6887029293425006e+18,108.09750065104168,1.1722157796223958,5.480995972951253,1.1221754550933838,1.6887029293425006e+18,108.09750065104168,-3.3601210713386536,-2.681955377260844,4.204986969629924,1.6887029293425006e+18,108.09750065104168,-4.538182894388835,-8.14544677734375,3.0201241175333657,1.6887029293425006e+18,108.09750065104168,0.8516479780276617,-3.6496143142382302,1.4761558373769124,1.6887029293425006e+18,108.09750065104168,0.8505789488554001,-3.645185649394989,1.4784466624259949,,,,,,,,,,,,1.6887029293467796e+18,108.10177973632813,-8.737639999389648,51.81339874267578,-1.615279984474182,1.6887029293467796e+18,108.10177973632813,-266.1576293945312,146.4365966796875,-134.4976776123047,1.6887029293425006e+18,108.09750065104168,0.4872019588947296,-0.851696252822876,-0.0126822208985686,0.1889096746842066,-2.542429208755493,0.9899478157361348,-0.2999623715877533
3.15,1.6887029293944023e+18,108.14940234375,2.8497931162516275,11.130999565124512,-0.4412342707316081,1.6887029293944023e+18,108.14940234375,-0.8550352702538172,2.295514504114786,1.755534251530965,1.6887029293944023e+18,108.14940234375,-3.710674444834391,-8.817980448404947,2.1340811252593994,1.6887029293944023e+18,108.14940234375,-0.7937684953212738,-4.518773873647054,3.858632087707519,1.6887029293944023e+18,108.14940234375,-0.7947356800238291,-4.514345169067383,3.8609228134155273,1.6887029293944084e+18,108.14940844726564,0.0,0.0,3.2571890354156494,7.199999809265137,2.6815145015716553,148.59823608398438,43.400001525878906,-122.7533203,49.1874392,1.6887029293967798e+18,108.1517798339844,-16.162559509277344,49.27579879760742,-4.736039876937866,1.6887029293967798e+18,108.1517798339844,-273.5825500488281,143.89899291992188,-137.61843566894532,1.6887029293944023e+18,108.14940234375,0.5548588832219442,-0.8233984112739563,0.0692716402312119,0.0875003660718599,-2.594792445500692,1.1265634298324585,-0.5200468500455221
3.2,1.688702929446299e+18,108.20129915364583,0.8175895611445109,12.118159612019856,0.1370735565821329,1.688702929446299e+18,108.20129915364583,-1.431904951731364,2.7914270559946694,2.264208436012268,1.688702929446299e+18,108.20129915364583,-2.2553405364354453,-9.30922826131185,2.0644474824269614,1.688702929446299e+18,108.20129915364583,-1.2451469898223877,-4.622366269429524,4.541375796000163,1.688702929446299e+18,108.20129915364583,-1.246114194393158,-4.6179375648498535,4.543717543284099,,,,,,,,,,,,1.688702929446778e+18,108.20177797851564,-24.324359512329103,44.24939956665039,-12.08775978088379,1.688702929446778e+18,108.20177797851564,-281.7443481445313,138.87259521484376,-144.97015686035155,1.688702929446299e+18,108.20129915364583,0.192497432231903,-0.2716652154922485,0.0347418884436289,0.0204439926892518,-2.347264130910238,1.2537906964619954,-1.030124545097351
