seconds_elapsed_rounded,accelerometer_time,accelerometer_seconds_elapsed,accelerometer_z,accelerometer_y,accelerometer_x,accelerometeruncalibrated_time,accelerometeruncalibrated_seconds_elapsed,accelerometeruncalibrated_z,accelerometeruncalibrated_y,accelerometeruncalibrated_x,gravity_time,gravity_seconds_elapsed,gravity_z,gravity_y,gravity_x,gyroscope_time,gyroscope_seconds_elapsed,gyroscope_z,gyroscope_y,gyroscope_x,gyroscopeuncalibrated_time,gyroscopeuncalibrated_seconds_elapsed,gyroscopeuncalibrated_z,gyroscopeuncalibrated_y,gyroscopeuncalibrated_x,location_time,location_seconds_elapsed,location_bearingAccuracy,location_speedAccuracy,location_verticalAccuracy,location_horizontalAccuracy,location_speed,location_bearing,location_altitude,location_longitude,location_latitude,magnetometer_time,magnetometer_seconds_elapsed,magnetometer_z,magnetometer_y,magnetometer_x,magnetometeruncalibrated_time,magnetometeruncalibrated_seconds_elapsed,magnetometeruncalibrated_z,magnetometeruncalibrated_y,magnetometeruncalibrated_x,orientation_time,orientation_seconds_elapsed,orientation_qz,orientation_qy,orientation_qx,orientation_qw,orientation_roll,orientation_pitch,orientation_yaw
0.0,1.6887024319809196e+18,119.99591927083333,-0.2591036756833394,9.759517987569174,2.174898068110148,1.6887024319809196e+18,119.99591927083333,0.0336989363034566,0.0428714255491893,0.8817551434040068,1.6887024319809196e+18,119.99591927083333,0.2869565983613332,-9.699142138163248,-1.3558303117752075,1.6887024319895724e+18,120.00457242838542,-1.2998703122138977,-1.1514300803343456,2.812983592351278,1.6887024319852385e+18,120.00023840332032,-1.4777593612670898,-1.4501941204071045,3.0757066011428833,,,,,,,,,,,,1.688702431989118e+18,120.00411801757812,-30.31699905395508,39.33767929077148,14.679039764404298,1.688702431989118e+18,120.00411801757812,-284.8577880859375,134.80267639160155,-118.53275756835936,1.6887024319809196e+18,119.99591927083333,0.7383902072906494,-0.6592576106389364,-0.132978377242883,0.0423561396698156,0.9854266246159872,1.3934828440348308,2.4057597319285073
0.05,1.6887024320328266e+18,120.04782682291666,-1.7867857019106548,7.035897413889567,1.656579891840617,1.6887024320328266e+18,120.04782682291666,-0.9449655413627625,-2.686342239379883,0.603988289833069,1.6887024320328266e+18,120.04782682291666,0.8359741270542145,-9.704735120137531,-1.1152790387471516,1.6887024320414733e+18,120.05647322591146,0.5355251953005791,2.423302491505941,-2.3534091909726462,1.6887024320284956e+18,120.04349544270832,0.1854994197686513,1.466483861207962,-0.5262095332145691,1.6887024320112005e+18,120.02620043945312,0.0,0.0,1.1255548000335691,8.147000312805176,2.534662961959839,222.14523315429688,43.49212114991228,-122.7535118,49.1886727,1.6887024320391173e+18,120.05411733398437,-32.40319938659668,38.129878997802734,13.98363971710205,1.6887024320391173e+18,120.05411733398437,-286.9440002441406,133.59487915039062,-119.22815856933592,1.6887024320328266e+18,120.04782682291666,0.7558502554893494,-0.6385457913080851,-0.1294563164313633,0.0612037864824135,0.6757287184397379,1.3765897750854492,2.7376253604888916
0.1,1.6887024320847263e+18,120.0997265625,-5.286225934823354,-18.149095217386883,11.825559298197428,1.6887024320847263e+18,120.0997265625,-7.436294734477997,-27.584259668986004,10.766904513041178,1.6887024320847263e+18,120.0997265625,-2.1559149026870728,-9.417659123738607,-1.1213425199190776,1.6887024320847306e+18,120.09973059082031,0.5009095072746277,7.365202188491821,-8.069148063659668,1.6887024320804065e+18,120.0954060872396,0.6383541822433472,6.676299095153809,-7.401497840881348,,,,,,,,,,,,1.6887024320891154e+18,120.10411547851564,-17.221519565582277,43.11235885620117,19.8664794921875,1.6887024320891154e+18,120.10411547851564,-271.76231689453124,138.57735595703124,-113.34532012939454,1.6887024320847263e+18,120.0997265625,0.6367364128430685,-0.7217185497283936,-0.2345877438783645,0.1097302312652269,2.2581716775894165,1.337174693743388,1.380443553129832
0.15,1.6887024321366323e+18,120.15163224283856,-13.977921644846598,-27.861430803934734,2.308057049910227,1.6887024321366323e+18,120.15163224283856,-18.806389172871903,-36.408989588419594,2.2259233593940735,1.6887024321366323e+18,120.15163224283856,-4.83431355158488,-8.530054092407227,-0.1448211073875427,1.6887024321279844e+18,120.14298421223958,0.7775805294513702,6.205220143000285,-3.1776700715223947,1.6887024321323098e+18,120.1473098144531,0.5772167444229126,5.48689341545105,-2.4132231076558432,,,,,,,,,,,,1.6887024321391173e+18,120.15411733398436,4.987359952926636,43.7150390625,24.109639358520507,1.6887024321391173e+18,120.15411733398436,-249.55343627929688,139.18003845214844,-109.10215911865234,1.6887024321366323e+18,120.15163224283856,0.4862461984157562,-0.7645179629325867,-0.3719136615594228,0.1999045014381408,3.016284068425497,1.103691299756368,0.9829825560251872
0.2,1.6887024321885396e+18,120.20353963216144,32.63928270339966,-0.1671819686889648,-6.08981990814209,1.6887024321885396e+18,120.20353963216144,26.47718048095703,-7.619744221369426,-6.625127712885539,1.6887024321885396e+18,120.20353963216144,-6.167946815490723,-7.435057640075684,-0.5979954650004705,1.688702432179889e+18,120.1948887532552,-3.719354828198751,-9.816705944637455,-6.549951732158661,1.6887024321842184e+18,120.19921818033856,-3.8968111276626582,-10.69859222571055,-6.686021894216537,,,,,,,,,,,,1.688702432189119e+18,120.20411904296876,9.633119773864744,44.27867965698242,20.97423973083496,1.688702432189119e+18,120.20411904296876,-244.90767517089844,139.74367980957032,-112.23755950927736,1.6887024321885396e+18,120.20353963216144,0.1711699565251668,-0.2390205462773641,-0.1539051681756973,0.1216575937966505,3.013500372568766,0.9277381896972656,0.7194786866505941
0.25,1.6887024322404383e+18,120.25543823242188,22.642099380493164,-4.611841519673665,-2.4758052031199136,1.6887024322404383e+18,120.25543823242188,15.783457120259603,-11.46540896097819,-3.6977086067199703,1.6887024322404383e+18,120.25543823242188,-6.864489555358887,-6.836062749226888,-1.284590740998586,1.6887024322317934e+18,120.24679337565104,-3.257540742556254,-0.360919713973999,0.888147195180257,1.6887024322361198e+18,120.25111971028646,-2.9490027825037637,1.3677781422932942,1.7574083805084229,,,,,,,,,,,,1.6887024322391137e+18,120.2541138671875,12.051159858703612,46.1306396484375,15.66968002319336,1.6887024322391137e+18,120.2541138671875,-242.48963012695313,141.59564208984375,-117.54211730957032,1.6887024322404383e+18,120.25543823242188,-0.1226697961489359,0.3069844643274943,0.0442378918329874,0.0385053142284353,2.945497671763102,0.8324374755223592,0.4046506186326344
0.3,1.688702432292348e+18,120.3073479003906,1.0351481437683103,4.753652890523274,-1.4797765016555786,1.688702432292348e+18,120.3073479003906,-4.530410925547282,-3.3252258698145547,-1.3441681067148843,1.688702432292348e+18,120.3073479003906,-5.571405092875163,-8.061374346415201,0.0729210171848535,1.6887024322836895e+18,120.2986895345052,0.112755537033081,2.539010524749756,3.580535650253296,1.6887024322880238e+18,120.30302376302085,0.2431752781073252,2.1796181201934814,3.509573539098104,,,,,,,,,,,,1.6887024322891195e+18,120.30411953125,5.026399803161621,48.31199951171875,12.43179988861084,1.6887024322891195e+18,120.30411953125,-249.51439208984377,143.7769989013672,-120.77999877929688,1.688702432292348e+18,120.3073479003906,0.4814217587312062,-0.8544880350430807,-0.1692070166269938,0.0938710023959477,1.0418842633565266,1.0256709257761638,0.3940533796946208
0.35,1.6887024323356037e+18,120.350603515625,1.640363335609436,9.078426837921144,-1.244565188884735,1.6887024323356037e+18,120.350603515625,-2.87407910823822,0.3589234054088592,-1.3175479769706726,1.6887024323356037e+18,120.350603515625,-4.520288467407227,-8.701999187469482,-0.1356701757758855,1.688702432335602e+18,120.35060205078123,0.7559966246287028,-0.4409937858581543,2.9455413023630777,1.688702432339925e+18,120.35492480468751,0.7064147492249807,-0.6298529878258705,2.9619837601979575,,,,,,,,,,,,1.6887024323391214e+18,120.35412143554686,-2.940199874341488,48.42667922973633,13.71280002593994,1.6887024323391214e+18,120.35412143554686,-257.4809906005859,143.8916748046875,-119.4989990234375,1.6887024323356037e+18,120.350603515625,0.5353376865386963,-0.8184981942176819,-0.1811332330107688,0.1024830229580402,3.0758057832717896,1.151972472667694,0.478804349899292
0.4,1.6887024323788575e+18,120.39385758463544,-0.922771135965983,5.329751968383789,-3.7725613117218018,1.6887024323788575e+18,120.39385758463544,-4.1878383954366045,-3.904089401165644,-4.2602213223775225,1.6887024323788575e+18,120.39385758463544,-3.270913283030192,-9.216336886088053,-0.5503474672635397,1.6887024323875103e+18,120.40251049804688,-0.2425644155591726,-2.854471445083618,3.78064489364624,1.6887024323918316e+18,120.40683162434895,-0.183717722694079,-2.717484951019287,3.83801547686259,,,,,,,,,,,,1.688702432389127e+18,120.40412651367188,-13.10035972595215,46.889478302001955,13.183319854736329,1.688702432389127e+18,120.40412651367188,-267.641162109375,142.35447692871094,-120.02847747802734,1.6887024323788575e+18,120.39385758463544,0.5973913868268331,-0.7818024953206381,-0.1569179495175679,0.0782720645268757,2.897670348485311,1.285820682843526,0.581881026426951
0.45,1.6887024324307546e+18,120.44575463867189,14.957387924194336,-35.67595926920573,-2.22861655553182,1.6887024324307546e+18,120.44575463867189,13.18225908279419,-45.25366083780924,-3.384647687276205,1.6887024324307546e+18,120.44575463867189,-1.780975063641866,-9.560196240743002,-1.2187185486157734,1.6887024324394076e+18,120.45440763346352,4.302833000818889,13.003793954849243,0.8706356883049011,1.6887024324350794e+18,120.45007946777343,4.526129722595215,11.236865997314451,1.6409367695450785,,,,,,,,,,,,1.6887024324391153e+18,120.4541154296875,-17.126359748840333,42.717078399658206,19.990919494628905,1.6887024324391153e+18,120.4541154296875,-271.6671569824219,138.182080078125,-113.22087707519532,1.6887024324307546e+18,120.44575463867189,0.6554527680079142,-0.7159820993741354,-0.2024839048584302,0.0899796051283677,2.3122992515563965,1.3840175072352092,1.2499986290931702
0.5,1.6887024324826616e+18,120.49766178385418,-1.9865466753641765,-6.679493586222332,0.6216757297515869,1.6887024324826616e+18,120.49766178385418,-5.613163312276204,-15.739787737528482,-0.0935194889704386,1.6887024324826616e+18,120.49766178385418,-3.632462819417318,-9.042789459228516,-0.7778826157251993,1.688702432491313e+18,120.50631274414064,1.198161244392395,10.14499576886495,-2.7287349303563437,1.688702432478339e+18,120.49333951822918,2.2688552737236023,16.37011957168579,-2.8600711027781167,,,,,,,,,,,,1.6887024324891195e+18,120.50411982421876,11.431399536132812,37.09775924682617,31.341799545288087,1.6887024324891195e+18,120.50411982421876,-243.1093963623047,132.56275634765626,-101.86999816894532,1.6887024324826616e+18,120.49766178385418,0.4806360801060994,-0.6176300048828125,-0.5342274109522501,0.3029731164375941,2.744605859120687,1.1864239772160847,1.700414776802063
0.55,1.6887024325345695e+18,120.5495694173177,0.4357014497121175,3.878454049428304,2.3959096868832908,1.6887024325345695e+18,120.5495694173177,-3.8287155628204346,-4.869393984476726,1.2380863428115845,1.6887024325345695e+18,120.5495694173177,-4.270263036092122,-8.730343500773111,-1.2205107808113098,1.6887024325345695e+18,120.54956933593748,-0.1088103726506233,-8.491714239120483,0.2025018185377121,1.6887024325302456e+18,120.54524560546876,-0.0305941676100095,-7.223939657211304,-0.1096503275136153,1.688702432530245e+18,120.5452451171875,0.0,0.0,1.1571646928787231,8.364999771118164,2.645620346069336,216.56472778320312,43.52506431102901,-122.753526,49.1886553,1.6887024325391155e+18,120.55411552734374,13.544439792633057,35.699639892578126,33.23524017333985,1.6887024325391155e+18,120.55411552734374,-240.99635620117184,131.16463623046874,-99.97655792236328,1.6887024325345695e+18,120.5495694173177,0.4703536033630371,-0.6294397711753845,-0.552916427453359,0.2703182597955068,2.725250800450643,1.1071540117263794,1.701561450958252
0.6,1.6887024325864673e+18,120.60146720377604,2.4810771147410073,9.286775906880695,5.598259607950847,1.6887024325864673e+18,120.60146720377604,-0.5208377341429392,0.2554337978363037,3.2624142169952393,1.6887024325864673e+18,120.60146720377604,-3.007760842641195,-9.013837814331056,-2.3985327879587808,1.6887024325778194e+18,120.59281917317708,-1.3675745924313862,-8.857699076334635,0.9912306865056356,1.6887024325821484e+18,120.5971484375,-1.4818572600682576,-8.725751876831055,0.984256645043691,,,,,,,,,,,,1.6887024325891174e+18,120.60411752929689,-4.140679979324341,37.571118927001955,33.33771896362305,1.6887024325891174e+18,120.60411752929689,-258.6814788818359,133.03611450195314,-99.87407836914062,1.6887024325864673e+18,120.60146720377604,0.5911807417869568,-0.6766086419423422,-0.40891033411026,0.1478041360775629,2.297935644785563,1.179407278696696,1.671541690826416
0.65,1.6887024326383788e+18,120.65337858072915,0.1465959151585897,11.132264455159506,5.14815886815389,1.6887024326383788e+18,120.65337858072915,-1.5982061624526978,1.7345970074335737,2.9597221215566,1.6887024326383788e+18,120.65337858072915,-1.7506481011708577,-9.380163192749023,-2.251124302546183,1.6887024326297272e+18,120.64472729492188,-2.2374466260274253,-7.069390773773193,0.6742934187253317,1.688702432634051e+18,120.64905110677084,-2.252565622329712,-6.913060188293457,0.6892596085866293,,,,,,,,,,,,1.68870243263912e+18,120.65411962890626,-17.314239692687988,40.55035934448242,25.21007919311523,1.68870243263912e+18,120.65411962890626,-271.85503540039065,136.0153594970703,-108.00171813964845,1.6887024326383788e+18,120.65337858072915,0.662924329439799,-0.7021545569101969,-0.2482178856929142,0.0595293256143728,1.9940375884373984,1.297242005666097,1.5912457704544067
0.7,1.6887024326902833e+18,120.7052831217448,1.2130843301614125,10.415328661600748,3.0372118949890137,1.6887024326902833e+18,120.7052831217448,0.543768923729658,0.7274180750052134,1.6476577520370483,1.6887024326902833e+18,120.7052831217448,-0.6751614411671957,-9.670406023661297,-1.4522415399551392,1.6887024326816315e+18,120.69663183593748,-2.1325814723968506,-4.572784582773845,1.2772682905197144,1.6887024326859543e+18,120.70095458984376,-2.1115574836730957,-4.283183495203654,1.3092878262201946,,,,,,,,,,,,1.6887024326891156e+18,120.70411577148438,-25.58339958190918,41.71179962158203,14.62047996520996,1.6887024326891156e+18,120.70411577148438,-280.1241943359375,137.17679443359376,-118.59131927490236,1.6887024326902833e+18,120.7052831217448,0.7067928711573283,-0.6973956823348999,-0.1137970363100369,0.0110583584755658,1.5317517518997192,1.4226035674413045,1.7872671683629353
0.75,1.6887024327421862e+18,120.75718636067708,0.2516901095708211,5.08308474222819,3.822485287984213,1.6887024327421862e+18,120.75718636067708,0.2859423061211903,-4.7046882311503095,3.0109685262044272,1.6887024327421862e+18,120.75718636067708,0.0284061630566915,-9.770268440246582,-0.874204178651174,1.6887024327335365e+18,120.74853613281248,-0.4887940088907878,-0.4926119049390157,0.9732610781987509,1.6887024327378565e+18,120.75285595703126,-0.1993457128604252,-0.0554868926604588,0.8800022999445597,,,,,,,,,,,,1.6887024327391196e+18,120.75411953124998,-30.124239349365233,41.204278564453126,8.349679946899414,1.6887024327391196e+18,120.75411953124998,-284.6650329589844,136.66927490234374,-124.86211700439452,1.6887024327421862e+18,120.75718636067708,0.7312535444895426,-0.6790800293286642,-0.0629446978370348,0.0081667279203732,0.8620226581891378,1.4635621706644697,2.3803323904673257
0.8,1.6887024327854392e+18,120.80043933105468,-0.4743316620588302,-4.799202442169189,8.879834413528442,1.6887024327854392e+18,120.80043933105468,-0.8919246196746826,-14.488840103149414,7.41326379776001,1.6887024327854392e+18,120.80043933105468,-0.4234389923512935,-9.672133445739746,-1.5292583107948303,1.6887024327854415e+18,120.80044132486978,2.524858752886454,5.417967478434245,-2.741308704018593,1.6887024327897672e+18,120.80476717122396,2.572099049886068,6.06920059521993,-3.405471940835317,,,,,,,,,,,,1.6887024327891177e+18,120.80411767578126,-27.86479949951172,40.6650390625,13.66399974822998,1.6887024327891177e+18,120.80411767578126,-282.4055908203125,136.13003540039062,-119.54779663085938,1.6887024327854392e+18,120.80043933105468,0.7147654592990875,-0.6850525140762329,-0.1348331235349177,0.025555551983416,1.393274426460266,1.4065738916397097,1.9765187501907349
0.85,1.6887024328286958e+18,120.84369580078123,-10.712218999862673,-26.97860336303711,10.992372512817385,1.6887024328286958e+18,120.84369580078123,-14.305490493774412,-35.940195083618164,9.816156069437662,1.6887024328286958e+18,120.84369580078123,-3.5991176764170327,-8.944086710611979,-1.2389044165611267,1.688702432837341e+18,120.8523407389323,-0.7067201932271322,9.19509983062744,-6.041457096735637,1.6887024328416714e+18,120.85667138671874,-1.0621928175290425,8.620275974273682,-5.455332239468892,,,,,,,,,,,,1.6887024328391204e+18,120.85412026367187,-4.926359869539738,43.55399856567383,23.18975944519043,1.6887024328391204e+18,120.85412026367187,-259.46715087890624,139.0189971923828,-110.02203826904297,1.6887024328286958e+18,120.84369580078123,0.5715894202391306,-0.7534680565198263,-0.2906298140684764,0.1145841131607691,2.613691806793213,1.2004772822062175,1.1224873860677085
0.9,1.6887024328805993e+18,120.89559936523438,-4.6585714022318525,-8.071507136027018,-1.5798736612002056,1.6887024328805993e+18,120.89559936523438,-9.724431355794271,-16.45823319753011,-0.8827521602312723,1.6887024328805993e+18,120.89559936523438,-5.071706136067708,-8.369221687316895,0.6344341337680817,1.6887024328892498e+18,120.90424959309895,-2.544253667195638,-1.4080444773038228,-0.2806925748785336,1.6887024328849234e+18,120.89992321777343,-2.317393660545349,-0.208610475063324,0.5113705545663834,,,,,,,,,,,,1.6887024328891195e+18,120.90411953125,5.9657999038696286,45.83783950805664,18.970999908447265,1.6887024328891195e+18,120.90411953125,-248.5749969482422,141.30283813476564,-114.2407974243164,1.6887024328805993e+18,120.89559936523438,0.4677353998025258,-0.7899287343025208,-0.3331182003021239,0.2143825739622116,-0.9890347321828208,1.0792700449625652,0.763024628162384
0.95,1.6887024329324997e+18,120.94749959309895,43.30135726928711,-4.771833419799805,-5.627279758453369,1.6887024329324997e+18,120.94749959309895,36.648471434911094,-11.91785192489624,-5.6123654047648115,1.6887024329324997e+18,120.94749959309895,-6.65873368581136,-7.128514289855957,-0.0477731178204218,1.6887024329411471e+18,120.95614721679688,-3.519805510838826,-6.6161290407180795,-3.7873645623524985,1.6887024329281792e+18,120.94317903645832,-3.9116756916046143,-9.228646755218506,-5.826738198598226,,,,,,,,,,,,1.6887024329391153e+18,120.954115234375,12.175599479675292,46.74063873291016,13.65667953491211,1.6887024329391153e+18,120.954115234375,-242.36519470214844,142.2056396484375,-119.55511932373048,1.6887024329324997e+18,120.94749959309895,0.4142671326796214,-0.8793801863988241,-0.2000371366739272,0.0866295564919709,1.0245886643727622,0.8793799678484598,0.4564401904741923
1.0,1.688702432984409e+18,120.99940901692707,4.499238014221191,-2.0102508862813315,-5.409242153167725,1.688702432984409e+18,120.99940901692707,-1.5820547739664714,-9.660622437795002,-4.738785902659099,1.688702432984409e+18,120.99940901692707,-6.087138811747233,-7.632866859436035,0.6077687814831734,1.6887024329844076e+18,120.99940771484376,-0.4282928965985775,4.400520443916321,4.561789035797119,1.6887024329800837e+18,120.99508333333334,-0.8005388975143433,3.875379959742228,4.304563681284587,,,,,,,,,,,,1.6887024329891185e+18,121.00411840820313,6.556279945373535,48.65359878540039,9.708759880065918,1.6887024329891185e+18,121.00411840820313,-247.9845184326172,144.11859741210938,-123.50303802490234,1.688702432984409e+18,120.99940901692707,0.447385162115097,-0.8733377854029337,-0.1532371342182159,0.1090499858061471,-3.0452900727589927,0.9546809196472168,0.2952751914660135
1.05,1.6887024330363128e+18,121.05131274414062,-1.1938717365264893,7.320482571919759,-4.796425819396973,1.6887024330363128e+18,121.05131274414062,-5.37208620707194,-1.524626851081848,-4.053441603978475,1.6887024330363128e+18,121.05131274414062,-4.1840604941050215,-8.82760492960612,0.6802968581517538,1.6887024330276616e+18,121.04266153971356,0.2248493209481239,-0.9376780986785888,4.468072096506755,1.688702433031981e+18,121.04698095703124,0.1557706445455551,-1.2768101648737986,4.438699563344319,1.6887024330492897e+18,121.06428955078124,0.0,0.0,1.1571646928787231,8.460000038146973,2.7572929859161377,214.69915771484375,43.52506431102901,-122.7535338,49.1886457,1.6887024330391176e+18,121.054117578125,-5.224039852619171,49.00007858276367,9.84783992767334,1.6887024330391176e+18,121.054117578125,-259.76484375,144.46507873535157,-123.36395721435548,1.6887024330363128e+18,121.05131274414062,0.543984850247701,-0.8146294156710306,-0.1467802623907724,0.1334081962704658,-2.986542145411174,1.1850115458170574,0.2518818527460097
1.1,1.6887024330882168e+18,121.103216796875,1.004507541656494,1.9762412707010903,-6.454998811086019,1.6887024330882168e+18,121.103216796875,-1.3846466541290283,-7.537590742111206,-6.10309362411499,1.6887024330882168e+18,121.103216796875,-2.3950002988179526,-9.49632740020752,0.2892177154620488,1.688702433079566e+18,121.09456608072917,-0.7710646589597067,-4.375067790349324,3.837200880050659,1.6887024330838825e+18,121.09888264973956,-0.7357872128486633,-4.471380869547526,3.753563324610392,,,,,,,,,,,,1.6887024330891195e+18,121.10411967773436,-17.023879623413087,47.28231964111328,6.324479866027832,1.6887024330891195e+18,121.10411967773436,-271.56467895507814,142.7473175048828,-126.88731689453124,1.6887024330882168e+18,121.103216796875,0.6337915857632955,-0.7651864290237427,-0.0706725046038627,0.0773359450201193,-2.9705198605855307,1.3841222922007244,0.0398985656599203
1.15,1.6887024331401185e+18,121.15511840820312,14.31468137105306,-17.809848467508953,-4.050271670023601,1.6887024331401185e+18,121.15511840820312,13.058829625447592,-27.511677424112957,-4.741577625274658,1.6887024331401185e+18,121.15511840820312,-1.2616978486378987,-9.684324264526367,-0.7539933373530706,1.688702433131474e+18,121.14647403971357,3.0108530124028525,1.9840903282165527,1.7601064046223958,1.688702433135796e+18,121.1507958170573,3.503108580907186,3.416569471359253,1.4396057377258935,,,,,,,,,,,,1.6887024331391158e+18,121.15411586914064,-23.52647933959961,44.34456024169922,7.92023983001709,1.6887024331391158e+18,121.15411586914064,-278.0672668457031,139.80956115722657,-125.29156036376952,1.6887024331401185e+18,121.15511840820312,0.6814796725908915,-0.7226345737775167,-0.0925226919353007,0.0358391491075356,2.4467960198720298,1.4598815441131592,0.8772781093915304
1.2,1.6887024331920233e+18,121.2070235188802,8.594057401021322,-20.098695755004883,8.168096542358398,1.6887024331920233e+18,121.2070235188802,5.397809187571208,-29.259236017862957,7.105287313461304,1.6887024331920233e+18,121.2070235188802,-3.202094237009684,-9.143035888671877,-1.125496764977773,1.688702433183375e+18,121.1983750813802,4.154748996098836,20.215261459350582,-2.506125569343567,1.6887024331877e+18,121.2027001953125,3.800956249237061,20.788965861002605,-2.9490538438161216,,,,,,,,,,,,1.6887024331891238e+18,121.20412387695312,-5.272839736938476,40.48203964233399,27.869679260253907,1.6887024331891238e+18,121.20412387695312,-259.8136352539062,135.94703674316406,-105.34211730957033,1.6887024331920233e+18,121.2070235188802,0.5394681294759115,-0.6653156876564026,-0.4358120361963908,0.2283315310875574,2.5980277856191,1.2227500279744463,1.5527687867482505
1.25,1.688702433235283e+18,121.25028295898436,-1.7200372219085691,1.0729732513427734,0.3573123812675476,1.688702433235283e+18,121.25028295898436,-6.2282183170318595,-7.640880584716797,0.0296111702919006,1.688702433235283e+18,121.25028295898436,-4.514027118682861,-8.696349143981934,-0.3903886266052723,1.688702433235277e+18,121.25027709960938,0.4162028431892395,-1.8244001070658369,-1.071355809768041,1.6887024332396063e+18,121.2546066080729,0.2047925690809885,-4.057366768519084,-0.5665265917778015,,,,,,,,,,,,1.6887024332391186e+18,121.25411855468752,17.140999603271485,36.63903884887695,30.98555908203125,1.6887024332391186e+18,121.25411855468752,-237.39979553222656,132.10403442382812,-102.22623901367189,1.688702433235283e+18,121.25028295898436,0.427061453461647,-0.6279210150241852,-0.5701128542423248,0.3120761513710021,2.9286651611328125,1.1038735508918762,1.6057981252670288
1.3,1.6887024332785336e+18,121.29353369140624,2.897737979888916,7.286686261494954,4.170290470123291,1.6887024332785336e+18,121.29353369140624,-0.7651050587495166,-1.6709878345330555,2.6219353675842285,1.6887024332785336e+18,121.29353369140624,-3.6686890920003257,-8.94016965230306,-1.6110424995422363,1.688702433287184e+18,121.30218400065104,-1.4984524647394817,-8.666752179463705,1.6828828652699788,1.6887024332915118e+18,121.3065116373698,-1.5953763723373413,-8.487106959025065,1.7269160350163777,,,,,,,,,,,,1.6887024332891151e+18,121.30411503906252,1.9007599115371705,38.281159210205075,32.73503952026367,1.6887024332891151e+18,121.30411503906252,-252.6400360107422,133.74615783691405,-100.4767578125,1.6887024332785336e+18,121.29353369140624,0.5348057051499685,-0.6704659660657247,-0.4638917744159698,0.212937851746877,2.5742436250050864,1.1639824310938518,1.5911067724227903
1.35,1.6887024333304333e+18,121.34543318684896,1.4871388673782349,10.985758145650228,3.906442642211914,1.6887024333304333e+18,121.34543318684896,-0.6514459699392319,1.5778671503067017,2.1549362341562905,1.6887024333304333e+18,121.34543318684896,-2.1444308757781982,-9.39038626352946,-1.8141937653223672,1.688702433339088e+18,121.3540878092448,-2.308510700861613,-6.703431447347005,1.5209526618321736,1.688702433334764e+18,121.34976391601565,-2.2604305744171143,-6.757925987243652,1.6150513291358948,,,,,,,,,,,,1.6887024333391196e+18,121.35411948242188,-13.917759704589844,40.730919647216794,26.635039138793942,1.6887024333391196e+18,121.35411948242188,-268.45855712890625,136.19591369628907,-106.5767578125,1.6887024333304333e+18,121.34543318684896,0.6344078183174133,-0.69565749168396,-0.3075890739758809,0.1280172367890675,2.2101754347483316,1.3013923565546672,1.5646700064341228
1.4,1.6887024333823416e+18,121.39734163411458,-0.2093894084294637,11.31663990020752,2.374978939692179,1.6887024333823416e+18,121.39734163411458,-1.2827523350715635,1.613161285718282,1.3768700162569685,1.6887024333823416e+18,121.39734163411458,-1.0792089700698853,-9.68597412109375,-1.0607963800430298,1.6887024333909834e+18,121.40598339843751,-2.4201463063557944,-5.077817281087239,1.131933291753133,1.6887024333780175e+18,121.393017578125,-2.4878505071004233,-5.681912104288737,1.1735739707946775,,,,,,,,,,,,1.6887024333891195e+18,121.4041197265625,-23.836359405517577,42.4681999206543,15.938079833984377,1.6887024333891195e+18,121.4041197265625,-278.3771545410156,137.93319702148438,-117.27371826171876,1.6887024333823416e+18,121.39734163411458,0.6878082950909933,-0.7043876647949219,-0.1552054608861605,0.0698712430894374,1.9007562796274824,1.4474992354710896,1.5614969730377195
1.45,1.688702433434248e+18,121.44924763997396,1.8709784746170044,8.33888864517212,0.3157901763916015,1.688702433434248e+18,121.44924763997396,1.3174482782681782,-1.4681960692008336,0.0965105146169662,1.688702433434248e+18,121.44924763997396,-0.5593762596448263,-9.789580345153809,-0.281967078646024,1.688702433434245e+18,121.4492451171875,-0.8758280724287033,-0.9584475234150888,-0.0219911485910415,1.6887024334299218e+18,121.4449219563802,-1.135853002468745,-1.5003868540128071,0.1972585693001746,,,,,,,,,,,,1.68870243343912e+18,121.4541201171875,-27.92091941833496,42.868359375,7.922679805755616,1.68870243343912e+18,121.4541201171875,-282.4617126464844,138.33335571289064,-125.28911590576172,1.688702433434248e+18,121.44924763997396,0.7082758943239847,-0.7012629508972168,-0.0647445184489091,0.0483385982612767,1.2296564777692158,1.5452642838160198,2.0720539887746177
1.5,1.6887024334861445e+18,121.50114396158854,-0.1448981662591299,3.90664275487264,3.985137422879537,1.6887024334861445e+18,121.50114396158854,-1.1621141632397969,-5.852245966593425,3.6002010901769004,1.6887024334861445e+18,121.50114396158854,-1.023062030474345,-9.741384188334148,-0.4476237694422404,1.688702433477501e+18,121.49250089518227,1.165327250957489,3.520874579747518,-1.1923580765724182,1.6887024334818222e+18,121.4968223470052,1.3376930356025696,3.9836559295654297,-1.3530665040016174,,,,,,,,,,,,1.6887024334891195e+18,121.50411948242188,-23.838799285888673,43.43199920654297,11.709559631347656,1.6887024334891195e+18,121.50411948242188,-278.3796020507813,138.89700012207032,-121.50223693847656,1.6887024334861445e+18,121.50114396158854,0.6878645221392313,-0.7111406127611796,-0.1163409849007924,0.0776846942802269,2.1844813426335654,1.50654935836792,1.232776959737142
1.55,1.6887024335380564e+18,121.553056640625,-13.8931516011556,-28.024298350016277,11.994698524475098,1.6887024335380564e+18,121.553056640625,-17.155142466227215,-37.203805923461914,11.204591433207192,1.6887024335380564e+18,121.553056640625,-3.2678364912668862,-9.162002881368002,-0.8527946074803671,1.6887024335293957e+18,121.54439542643227,2.7482827504475913,7.828696250915527,-5.207320769627889,1.6887024335337226e+18,121.54872281901042,2.658281922340393,7.803956190745036,-5.384267965952556,,,,,,,,,,,,1.6887024335391176e+18,121.55411733398437,-8.354559826850892,43.71015930175781,22.26499938964844,1.6887024335391176e+18,121.55411733398437,-262.8953552246094,139.17515869140624,-110.94679718017578,1.6887024335380564e+18,121.553056640625,0.5808380047480265,-0.7427360812822977,-0.2900534669558207,0.1469738756616909,2.7179980278015137,1.2631419102350872,1.0622122287750242
1.6,1.6887024335899566e+18,121.60495678710936,-5.4718302090962725,-10.829038937886557,-1.328292280435562,1.6887024335899566e+18,121.60495678710936,-10.39920695622762,-19.321244875590008,-1.3030913167943556,1.6887024335899566e+18,121.60495678710936,-4.933222770690918,-8.474701881408691,-0.0374863982821504,1.688702433581305e+18,121.59630533854164,-1.4676037393510342,1.7578156193097432,-1.856674035390218,1.68870243358563e+18,121.60062980143228,-1.789173444112142,1.061174710591634,-1.4916310906410215,1.688702433575172e+18,121.59017211914062,0.0,0.0,1.1562285423278809,8.416999816894531,2.8514604568481445,212.35398864746097,43.52506431102901,-122.7535442,49.1886305,1.6887024335891195e+18,121.60411928710936,4.321239948272705,44.078599548339845,23.277599334716797,1.6887024335891195e+18,121.60411928710936,-250.2195556640625,139.54359741210936,-109.93419799804688,1.6887024335899566e+18,121.60495678710936,0.4837860067685445,-0.7765172918637594,-0.3533646762371063,0.1943084597587584,3.052720387776693,1.094024022420247,0.908735732237498
1.65,1.6887024336418665e+18,121.65686678059896,41.23260625203451,-8.25806744893392,-1.4637622038523357,1.6887024336418665e+18,121.65686678059896,34.56472154458364,-15.101303418477375,-2.8731818199157715,1.6887024336418665e+18,121.65686678059896,-6.6737297375996905,-6.8257317543029785,-1.4721071620782216,1.6887024336332132e+18,121.64821321614583,-3.386535088221232,-12.374450445175173,-7.267514824867248,1.6887024336375406e+18,121.65254069010416,-3.472972551981608,-13.218207518259684,-7.947763919830322,,,,,,,,,,,,1.6887024336391163e+18,121.65411616210936,9.894199848175049,45.44743957519531,18.80751953125,1.6887024336391163e+18,121.65411616210936,-244.64659423828124,140.91244201660157,-114.40427856445312,1.6887024336418665e+18,121.65686678059896,0.1583375434080759,-0.2714234590530395,-0.1212030599514643,0.0913550298040111,2.916430632273356,0.8356022040049235,0.5531228681405386
1.7,1.6887024336851128e+18,121.70011291503906,20.69093894958496,-4.874311447143555,1.0363304018974302,1.6887024336851128e+18,121.70011291503906,13.917852640151978,-11.549855709075928,-1.2637094557285309,1.6887024336851128e+18,121.70011291503906,-6.77893328666687,-6.658039569854736,-2.3627272248268127,1.688702433685112e+18,121.70011206054689,-1.923105577627818,2.8617000579833984,2.944065034389496,1.6887024336894374e+18,121.7044373372396,-1.6993252833684285,4.126903812090556,3.5376224915186563,,,,,,,,,,,,1.6887024336891151e+18,121.70411499023436,9.796599674224854,46.57959899902344,16.22599983215332,1.6887024336891151e+18,121.70411499023436,-244.74419555664065,142.04459533691406,-116.98579711914064,1.6887024336851128e+18,121.70011291503906,-0.4092522859573364,0.9011186063289642,0.1132251508533954,0.0795609820634126,2.7951505184173584,0.804499089717865,0.3973156213760375
1.75,1.6887024337283694e+18,121.74336954752604,-0.8417340914408366,3.0754082997639975,0.1306251287460327,1.6887024337283694e+18,121.74336954752604,-6.504888375600179,-4.880759835243225,-0.6514459649721781,1.6887024337283694e+18,121.74336954752604,-5.669000307718913,-7.938663482666016,-0.8447584907213846,1.6887024337370232e+18,121.75202311197916,0.518675501147906,2.5461371739705405,4.320242722829183,1.6887024337413478e+18,121.7563477376302,0.597324401140213,2.0805051624774933,4.217260917027791,,,,,,,,,,,,1.6887024337391173e+18,121.75411743164064,1.5103599801659584,47.89719924926758,14.52775993347168,1.6887024337391173e+18,121.75411743164064,-253.03043518066409,143.36219482421876,-118.68403778076171,1.6887024337283694e+18,121.74336954752604,0.4826495746771495,-0.8604289094607035,-0.1551494499047596,0.0349215283058583,2.972971518834432,1.0022193988164263,0.4493759473164876
1.8,1.6887024337802732e+18,121.79527303059896,-1.71371324857076,8.875808715820312,-0.7307167649269104,1.6887024337802732e+18,121.79527303059896,-5.766702651977539,0.0043868323167165,-1.7086747884750366,1.6887024337802732e+18,121.79527303059896,-4.05883542696635,-8.853917439778646,-1.0406454205513,1.6887024337889231e+18,121.80392309570313,0.3737986286481221,-2.8277461528778076,3.6204964319864903,1.6887024337846034e+18,121.79960339355468,0.5674174576997757,-2.4491878151893616,3.5231653451919556,,,,,,,,,,,,1.68870243378912e+18,121.80411997070313,-8.871839809417725,47.01635894775391,15.71359977722168,1.68870243378912e+18,121.80411997070313,-263.4126342773437,142.48135375976562,-117.49819793701172,1.6887024337802732e+18,121.79527303059896,0.5641918977101644,-0.8068182269732157,-0.1663313657045364,0.0463047294567028,2.82766326268514,1.1843856970469158,0.6217959324518839
1.85,1.68870243383218e+18,121.84718009440104,1.4660770893096924,-4.579199473063151,-4.15937598546346,1.68870243383218e+18,121.84718009440104,-0.453240434328715,-14.063615798950195,-5.654239972432454,1.68870243383218e+18,121.84718009440104,-1.925163507461548,-9.466911951700846,-1.557551423708598,1.688702433840829e+18,121.85582885742188,-0.4032728870709737,-1.8688913186391192,4.346815268198649,1.688702433827856e+18,121.84285620117188,-0.6514368851979574,-3.979278008143107,4.312606890996297,,,,,,,,,,,,1.6887024338391196e+18,121.85411958007812,-21.26215934753418,44.466558837890624,12.539159774780272,1.6887024338391196e+18,121.85411958007812,-275.8029541015625,139.93155517578126,-120.67263641357422,1.68870243383218e+18,121.84718009440104,-0.2407047351201375,0.2321288784344991,0.0157997036973634,0.0169931178291638,2.237375179926554,1.3582996527353923,1.025577704111735
1.9,1.6887024338840863e+18,121.89908618164064,12.432704528172811,-29.292492548624676,4.200750350952148,1.6887024338840863e+18,121.89908618164064,11.07657527923584,-38.79024759928385,2.3104697863260903,1.6887024338840863e+18,121.89908618164064,-1.3619755307833354,-9.480249087015787,-1.9529682795206704,1.688702433884087e+18,121.89908703613284,3.880979537963867,17.91545581817627,-0.4311181306838989,1.6887024338797545e+18,121.89475431315104,3.039563616116842,14.918856461842855,0.3885612487792969,,,,,,,,,,,,1.6887024338891195e+18,121.90411958007812,-20.82295980453491,39.54995956420898,22.357719230651856,1.6887024338891195e+18,121.90411958007812,-275.36375732421874,135.01495971679688,-110.8540771484375,1.6887024338840863e+18,121.89908618164064,0.666494349638621,-0.6804937720298767,-0.254330853621165,0.085529589113624,1.863163948059082,1.3275079329808552,1.774025519688924
1.95,1.68870243393599e+18,121.95098990885415,-4.544739405314128,-2.9736425081888833,-3.5412036577860513,1.68870243393599e+18,121.95098990885415,-8.60598607858022,-11.864611466725668,-4.382454554239909,1.68870243393599e+18,121.95098990885415,-4.067092736562093,-8.873464266459147,-0.9039382537206014,1.6887024339273388e+18,121.94233846028646,1.2949833869934084,12.12170430024465,-2.723084549109141,1.6887024339316646e+18,121.94666487630208,1.0590876340866089,9.724974791208902,-2.3515766064325967,,,,,,,,,,,,1.6887024339391155e+18,121.954115625,11.855959796905518,36.03635940551758,33.34747848510742,1.6887024339391155e+18,121.954115625,-242.6848358154297,131.50135803222656,-99.86431884765624,1.68870243393599e+18,121.95098990885415,0.4661773641904195,-0.6226828495661417,-0.5532490809758505,0.2959396441777546,2.778016408284506,1.141270399093628,1.6884514093399048
2.0,1.688702433987894e+18,122.00289396158853,1.0941816965738933,4.679826100667317,3.877415974934896,1.688702433987894e+18,122.00289396158853,-2.44566410779953,-4.258626222610474,1.984447609633207,1.688702433987894e+18,122.00289396158853,-3.545691808064779,-8.920947710673014,-1.9556559324264529,1.6887024339792415e+18,121.99424178059894,-0.689055989185969,-8.708952903747559,0.8127562006314596,1.6887024339835692e+18,121.9985692545573,-0.8834638372063637,-8.976919333140055,0.9060149590174356,,,,,,,,,,,,1.6887024339891205e+18,122.00412036132812,5.165479969978333,35.67279891967773,34.911520385742186,1.6887024339891205e+18,122.00412036132812,-249.3753173828125,131.1377960205078,-98.30027618408204,1.688702433987894e+18,122.00289396158853,0.5423064132531484,-0.6561273336410522,-0.4774278899033864,0.2073734601338704,2.485881964365641,1.1526861985524497,1.6943303346633911
2.05,1.6887024340397965e+18,122.05479646809896,2.1712761322657266,9.508218765258787,4.717085202534993,1.6887024340397965e+18,122.05479646809896,0.0217348039150238,0.1637089451154073,2.666402022043864,1.6887024340397965e+18,122.05479646809896,-2.1553873221079507,-9.32700538635254,-2.113370656967163,1.6887024340311406e+18,122.0461405436198,-2.489581267038981,-7.939415613810222,0.807003915309906,1.6887024340354737e+18,122.0504737141927,-2.571844498316447,-7.709577560424805,0.7513642509778341,,,,,,,,,,,,1.6887024340391178e+18,122.05411772460936,-11.2093599319458,38.98631896972656,30.221838760375977,1.6887024340391178e+18,122.05411772460936,-265.7501586914062,134.4513153076172,-102.98995666503906,1.6887024340397965e+18,122.05479646809896,0.6374011039733887,-0.6960105498631796,-0.3075153728326161,0.1090375110507011,2.160750945409139,1.2770038445790608,1.586718479792277
2.1,1.688702434091703e+18,122.106703125,-0.4035913149515788,11.13177808125814,3.1362241903940835,1.688702434091703e+18,122.106703125,-1.7603198687235515,1.4777673880259197,2.0215362707773843,1.688702434091703e+18,122.106703125,-1.362574577331543,-9.63650639851888,-1.177375316619873,1.6887024340830518e+18,122.0980518391927,-2.8904616038004556,-5.46098264058431,0.6420193910598755,1.6887024340873782e+18,122.1023780924479,-2.8714230060577393,-5.294521808624268,0.7164431214332581,1.6887024340873784e+18,122.10237841796877,0.0,0.0,1.1595805883407593,8.291000366210938,2.8720614910125732,210.14125061035156,43.528152738966824,-122.7535547,49.1886148,1.6887024340891182e+18,122.10411801757814,-22.70663948059082,42.455999755859374,17.03851947784424,1.6887024340891182e+18,122.10411801757814,-277.2474365234375,137.9209991455078,-116.17327575683592,1.688702434091703e+18,122.106703125,0.6778545180956522,-0.7157371441523234,-0.152609201769034,0.0570270679891109,2.109633684158325,1.42510720094045,1.330686132113139
2.15,1.6887024341349563e+18,122.14995654296877,2.0100879669189453,9.617384910583496,0.2586728930473327,1.6887024341349563e+18,122.14995654296877,1.3229318261146543,-0.1800599098205567,0.0747757256031036,1.6887024341349563e+18,122.14995654296877,-0.6930020749568939,-9.779940128326416,-0.2465845458209514,1.6887024341349527e+18,122.14995263671877,-2.1804325580596924,-3.176499287287394,1.282511591911316,1.6887024341392776e+18,122.15427775065103,-2.0594813028971353,-2.9317967891693115,1.2480486234029131,,,,,,,,,,,,1.68870243413912e+18,122.15411977539064,-28.10391960144043,42.84639892578125,6.226879835128784,1.68870243413912e+18,122.15411977539064,-282.64470825195315,138.3113983154297,-126.98491668701172,1.6887024341349563e+18,122.14995654296877,0.7041085064411163,-0.7072995901107788,-0.0488686580210923,0.0358017105609178,0.983401134610176,1.546294093132019,-0.8635672926902771
2.2,1.6887024341782024e+18,122.19320231119792,1.2868113120396931,8.356875578562418,0.3004098037878672,1.6887024341782024e+18,122.19320231119792,0.9970094660917918,-1.4626128276189168,0.6087739517291387,1.6887024341782024e+18,122.19320231119792,-0.295647899309794,-9.801983833312988,0.2456767261028289,1.6887024341868562e+18,122.20185611979169,-0.364941085378329,-0.2052507350842158,0.0478510955969492,1.6887024341911846e+18,122.2061844889323,-0.2156863361597061,0.0940732434391975,-0.1299615806589523,,,,,,,,,,,,1.688702434189118e+18,122.20411782226564,-29.58499946594238,41.94603958129883,1.768999981880188,1.688702434189118e+18,122.20411782226564,-284.12579345703125,137.41104125976562,-131.4427978515625,1.6887024341782024e+18,122.19320231119792,0.7172929247220358,-0.6960147817929586,-0.0053569369289713,0.0314164677013953,-0.8505993286768595,1.5231581528981526,-2.23896861076355
2.25,1.688702434230115e+18,122.24511482747396,0.7603389173746109,-8.792380650838217,8.750077803929647,1.688702434230115e+18,122.24511482747396,-0.1858425584311286,-18.558732350667317,8.93420155843099,1.688702434230115e+18,122.24511482747396,-0.9520275294780732,-9.748847007751465,0.1214368268847465,1.688702434238762e+18,122.2537618815104,1.7588847080866497,6.300566037495931,-4.2010730902353925,1.6887024342344356e+18,122.249435546875,1.629864752292633,5.089500069618225,-3.5950183868408203,,,,,,,,,,,,1.688702434239121e+18,122.25412109375,-24.86115951538086,44.12739868164063,6.905199861526489,1.688702434239121e+18,122.25412109375,-279.401953125,139.59239807128907,-126.30659790039064,1.688702434230115e+18,122.24511482747396,0.6909601092338562,-0.7173391977945963,-0.0492633823305367,0.0578550547361373,-0.1618682940800984,1.5107255379358928,-0.7334525386492413
2.3,1.6887024342820188e+18,122.29701888020831,-11.270391623179115,-26.18184502919515,12.41090981165568,1.6887024342820188e+18,122.29701888020831,-14.971093654632568,-35.19463221232096,13.266207377115885,1.6887024342820188e+18,122.29701888020831,-3.706548055013021,-8.995281855265299,0.7926103894909223,1.6887024342906696e+18,122.30566959635416,-0.8186103502909342,8.985827445983887,-5.135085900624593,1.6887024342776942e+18,122.29269392903645,0.244142518689235,10.585429191589355,-6.346126238505046,,,,,,,,,,,,1.6887024342891177e+18,122.3041177734375,-3.864959990978241,47.26279907226562,15.259759902954102,1.6887024342891177e+18,122.3041177734375,-258.4057556152344,142.72780151367186,-117.95203704833985,1.6887024342820188e+18,122.29701888020831,0.5403030614058176,-0.7780380646387736,-0.2375536113977432,0.1984457323948542,-0.9082422256469728,1.2272534767786665,0.5008395810921987
2.35,1.6887024343339205e+18,122.34892041015624,-4.733094056447347,0.2873009045918782,-4.243880947430928,1.6887024343339205e+18,122.34892041015624,-9.760124206542969,-7.806783278783162,-1.9375881453355153,1.6887024343339205e+18,122.34892041015624,-5.032876173655192,-8.076579570770264,2.2436052163441977,1.688702434342574e+18,122.35757381184897,-3.605683088302612,-8.52370818456014,-4.488179783026378,1.6887024343295987e+18,122.3445986328125,-2.902577042579651,-2.103310902913412,-2.7243571182092032,,,,,,,,,,,,1.6887024343391196e+18,122.3541196777344,6.634359836578369,48.42179946899414,11.09711971282959,1.6887024343391196e+18,122.3541196777344,-247.90643310546875,143.8867980957031,-122.11467895507812,1.6887024343339205e+18,122.34892041015624,0.4380276997884114,-0.8152604103088379,-0.2628889431556065,0.2659019281466802,-2.7341420650482178,1.0302050511042278,0.3900224268436432
2.4,1.68870243438583e+18,122.40082991536458,50.11396408081055,-6.872113386789958,6.91468330224355,1.68870243438583e+18,122.40082991536458,43.00959173838297,-13.434702237447103,5.5477592547734575,1.68870243438583e+18,122.40082991536458,-7.110219160715739,-6.545084794362386,-1.4296117275953293,1.6887024343858225e+18,122.40082238769531,-1.6283376216888428,-12.635518670082092,-1.2912163734436035,1.6887024343815035e+18,122.39650333658854,-2.2498167355855307,-12.97686537106832,-2.7978137334187827,,,,,,,,,,,,1.6887024343891177e+18,122.40411767578124,11.672959899902343,47.40187911987304,10.98243980407715,1.6887024343891177e+18,122.40411767578124,-242.86783447265623,142.86687316894532,-122.22935791015624,1.68870243438583e+18,122.40082991536458,-0.1318289836247762,0.3052524328231812,-0.0099078491330146,0.0714928358793258,2.9437328974405923,0.7892175118128458,0.2290584693352381
2.45,1.688702434437734e+18,122.4527342122396,-1.547946294148763,1.22795565923055,-0.2061480184396108,1.688702434437734e+18,122.4527342122396,-7.810970624287923,-6.293522357940674,-0.0309072906772295,1.688702434437734e+18,122.4527342122396,-6.2688703536987305,-7.503973325093587,0.1125533084074656,1.6887024344290816e+18,122.44408146158857,-0.6302092927508057,7.337916851043701,3.591633160909017,1.6887024344334075e+18,122.44840755208334,-0.5158247898022333,7.003519058227539,3.736968119939168,,,,,,,,,,,,1.688702434439118e+18,122.45411801757812,6.875919771194458,48.97323837280273,7.766519832611084,1.688702434439118e+18,122.45411801757812,-247.6648742675781,144.43823852539063,-125.44527740478516,1.688702434437734e+18,122.4527342122396,0.1654379963874817,-0.2846505045890808,-0.0429820517698923,0.0529053078886742,-1.0193155606587727,0.9299123287200928,0.1826481819152831
2.5,1.68870243448963e+18,122.50463020833332,-1.7808793385823567,6.870984236399333,-1.6855121850967407,1.68870243448963e+18,122.50463020833332,-6.388038794199626,-1.7611174980799358,-0.940379281838735,1.68870243448963e+18,122.50463020833332,-4.613005479176839,-8.61459732055664,0.6824455261230469,1.6887024344809818e+18,122.49598177083334,0.8148942391077677,1.0754792094230652,3.8944694995880127,1.6887024344853115e+18,122.50031127929688,0.8571457465489706,0.581798275311788,3.883474032084147,,,,,,,,,,,,1.6887024344891151e+18,122.5041150878906,-2.078879974782467,49.402678680419925,7.87387981414795,1.6887024344891151e+18,122.5041150878906,-256.619677734375,144.86767578125,-125.33791961669922,1.68870243448963e+18,122.50463020833332,0.5265357991059622,-0.8330318530400594,-0.12166724105676,0.1151195218165715,-2.9925116697947183,1.1335516373316448,0.1958178132772445
2.55,1.6887024345415414e+18,122.55654117838542,-2.5197797616322837,-4.214780489603679,-3.7607826391855874,1.6887024345415414e+18,122.55654117838542,-5.191029369831085,-13.62911891937256,-4.078566233317058,1.6887024345415414e+18,122.55654117838542,-2.677095532417298,-9.396834055582682,-0.3804709340135256,1.6887024345328883e+18,122.54788826497396,0.9275479714075724,-5.049055735270183,4.474638779958089,1.6887024345372173e+18,122.55221744791668,0.9704612692197164,-5.28887136777242,4.593095938364665,,,,,,,,,,,,1.688702434539121e+18,122.55412075195314,-14.06416015625,47.64343948364258,8.59611988067627,1.688702434539121e+18,122.55412075195314,-268.60496215820314,143.10843811035156,-124.6156768798828,1.6887024345415414e+18,122.55654117838542,0.183399498462677,-0.2754305005073547,-0.0440100332101185,0.0421728785149753,0.8208456039428711,1.3462165991465251,0.3934886256853739
2.6,1.6887024345847864e+18,122.59978649902344,23.60400104522705,-39.24510383605957,0.2115795612335205,1.6887024345847864e+18,122.59978649902344,22.585254669189453,-48.919464111328125,-1.1006983518600466,1.6887024345847864e+18,122.59978649902344,-1.0245927572250366,-9.656853675842283,-1.3749653697013855,1.6887024345847944e+18,122.59979451497396,2.7640633583068848,8.960018475850424,1.93486483891805,1.6887024345891182e+18,122.60411816406253,2.836450934410095,11.12273609638214,1.2967650890350342,,,,,,,,,,,,1.6887024345891185e+18,122.60411850585938,-24.83187942504883,42.787838745117185,12.36347951889038,1.6887024345891185e+18,122.60411850585938,-279.3726745605469,138.25283813476562,-120.8483169555664,1.6887024345847864e+18,122.59978649902344,-0.0033044219017028,0.0052720010280609,-0.0517489667981862,0.0314592234790325,1.8913071751594543,1.425928771495819,1.4222485423088074
2.65,1.688702434628048e+18,122.64304817708334,-2.4855968157450357,-9.597559611002604,4.560367902119954,1.688702434628048e+18,122.64304817708334,-5.521238883336385,-18.850855827331543,3.721437374750773,1.688702434628048e+18,122.64304817708334,-3.041488250096639,-9.23579184214274,-0.9016178846359252,1.6887024346366956e+18,122.6516953125,1.6573282877604167,12.90473206837972,-3.895894924799601,1.6887024346410217e+18,122.65602180989583,1.564273198445638,10.914990668495497,-3.7610974311828618,1.6887024346126756e+18,122.62767553710935,0.0,0.0,1.1595805883407593,8.23799991607666,2.806173086166382,208.0782928466797,43.528152738966824,-122.7535635,49.1886012,1.6887024346391176e+18,122.65411752929688,-0.6661198735237122,39.86471939086914,29.45323944091797,1.6887024346391176e+18,122.65411752929688,-255.20692138671876,135.32972106933593,-103.75855712890623,1.688702434628048e+18,122.64304817708334,0.5532672504583994,-0.6799800395965576,-0.4067758023738861,0.2285899867614109,2.6367441018422446,1.2572701772054036,1.4572924375534058
2.7,1.6887024346799542e+18,122.6949540201823,0.1350380579630533,2.6490790049235025,1.2466330130894978,1.6887024346799542e+18,122.6949540201823,-4.083551287651062,-6.123632113138835,0.1014955043792724,1.6887024346799542e+18,122.6949540201823,-4.224435408910115,-8.755206425984701,-1.207824965318044,1.688702434688598e+18,122.7035977376302,0.5535457332928975,-6.6168413162231445,0.5049310326576233,1.6887024346842793e+18,122.69927917480469,0.7891615331172943,-6.714325428009033,0.4287510477006435,,,,,,,,,,,,1.6887024346891195e+18,122.70411958007811,6.605079912766814,37.27099838256836,33.413359832763675,1.6887024346891195e+18,122.70411958007811,-247.9357177734375,132.73599548339843,-99.7984390258789,1.6887024346799542e+18,122.6949540201823,0.4971611301104228,-0.6784931023915609,-0.4865050812562306,0.2312458703915278,2.7361668745676675,1.123003403345744,1.5016767581303914
2.75,1.6887024347318577e+18,122.74685766601564,2.3749449253082275,9.06474749247233,4.660330772399902,1.6887024347318577e+18,122.74685766601564,-0.6468597253163656,0.0039880226055781,2.4584259192148843,1.6887024347318577e+18,122.74685766601564,-3.0276506741841636,-9.043254852294922,-2.264592250188192,1.688702434740508e+18,122.7555078125,-1.6082554658253987,-6.410623391469319,1.3422236839930215,1.6887024347275287e+18,122.74252880859376,-1.1894564231236775,-6.813998222351074,1.3865113655726116,,,,,,,,,,,,1.6887024347391176e+18,122.7541174316406,-9.02555980682373,38.62519912719726,31.61507911682129,1.6887024347391176e+18,122.7541174316406,-263.56635131835935,134.09020080566407,-101.59671783447266,1.6887024347318577e+18,122.74685766601564,0.5947622656822205,-0.6980038086573283,-0.3740683794021606,0.1297524149219195,2.339186588923136,1.1931181351343791,1.5459074179331462
2.8,1.6887024347837555e+18,122.79875561523436,-0.3974794546763101,11.77771790822347,4.677917957305908,1.6887024347837555e+18,122.79875561523436,-2.1523439486821494,2.324627240498861,2.7525436083475747,1.6887024347837555e+18,122.79875561523436,-1.7607105175654094,-9.435585975646974,-1.9880616267522175,1.6887024347924104e+18,122.80741048177084,-2.2079215049743652,-5.750940004984538,1.4866424004236858,1.6887024347794363e+18,122.79443619791664,-2.197129567464193,-5.759186744689941,1.371901512145996,,,,,,,,,,,,1.6887024347891185e+18,122.80411831054688,-20.39595947265625,40.6040397644043,23.070199966430664,1.6887024347891185e+18,122.80411831054688,-274.93674926757814,136.06903991699218,-110.14159698486328,1.6887024347837555e+18,122.79875561523436,0.6606798768043518,-0.7082218329111735,-0.2358163942893346,0.0658703135947386,2.052995761235555,1.3202285766601562,1.522626241048177
2.85,1.6887024348356667e+18,122.85066666666668,0.6399852434794108,11.010409355163574,3.105299313863118,1.6887024348356667e+18,122.85066666666668,0.1615155438582103,1.2803595463434856,1.9505492448806765,1.6887024348356667e+18,122.85066666666668,-0.4843157281478245,-9.71254539489746,-1.217437505722046,1.688702434835664e+18,122.85066418457028,-1.8933768272399905,-5.093012571334839,1.856954038143158,1.6887024348313367e+18,122.84633666992188,-1.9378172953923545,-5.198870499928792,1.8135571082433064,,,,,,,,,,,,1.6887024348391178e+18,122.8541177734375,-29.150679779052737,40.447879028320315,12.631879806518556,1.6887024348391178e+18,122.8541177734375,-283.69146728515625,135.91287536621093,-120.57991943359374,1.6887024348356667e+18,122.85066666666668,0.2272984385490417,-0.2380789915720621,-0.0594816369314988,0.013408046759044,1.3785061836242676,1.4426206350326538,1.9178146123886108
2.9,1.688702434887564e+18,122.90256412760417,0.1356611649195353,8.331481774648031,2.032642364501953,1.688702434887564e+18,122.90256412760417,0.6093721787134806,-1.4753745198249817,1.720838228861491,1.688702434887564e+18,122.90256412760417,0.4678649803002675,-9.78935178120931,-0.3744915674130122,1.68870243487892e+18,122.89392016601562,-1.2773192127545674,-3.587560653686523,1.2228504021962483,1.6887024348832448e+18,122.89824479166668,-1.149088462193807,-3.3828190167744956,1.0863729119300842,,,,,,,,,,,,1.688702434889119e+18,122.90411899414062,-34.17951889038086,38.993639373779295,3.272039890289306,1.688702434889119e+18,122.90411899414062,-288.7203125,134.45863342285156,-129.93975830078125,1.688702434887564e+18,122.90256412760417,-0.7443977197011312,0.6668262680371603,-0.007345779488484,0.024844962482651,0.2111153211444616,1.4566740194956462,2.8848562240600586
2.95,1.6887024349394757e+18,122.9544755045573,-0.2474722862243652,-3.4956088066101074,8.054436047871908,1.6887024349394757e+18,122.9544755045573,0.0029910405476888,-13.296915531158447,7.596812963485718,1.6887024349394757e+18,122.9544755045573,0.24461729824543,-9.783802350362144,-0.5203105161587397,1.6887024349308168e+18,122.94581681315104,1.0831658641497297,1.612938721974691,-1.0760900564491749,1.6887024349351516e+18,122.95015152994792,1.297732303539912,2.3620122770468392,-1.4572699815034866,,,,,,,,,,,,1.6887024349391196e+18,122.95411962890626,-33.55976028442383,39.296199035644534,2.74987998008728,1.6887024349391196e+18,122.95411962890626,-288.1005493164063,134.76119689941407,-130.4619140625,1.6887024349394757e+18,122.9544755045573,-0.7359160780906677,0.6755072275797526,-0.0014401404187083,0.0301368897780775,0.4925135175387065,1.4680063327153523,2.604325453440348
3.0,1.6887024349913764e+18,123.00637622070312,-6.138811846574147,-26.28733189900716,17.300793011983234,1.6887024349913764e+18,123.00637622070312,-9.129416167736052,-35.53541056315104,17.020346641540527,1.6887024349913764e+18,123.00637622070312,-2.996450424194336,-9.230573654174805,-0.3431336085001628,1.6887024349827277e+18,122.99772762044272,0.7271841764450073,11.675416628519692,-7.4643661181132,1.688702434987051e+18,123.00205110677084,0.3597487111886342,12.065963427225748,-7.657959461212158,,,,,,,,,,,,1.6887024349891185e+18,123.00411845703124,-17.81931953430176,44.44459915161133,14.808359718322754,1.6887024349891185e+18,123.00411845703124,-272.360107421875,139.90959777832032,-118.40343627929688,1.6887024349913764e+18,123.00637622070312,0.5970831712086996,-0.7658173044522604,-0.1844255030155181,0.105212828144431,0.6993366877237955,1.2967892090479534,0.7679778138796488
3.05,1.6887024350346332e+18,123.04963317871092,-10.776021718978882,-9.20225477218628,0.245812714099884,1.6887024350346332e+18,123.04963317871092,-15.592529296875,-17.573787212371826,2.0742780715227127,1.6887024350346332e+18,123.04963317871092,-4.822353839874268,-8.354028224945068,1.7657779455184937,1.68870243503463e+18,123.04963037109376,-1.6267341772715251,5.369301954905192,-2.065029978752136,1.6887024350389596e+18,123.05395947265625,-1.6108007431030271,4.348749548196793,-1.411709547042847,,,,,,,,,,,,1.6887024350391217e+18,123.05412158203126,4.69211996793747,47.44091796875,15.576959800720214,1.6887024350391217e+18,123.05412158203126,-249.84867248535156,142.90592041015626,-117.6348388671875,1.6887024350346332e+18,123.04963317871092,0.4586873352527618,-0.8016384243965149,-0.285672515630722,0.2550605610013008,-2.82609486579895,1.0785808563232422,0.4951222538948059
3.1,1.6887024350778872e+18,123.09288720703124,22.3763640721639,-6.000977039337158,-8.18958600362142,1.6887024350778872e+18,123.09288720703124,16.571892261505127,-13.613964557647703,-6.382455587387085,1.6887024350778872e+18,123.09288720703124,-5.810318152109782,-7.595483144124349,1.7444430987040205,1.6887024350865326e+18,123.10153238932293,-4.72718071937561,-10.715696175893148,-4.05161468187968,1.6887024350908634e+18,123.1058634440104,-4.910949309666951,-10.984782377878824,-4.335463484128316,,,,,,,,,,,,1.688702435089114e+18,123.10411411132812,8.976759910583496,48.131439208984375,9.589199924468994,1.688702435089114e+18,123.10411411132812,-245.56403198242188,143.5964385986328,-123.62259674072266,1.6887024350778872e+18,123.09288720703124,0.4233218828837077,-0.8524428407351176,-0.2048427686095237,0.1996253579854965,-2.845063845316569,0.9530899127324424,0.3138489574193954
3.15,1.6887024351297882e+18,123.14478800455728,23.338268438975017,-7.160211563110352,-7.06834077835083,1.6887024351297882e+18,123.14478800455728,16.872789760430653,-14.332209904988607,-5.490530888239543,1.6887024351297882e+18,123.14478800455728,-6.4713263511657715,-7.154493808746338,1.51512211561203,1.688702435138442e+18,123.15344181315102,-0.6087781389554342,5.05384087562561,3.967722495396932,1.6887024351341169e+18,123.14911706542968,-0.8390234187245369,6.438137769699097,3.996891379356384,1.688702435125469e+18,123.14046899414062,0.0,0.0,1.1597920656204224,8.239999771118164,2.702324867248535,205.4955291748047,43.528152738966824,-122.7535711,49.1885881,1.6887024351391196e+18,123.15411958007812,8.039799785614013,49.19283828735352,3.950359916687012,1.6887024351391196e+18,123.15411958007812,-246.5009979248047,144.6578338623047,-129.26143798828124,1.6887024351297882e+18,123.14478800455728,0.416675200064977,-0.8942160407702128,-0.0884032423297564,0.126632439593474,-2.893729050954183,0.8771687944730123,0.0765172081689039
3.2,1.688702435181695e+18,123.19669498697915,-2.0550811290740967,5.48502779006958,-5.014116446177165,1.688702435181695e+18,123.19669498697915,-6.564509550730388,-2.9407791097958884,-2.7547369798024497,1.688702435181695e+18,123.19669498697915,-4.515274445215861,-8.408302307128906,2.196692188580831,1.6887024351903465e+18,123.20534619140626,1.1020009120305378,-0.5089016556739808,4.045658667882283,1.688702435177372e+18,123.1923719889323,1.0322604576746623,0.7308493852615356,4.1830525398254395,,,,,,,,,,,,1.6887024351891213e+18,123.20412124023436,-2.5961599469184877,49.61252059936523,4.3993199348449705,1.6887024351891213e+18,123.20412124023436,-257.13695068359374,145.07752075195313,-128.8124771118164,1.688702435181695e+18,123.19669498697915,0.5055313805739085,-0.8314153552055359,-0.1147692600886026,0.1978271106878916,-2.6603033542633057,1.0903119643529255,-0.0218680784261475
