seconds_elapsed_rounded,accelerometer_time,accelerometer_seconds_elapsed,accelerometer_z,accelerometer_y,accelerometer_x,accelerometeruncalibrated_time,accelerometeruncalibrated_seconds_elapsed,accelerometeruncalibrated_z,accelerometeruncalibrated_y,accelerometeruncalibrated_x,gravity_time,gravity_seconds_elapsed,gravity_z,gravity_y,gravity_x,gyroscope_time,gyroscope_seconds_elapsed,gyroscope_z,gyroscope_y,gyroscope_x,gyroscopeuncalibrated_time,gyroscopeuncalibrated_seconds_elapsed,gyroscopeuncalibrated_z,gyroscopeuncalibrated_y,gyroscopeuncalibrated_x,location_time,location_seconds_elapsed,location_bearingAccuracy,location_speedAccuracy,location_verticalAccuracy,location_horizontalAccuracy,location_speed,location_bearing,location_altitude,location_longitude,location_latitude,magnetometer_time,magnetometer_seconds_elapsed,magnetometer_z,magnetometer_y,magnetometer_x,magnetometeruncalibrated_time,magnetometeruncalibrated_seconds_elapsed,magnetometeruncalibrated_z,magnetometeruncalibrated_y,magnetometeruncalibrated_x,orientation_time,orientation_seconds_elapsed,orientation_qz,orientation_qy,orientation_qx,orientation_qw,orientation_roll,orientation_pitch,orientation_yaw
0.0,1.6888761054320878e+18,15.005087727864582,-11.122489293416342,22.35589345296224,-4.912618875503539,1.6888761054320878e+18,15.005087727864582,-7.509275595347087,14.07159169514974,-0.9838489492734274,1.6888761054320878e+18,15.005087727864582,3.5904125372568765,-8.268556276957193,3.864056348800659,1.6888761054234368e+18,14.996436767578125,-0.2135992149511973,-4.305429061253865,2.0731748839219413,1.6888761054277637e+18,15.000763590494792,-0.2385937844713529,-3.8240673542022705,1.6721927175919216,,,,,,,,,,,,1.68887610542644e+18,14.9994400390625,-7.185799884796142,49.915079498291014,-10.674999809265136,1.68887610542644e+18,14.9994400390625,-262.81239624023436,144.77007446289062,-143.80139770507813,1.6888761054320878e+18,15.005087727864582,0.1726613938808441,-0.345403105020523,-0.436728944381078,0.8122318983078003,-0.8241693576176962,0.9775285522143046,0.0377078776558239
0.05,1.688876105483987e+18,15.056987060546874,-6.7340757846832275,13.579830169677734,-6.845033168792725,1.688876105483987e+18,15.056987060546874,-3.790031656622886,5.039483984311421,-2.9256244699160256,1.688876105483987e+18,15.056987060546874,2.9212427934010825,-8.524600982666016,3.854695002237955,1.6888761054753382e+18,15.048338134765624,0.9412924498319626,-0.2914336373408636,-1.7652987440427144,1.6888761054796608e+18,15.052660725911458,1.1277081320683162,-0.1219694366057714,-2.012495517730713,1.6888761054623652e+18,15.035365234375,0.0,0.0,1.2667292356491089,21.343000411987305,0.3015041947364807,357.8680114746094,25.69999885559082,-122.7500778,49.1923229,1.6888761054764416e+18,15.049441796874998,-6.424519824981689,50.07855911254883,-11.338679695129397,1.6888761054764416e+18,15.049441796874998,-262.0511169433594,144.93355712890624,-144.46507568359374,1.688876105483987e+18,15.056987060546874,0.1840789417425791,-0.3671737909317016,-0.4575678904851277,0.7883287866910299,-0.9239895343780518,1.029276390870412,0.090828193972508
0.1,1.6888761055272433e+18,15.1002431640625,18.259761333465576,2.310372829437256,-3.1842080950737,1.6888761055272433e+18,15.1002431640625,20.03629970550537,-6.922735214233398,-0.2784647345542906,1.6888761055272433e+18,15.1002431640625,1.7537369132041931,-9.217362880706789,2.8410297632217407,1.6888761055272435e+18,15.1002431640625,2.4264076550801597,2.712139844894409,-2.787785371144613,1.6888761055315704e+18,15.104570556640624,2.172389507293701,2.6455047527949014,-2.376774768034617,,,,,,,,,,,,1.6888761055264428e+18,15.099442822265624,1.0613998889923095,50.65195922851562,-7.036960029602051,1.6888761055264428e+18,15.099442822265624,-254.56519165039063,145.5069549560547,-140.16336059570312,1.6888761055272433e+18,15.1002431640625,0.1846347823739051,-0.3369596302509307,-0.5371071994304657,0.7504159808158875,-1.0059106051921844,1.1978793144226074,0.2359502241015434
0.15,1.6888761055704883e+18,15.143488362630208,-0.5490751266479492,-7.973470052083333,7.654890537261963,1.6888761055704883e+18,15.143488362630208,1.5156536102294922,-17.149160385131836,10.530014673868816,1.6888761055704883e+18,15.143488362630208,2.041926860809326,-9.159945170084637,2.810410658518473,1.688876105579146e+18,15.152145751953125,-1.6865480343500774,-4.76200000445048,3.8295651276906337,1.6888761055834698e+18,15.156469970703126,-1.7041613260904949,-4.1646246910095215,3.848451097806295,,,,,,,,,,,,1.6888761055764352e+18,15.149435107421874,1.7690000593662265,51.30587921142578,-6.01703987121582,1.6888761055764352e+18,15.149435107421874,-253.8575927734375,146.16087951660157,-139.14343872070313,1.6888761055704883e+18,15.143488362630208,0.1906450440486272,-0.3318586349487304,-0.525684783856074,0.758234957853953,-0.9355417490005492,1.1832337379455566,0.1621435657143592
0.2,1.6888761056223987e+18,15.195398763020831,-8.43933900197347,-17.55910857518514,7.407363573710124,1.6888761056223987e+18,15.195398763020831,-5.500102678934731,-26.440691153208416,10.435099283854166,1.6888761056223987e+18,15.195398763020831,2.9164353211720786,-8.865837732950846,2.963021914164225,1.6888761056310395e+18,15.20403995768229,2.3247495343287787,4.994586865107219,-3.5415931344032288,1.6888761056267205e+18,15.199720092773436,1.9566777646541595,5.542074918746948,-3.1179325580596924,,,,,,,,,,,,1.688876105626438e+18,15.199438037109374,-3.3793999418616294,51.11067962646485,-6.099999856948853,1.688876105626438e+18,15.199438037109374,-259.00599365234376,145.9656768798828,-139.2263946533203,1.6888761056223987e+18,15.195398763020831,0.2073132991790771,-0.3314929107824961,-0.4821678102016449,0.7824912667274475,-0.7937470277150472,1.1068324247996013,-0.0122681499148408
0.25,1.6888761056742912e+18,15.24729142252604,-6.671557068824768,7.880151748657227,-0.6076125701268514,1.6888761056742912e+18,15.24729142252604,-6.612166325251262,-1.811964951455593,0.4865406155586243,1.6888761056742912e+18,15.24729142252604,0.0365894250571727,-9.676371574401855,1.0294396877288818,1.688876105682943e+18,15.255942871093753,1.3211997747421265,5.717851400375366,-8.452745914459229,1.688876105669967e+18,15.242967203776042,3.036662062009176,3.966602563858032,-8.289594173431396,,,,,,,,,,,,1.688876105676434e+18,15.249433837890626,13.97143964767456,49.28311920166016,1.7519199579954148,1.688876105676434e+18,15.249433837890626,-241.6551544189453,144.13811645507812,-131.37447814941407,1.6888761056742912e+18,15.24729142252604,0.1634117861588795,-0.238191395998001,-0.6540074149767557,0.6953621705373129,-1.535512904326121,1.40309476852417,0.956870305041472
0.3,1.6888761057261975e+18,15.29919734700521,-20.004000345865887,-22.84186331431071,2.3203323682149253,1.6888761057261975e+18,15.29919734700521,-22.539591789245605,-31.981072107950848,4.838885466257731,1.6888761057261975e+18,15.29919734700521,-2.558393319447835,-9.12346331278483,2.453839659690857,1.6888761057261947e+18,15.299194702148435,-3.4694091081619263,6.499453544616699,-3.2022318840026855,1.6888761057218706e+18,15.294870686848958,-3.030451536178589,6.899875779946645,-4.1891101996103925,,,,,,,,,,,,1.6888761057264353e+18,15.2994353515625,28.34303970336914,42.31447982788086,-9.476959800720214,1.6888761057264353e+18,15.2994353515625,-227.28355407714844,137.1694763183594,-142.60335388183594,1.6888761057261975e+18,15.29919734700521,-0.0341989658772945,-0.1665405432383218,-0.7678864002227783,0.6158028841018677,-2.3197160561879477,1.2122579018274944,2.129354159037272
0.35,1.6888761057780984e+18,15.351098470052085,34.72500880559286,-8.874205589294434,-3.302026112874349,1.6888761057780984e+18,15.351098470052085,29.494131272037823,-16.65225092569987,-0.5393819808959961,1.6888761057780984e+18,15.351098470052085,-5.253678480784099,-7.762300173441569,2.697930653889974,1.6888761057694477e+18,15.342447753906251,-0.6044511695702871,-2.392199198404948,-7.011663913726807,1.6888761057737728e+18,15.34677286783854,-0.5105306307474772,-1.69510014851888,-6.988298416137695,,,,,,,,,,,,1.6888761057764342e+18,15.349434228515625,40.372239685058595,32.26899871826172,-10.49687967300415,1.6888761057764342e+18,15.349434228515625,-215.25435791015624,127.12399444580078,-143.62327880859374,1.6888761057780984e+18,15.351098470052085,-0.0515336065242687,-0.2028784851233163,-0.8454733093579611,0.4877897997697194,-2.625863552093506,0.9370506604512532,2.4000218709309897
0.4,1.6888761058300027e+18,15.403002766927084,5.58545446395874,6.789172331492106,-1.444193998972575,1.6888761058300027e+18,15.403002766927084,0.3742772340774536,-0.5332005818684896,2.54536509513855,1.6888761058300027e+18,15.403002766927084,-5.2339785893758135,-7.306627591451009,3.924845536549886,1.6888761058213517e+18,15.394351481119791,-0.2122756640116373,3.6964474519093833,0.4375831385453542,1.6888761058256796e+18,15.398679768880209,-0.3383684555689494,3.250413993994395,0.6180428912242254,,,,,,,,,,,,1.6888761058264343e+18,15.39943427734375,42.81955947875976,27.474399948120116,-17.819320106506346,1.6888761058264343e+18,15.39943427734375,-212.8070373535156,122.32939758300782,-150.94571838378906,1.6888761058300027e+18,15.403002766927084,-0.1462373286485671,-0.1658134907484054,-0.8535240093866984,0.4716743429501851,-2.471336046854655,0.8581665953000387,2.4418041706085205
0.45,1.6888761058819044e+18,15.454904459635417,3.04854154586792,7.838323593139648,-11.825033823649088,1.6888761058819044e+18,15.454904459635417,-0.9236295223236084,0.182253340880076,-7.1007011731465655,1.6888761058819044e+18,15.454904459635417,-3.994972467422486,-7.640324910481771,4.659619013468425,1.6888761058732562e+18,15.446256184895836,0.1541925569375356,3.349730571111043,2.031737804412842,1.688876105877581e+18,15.45058113606771,0.4189517498016357,3.1385238567988076,2.045227805773417,,,,,,,,,,,,1.6888761058764324e+18,15.449432568359375,37.25879974365235,29.38247947692871,-23.036039733886717,1.6888761058764324e+18,15.449432568359375,-218.36779174804687,124.2374771118164,-156.1624328613281,1.6888761058819044e+18,15.454904459635417,-0.2023123155037561,-0.1421787987152735,-0.81948455174764,0.5164226690928141,-2.2458674907684326,0.9094509482383728,2.335660457611084
0.5,1.6888761059338048e+18,15.506805013020832,3.9986250400543217,2.8508683840433755,-9.64013385772705,1.6888761059338048e+18,15.506805013020832,0.8325028419494629,-5.535197099049886,-5.604190031687419,1.6888761059338048e+18,15.506805013020832,-3.1889237562815347,-8.370320320129395,3.9712302684783936,1.6888761059251569e+18,15.498156982421875,1.532864530881246,-1.1872675120830536,2.3149755795796714,1.6888761059294817e+18,15.502481363932292,1.4312063852945964,-1.3864095608393352,2.583349128564199,,,,,,,,,,,,1.6888761059264353e+18,15.499435400390627,33.17667846679687,33.66955986022949,-22.89207992553711,1.6888761059264353e+18,15.499435400390627,-222.44991455078124,128.5245559692383,-156.0184753417969,1.6888761059338048e+18,15.506805013020832,-0.1693921883900959,-0.1207540233929951,-0.7973001003265381,0.5658448338508606,-2.204958518346151,1.0390358765920005,2.2764742374420166
0.55,1.6888761059770609e+18,15.550060913085936,-0.1475181579589843,-10.951749801635742,-3.2712868452072144,1.6888761059770609e+18,15.550060913085936,-2.108375787734986,-19.908284187316895,0.298205517232418,1.6888761059770609e+18,15.550060913085936,-1.983659207820892,-8.940789222717285,3.5047788619995117,1.6888761059770604e+18,15.550060384114582,1.5033394296964009,0.4873177409172058,3.293225367863973,1.688876105981392e+18,15.554391845703124,1.783777395884196,0.4705189503729343,3.389436642328898,1.6888761059813857e+18,15.554385498046877,0.0,0.0,1.2845308780670166,21.802000045776367,0.2720225155353546,351.5172424316406,25.69999885559082,-122.7500833,49.1923322,1.6888761059764388e+18,15.549438818359372,27.733039093017577,39.371839141845705,-19.981159973144532,1.6888761059764388e+18,15.549438818359372,-227.8935577392578,134.22684020996093,-153.10755920410156,1.6888761059770609e+18,15.550060913085936,-0.1421155557036399,-0.1152792535722255,-0.7587097883224487,0.6250182092189789,-2.028331696987152,1.1573059558868408,2.0670872926712036
0.6,1.6888761060203226e+18,15.59332275390625,3.1367901166280117,-26.340356826782227,5.723402261734009,1.6888761060203226e+18,15.59332275390625,2.9270202318827323,-35.786059061686196,8.395018815994263,1.6888761060203226e+18,15.59332275390625,-0.2325714429219564,-9.429954846700031,2.606903155644735,1.6888761060289772e+18,15.601977213541668,0.3560835781196753,-2.7188084920247397,5.220352649688721,1.6888761060332964e+18,15.606296386718748,0.0545706748962402,-2.9158125718434653,5.079344590504964,,,,,,,,,,,,1.6888761060264407e+18,15.599440771484376,18.292679595947263,45.9403190612793,-15.291479873657227,1.6888761060264407e+18,15.599440771484376,-237.33391418457032,140.79532165527343,-148.41787719726562,1.6888761060203226e+18,15.59332275390625,-0.0855154792467752,-0.1053419386347134,-0.6984776655832926,0.7012122273445129,-1.559474031130473,1.2907668352127075,1.5311952034632366
0.65,1.688876106072225e+18,15.645225179036458,-3.977805733680725,-16.773245811462402,4.834880669911702,1.688876106072225e+18,15.645225179036458,-2.3266212145487466,-26.09133815765381,7.501698573430379,1.688876106072225e+18,15.645225179036458,1.628382921218872,-9.302346547444662,2.6021040280659995,1.6888761060808758e+18,15.6538759765625,1.7712546984354656,-3.0905708471934,4.584543704986572,1.6888761060765512e+18,15.649551147460937,2.1234439611434937,-3.091665506362915,4.567439556121826,,,,,,,,,,,,1.688876106076442e+18,15.6494419921875,8.879159832000733,48.92443923950195,-13.056439781188963,1.688876106076442e+18,15.6494419921875,-246.7474365234375,143.77943725585936,-146.1828369140625,1.688876106072225e+18,15.645225179036458,-0.0167455086484551,-0.1623947670062382,-0.6155370076497396,0.7699518005053202,-0.9700947403907776,1.2291522820790608,0.7605682214101156
0.7,1.6888761061241285e+18,15.697128092447915,-10.682005723317465,5.443625609079997,-2.135843833287557,1.6888761061241285e+18,15.697128092447915,-7.513662695884705,-3.54795773824056,0.3158526122570038,1.6888761061241285e+18,15.697128092447915,3.145541588465373,-8.97583802541097,2.3869829177856445,1.688876106132777e+18,15.705776936848958,0.5269221862157186,-4.125172932942708,3.066034475962321,1.6888761061198057e+18,15.692805826822918,0.7550294498602549,-3.5183802445729575,3.5470399061838784,,,,,,,,,,,,1.688876106126439e+18,15.699438818359374,-0.4050400137901306,50.50067825317383,-8.98652000427246,1.688876106126439e+18,15.699438818359374,-256.03163146972656,145.35567626953124,-142.1129180908203,1.6888761061241285e+18,15.697128092447915,0.0701354232927163,-0.2017140587170918,-0.5366989572842916,0.8155868252118429,-0.6417967081069946,1.1307809750239055,0.244830826918284
0.75,1.6888761061760233e+18,15.749023030598956,-10.08617369333903,21.683849970499676,0.1246678034464518,1.6888761061760233e+18,15.749023030598956,-6.518447637557983,12.98943773905436,3.076771199703217,1.6888761061760233e+18,15.749023030598956,3.54492449760437,-8.678667386372885,2.887389898300171,1.6888761061846815e+18,15.757681640625,0.1418225463324536,-2.0535252888997397,0.2404263863960901,1.688876106171706e+18,15.744705891927085,0.2140573613966504,-2.8833349148432412,1.1692979335784912,,,,,,,,,,,,1.688876106176445e+18,15.74944482421875,-6.1561198234558105,50.51287841796875,-8.342359733581542,1.688876106176445e+18,15.74944482421875,-261.78271484375,145.3678771972656,-141.46875915527343,1.6888761061760233e+18,15.749023030598956,0.1351304228107134,-0.269527147213618,-0.4876326521237691,0.8192038337389628,-0.685366670290629,1.0592436790466309,0.0847818180918693
0.8,1.688876106227931e+18,15.800930908203126,-11.26852003733317,15.292306900024414,-3.932169795036316,1.688876106227931e+18,15.800930908203126,-8.653842528661093,6.372884432474772,-0.7128617763519287,1.688876106227931e+18,15.800930908203126,2.5918760299682617,-8.903677304585775,3.154594580332438,1.6888761062279342e+18,15.800934204101562,0.4948772042989731,-2.640846848487854,-2.7007880210876465,1.688876106223612e+18,15.796611979166668,0.4394157379865646,-2.4322617848714194,-2.344297170639038,,,,,,,,,,,,1.6888761062264407e+18,15.799440576171875,-1.7641200184822083,50.77151947021484,-8.193519878387452,1.6888761062264407e+18,15.799440576171875,-257.3907104492188,145.62651672363282,-141.31991882324218,1.688876106227931e+18,15.800930908203126,0.1565732310215631,-0.3181047141551971,-0.5077805916468302,0.7845836480458578,-0.8862717549006144,1.1119505961736045,0.182402695218722
0.85,1.6888761062798374e+18,15.85283740234375,15.956207434336344,-6.806116422017415,3.287100156148275,1.6888761062798374e+18,15.85283740234375,17.776877403259277,-16.096318244934082,5.925027757883072,1.6888761062798374e+18,15.85283740234375,1.7978684107462566,-9.2744566599528,2.5732142130533853,1.6888761062711798e+18,15.844179768880208,1.3815735975901289,3.7643044789632154,-0.8785260121027627,1.688876106275513e+18,15.84851318359375,1.349706729253133,4.2467860380808515,-0.4041382471720378,,,,,,,,,,,,1.688876106276442e+18,15.849442041015626,4.696999883651733,50.75687789916992,-6.414759826660156,1.688876106276442e+18,15.849442041015626,-250.9295959472656,145.61187744140625,-139.5411590576172,1.6888761062798374e+18,15.85283740234375,0.1481213569641112,-0.2938073923190434,-0.557155986626943,0.7604502240816752,-0.94455752770106,1.2121004263559978,0.2973178923130035
0.9,1.688876106331737e+18,15.904737223307292,-12.891231218973797,-33.14955838521322,2.338841279347738,1.688876106331737e+18,15.904737223307292,-9.78963549931844,-41.99882348378499,5.334598915030559,1.688876106331737e+18,15.904737223307292,3.0787947177886963,-8.833519299825033,2.931044022242228,1.6888761063230897e+18,15.896089680989585,-0.825533464550972,-3.661424487829208,3.0974431236584983,1.6888761063274166e+18,15.900416422526042,-0.6852380633354187,-4.336430569489797,2.661234498023987,,,,,,,,,,,,1.688876106326437e+18,15.89943720703125,-2.898719918727875,50.581199645996094,-7.134559917449951,1.688876106326437e+18,15.89943720703125,-258.5253204345703,145.43619689941406,-140.26095581054688,1.688876106331737e+18,15.904737223307292,0.1708126217126846,-0.3036476373672485,-0.4919210771719615,0.7973265250523885,-0.7648537158966064,1.095111648241679,0.0594098468621571
0.95,1.6888761063836378e+18,15.956637939453126,-4.655869881312053,15.518723487854004,-3.844134171803793,1.6888761063836378e+18,15.956637939453126,-2.161117603381475,6.211767514546712,-2.0416759500900903,1.6888761063836378e+18,15.956637939453126,2.471950968106588,-9.291210810343424,1.7377448280652363,1.6888761063749857e+18,15.947985432942708,3.3297754923502603,3.0732630093892417,-2.6735026439030967,1.6888761063793142e+18,15.952314127604168,3.5327865282694497,3.797902002930641,-3.0342185894648233,,,,,,,,,,,,1.6888761063764372e+18,15.949437109375,-2.40339994430542,51.037478637695315,-3.3696398615837095,1.6888761063764372e+18,15.949437109375,-258.0299987792969,145.89247436523436,-136.49603881835938,1.6888761063836378e+18,15.956637939453126,0.1894545753796895,-0.2584349910418192,-0.542740265528361,0.7742164929707845,-0.5970935920874277,1.2259421745936077,-0.0590905385712782
1.0,1.6888761064269071e+18,15.9999072265625,0.5062180757522583,7.577980518341065,3.845075845718384,1.6888761064269071e+18,15.9999072265625,0.5087739229202268,-2.217548370361328,4.1952162981033325,1.6888761064269071e+18,15.9999072265625,-0.0202455520629882,-9.779783725738524,0.2854268699884414,1.6888761064268966e+18,15.999896647135415,0.1875356038411456,5.511124610900879,-8.011752128601074,1.688876106431227e+18,16.004226888020835,-0.6703228168189524,5.924374580383301,-8.182488918304443,,,,,,,,,,,,1.688876106426438e+18,15.99943818359375,12.858799839019776,49.40999908447266,2.7840399503707887,1.688876106426438e+18,15.99943818359375,-242.7677978515625,144.26499938964844,-130.3423583984375,1.6888761064269071e+18,15.9999072265625,0.1422128379344939,-0.168263517320156,-0.6780654191970825,0.6999160647392273,-1.415260374546051,1.4848341941833496,0.9720200635492802
1.05,1.6888761064701427e+18,16.04314274088542,-12.544872442881266,-26.004364013671875,10.036923368771872,1.6888761064701427e+18,16.04314274088542,-14.984851996103922,-35.22454325358073,12.327423294385277,1.6888761064701427e+18,16.04314274088542,-2.4627814292907715,-9.204432487487791,2.2257864475250244,1.6888761064787988e+18,16.051799072265624,-2.2241602887709937,5.212716857592265,-4.305327415466309,1.688876106483123e+18,16.056122721354168,-1.758935521046321,3.80793039004008,-4.065969864527385,1.6888761065004278e+18,16.073427734375,0.0,0.0,1.2126996517181396,23.10199928283691,0.3333853185176849,344.3861389160156,23.299999237060547,-122.7500774,49.1923676,1.68887610647644e+18,16.049439941406252,27.96971931457519,41.80207977294922,-10.950719833374023,1.68887610647644e+18,16.049439941406252,-227.65687255859376,136.65707702636718,-144.07711791992188,1.6888761064701427e+18,16.04314274088542,-0.0510454525550206,-0.1235346645116805,-0.7723839481671652,0.6178953250249227,-2.349829117457072,1.2393504778544109,2.2461695671081543
1.1,1.6888761065220516e+18,16.095051513671876,23.421646038691204,-2.975558598836263,-7.356746355692546,1.6888761065220516e+18,16.095051513671876,18.68276007970174,-11.195618510246277,-4.9938207268714905,1.6888761065220516e+18,16.095051513671876,-4.761687517166138,-8.204314708709717,2.2982119719187417,1.688876106530699e+18,16.103698893229165,-0.953764259815216,-1.6059647401173909,-4.497546186049779,1.6888761065263785e+18,16.09937841796875,-0.8342128694057465,-4.184350445866585,-6.139883041381836,,,,,,,,,,,,1.68887610652644e+18,16.099439794921874,38.73499946594238,33.37919960021973,-10.904359817504885,1.68887610652644e+18,16.099439794921874,-216.89159545898437,128.23419494628905,-144.03075561523437,1.6888761065220516e+18,16.095051513671876,-0.0585082968076069,-0.1420289600888887,-0.8425569534301758,0.5133536060651144,-2.643312851587931,1.01587975025177,2.5197196006774902
1.15,1.688876106573951e+18,16.146951171875,3.52713394165039,7.592151165008545,-2.6954029401143393,1.688876106573951e+18,16.146951171875,-1.2558331489562988,-0.0811565419038137,1.1328020890553792,1.688876106573951e+18,16.146951171875,-4.805768648783366,-7.657562414805095,3.763491630554199,1.688876106582603e+18,16.155603190104166,-1.6204218864440918,3.9039888183275857,0.8797477682431539,1.68887610656963e+18,16.142629964192707,-1.532915433247884,5.457673708597819,0.638608713944753,,,,,,,,,,,,1.68887610657644e+18,16.149440087890625,40.2843994140625,29.777759552001953,-18.33660011291504,1.68887610657644e+18,16.149440087890625,-215.34219665527343,124.63275604248048,-151.46299743652344,1.688876106573951e+18,16.146951171875,-0.1549627209703127,-0.1288083791732787,-0.8466933369636536,0.491182416677475,-2.449113925298055,0.9143294095993042,2.4882667859395347
1.2,1.6888761066258514e+18,16.198851481119792,6.253877639770508,4.5586222012837725,-14.141633987426758,1.6888761066258514e+18,16.198851481119792,2.259622198296711,-3.216352383295695,-9.62532869974772,1.6888761066258514e+18,16.198851481119792,-4.017056783040364,-7.75922950108846,4.451591809590657,1.6888761066345083e+18,16.207508300781253,1.2559389422337215,1.1233811974525452,1.1284717122713726,1.6888761066215334e+18,16.194533528645835,0.2535599768161773,1.1068369348843892,1.1642073194185891,,,,,,,,,,,,1.6888761066264407e+18,16.199440673828125,35.965599060058594,29.9997989654541,-23.48011932373047,1.6888761066264407e+18,16.199440673828125,-219.66099548339844,124.85479583740236,-156.60651550292968,1.6888761066258514e+18,16.198851481119792,-0.1991405238707859,-0.1250241920351981,-0.8227537870407104,0.517239511013031,-2.271090110143026,0.9298337697982788,2.3815243244171143
1.25,1.6888761066777608e+18,16.25076066080729,1.6051599582036336,7.373190085093181,-9.62155278523763,1.6888761066777608e+18,16.25076066080729,-1.6949160695075989,-1.0893325010935466,-5.857829252878825,1.6888761066777608e+18,16.25076066080729,-3.3228774865468345,-8.44677734375,3.699009736378988,1.688876106677765e+18,16.250765258789063,1.672549068927765,-0.8892670795321465,2.19888573884964,1.6888761066734374e+18,16.2464375,1.6901623407999675,-0.6508259872595469,2.050063729286194,,,,,,,,,,,,1.6888761066764393e+18,16.249439306640625,32.66183929443359,34.455240631103514,-22.111279296875,1.6888761066764393e+18,16.249439306640625,-222.96475524902343,129.31023712158202,-155.23768005371093,1.6888761066777608e+18,16.25076066080729,-0.1734723647435505,-0.0886936535437901,-0.8055740197499593,0.5590190291404724,-2.262126366297404,1.0559704303741455,2.386347850163778
1.3,1.6888761067296596e+18,16.302659586588543,1.611037254333496,-17.915574073791504,-2.3237316608428955,1.6888761067296596e+18,16.302659586588543,-0.3982056776682541,-27.01157792409261,0.8069794178009033,1.6888761067296596e+18,16.302659586588543,-2.0320443709691367,-9.080257097880043,3.06599760055542,1.688876106721014e+18,16.294013916015626,0.6018549973766009,-1.0433069070180256,3.4816773732503257,1.688876106725336e+18,16.2983359375,0.815606877207756,-0.779362216591835,3.5418984095255532,,,,,,,,,,,,1.6888761067264435e+18,16.299443457031252,28.804199600219725,39.47187957763672,-18.32683982849121,1.6888761067264435e+18,16.299443457031252,-226.82239685058593,134.32687683105468,-151.45323791503907,1.6888761067296596e+18,16.302659586588543,-0.1213934918244679,-0.1045558005571365,-0.7615118622779846,0.6275063157081604,-2.084648370742798,1.1955480178197224,2.1088863213857016
1.35,1.6888761067815636e+18,16.354563720703126,1.9858689705530803,-28.23074213663737,12.147626558939615,1.6888761067815636e+18,16.354563720703126,2.06081849274536,-37.737405141194664,14.62074438730876,1.6888761067815636e+18,16.354563720703126,0.0521479919552803,-9.490917205810549,2.408404588699341,1.6888761067729175e+18,16.345917643229168,0.7010696729024252,-2.1514674027760825,5.058422406514485,1.688876106777243e+18,16.350242838541664,0.3873394777377446,-2.3595688343048096,5.054095268249512,,,,,,,,,,,,1.6888761067764424e+18,16.3494421875,17.797359657287597,46.71379928588867,-14.117839813232422,1.6888761067764424e+18,16.3494421875,-237.82923583984376,141.56879577636718,-147.2442413330078,1.6888761067815636e+18,16.354563720703126,-0.0635653572777906,-0.1132916460434595,-0.6865212122599283,0.7143365343411764,-1.4693760474522908,1.3095155556996665,1.3983546098073325
1.4,1.688876106833469e+18,16.406468587239583,-4.058330297470093,-9.095593770345053,0.8578545252482096,1.688876106833469e+18,16.406468587239583,-2.259023984273275,-18.48475392659505,3.1529424687226615,1.688876106833469e+18,16.406468587239583,1.776504913965861,-9.373414993286133,2.2303744554519653,1.6888761068248146e+18,16.397814860026042,1.5409584840138753,-2.868521293004354,4.102316538492839,1.688876106829145e+18,16.40214534505208,1.7434603373209636,-2.82184108098348,4.079612652460734,,,,,,,,,,,,1.6888761068264422e+18,16.399442382812502,8.400919914245605,49.495398712158206,-11.643679809570312,1.6888761068264422e+18,16.399442382812502,-247.2256774902344,144.35039672851562,-144.77007751464845,1.688876106833469e+18,16.406468587239583,0.0102646468828121,-0.1595935225486755,-0.6100879510243734,0.7751900553703308,-0.8659864266713461,1.2499382098515828,0.6219149231910706
1.45,1.6888761068767224e+18,16.44972253417969,-15.035991668701172,7.853293180465698,-1.993615746498108,1.6888761068767224e+18,16.44972253417969,-12.17408323287964,-1.3420745134353638,0.0442672194913029,1.6888761068767224e+18,16.44972253417969,2.839107036590576,-9.179622650146484,1.9731695055961609,1.688876106876721e+18,16.449720703125,0.8573493460814158,-4.064442793528239,2.8822150230407715,1.6888761068810458e+18,16.454046061197918,0.6873252123283843,-4.2140538692474365,2.7360146045684814,,,,,,,,,,,,1.688876106876442e+18,16.449442138671877,1.0199199736118316,50.89595947265625,-7.083319854736328,1.688876106876442e+18,16.449442138671877,-254.6066741943359,145.75095825195314,-140.209716796875,1.6888761068767224e+18,16.44972253417969,0.0840043202042579,-0.1905819624662399,-0.5549120604991913,0.8051010072231293,-0.6026554107666016,1.183713138103485,0.2041543498635292
1.5,1.6888761069199706e+18,16.492970458984374,-9.798623085021973,22.155466715494793,-0.7263041337331136,1.6888761069199706e+18,16.492970458984374,-6.598008950551351,13.18784236907959,1.7838493585586548,1.6888761069199706e+18,16.492970458984374,3.1778124968210855,-8.951879501342773,2.4454400539398193,1.6888761069286223e+18,16.501622314453126,-0.2486730590462683,-1.6372716228167217,0.553698460261027,1.6888761069329523e+18,16.50595222981771,-0.1991929753373066,-1.3773484031359355,0.223118523756663,,,,,,,,,,,,1.6888761069264425e+18,16.499442529296875,-3.6551199436187742,51.020399475097655,-6.6465599060058596,1.6888761069264425e+18,16.499442529296875,-259.28171997070314,145.87539672851562,-139.77295837402343,1.6888761069199706e+18,16.492970458984374,0.1338766515254974,-0.2496809214353561,-0.5157099962234497,0.8084420561790466,-0.6585445404052734,1.1218101978302002,0.0946146349112192
1.55,1.6888761069718792e+18,16.544879231770835,-9.531918128331505,16.925994555155437,-1.9148826599121096,1.6888761069718792e+18,16.544879231770835,-7.182655215263367,7.743772188822429,0.685743103424708,1.6888761069718792e+18,16.544879231770835,2.3264615535736084,-9.16647720336914,2.535912275314331,1.6888761069805233e+18,16.553523356119793,1.4791592756907146,-2.4387267033259072,-3.476841370264689,1.6888761069762043e+18,16.549204223632813,1.474475979804993,-2.5744152069091797,-3.531182885169983,,,,,,,,,,,,1.688876106976442e+18,16.5494421875,1.2248799562454225,51.25219879150391,-6.124399852752686,1.688876106976442e+18,16.5494421875,-254.40171508789064,146.10719604492186,-139.25079956054688,1.6888761069718792e+18,16.544879231770835,0.1512185881535211,-0.283554991086324,-0.5395721991856893,0.7774756948153178,-0.8369144399960836,1.1819810072580974,0.1993748595317205
1.6,1.6888761070237798e+18,16.596779622395832,15.03623096148173,-3.9572343826293945,-0.783687392870585,1.6888761070237798e+18,16.596779622395832,16.508482575416565,-13.51685587565104,0.9164510170618692,1.6888761070237798e+18,16.596779622395832,1.4494501153628032,-9.54387633005778,1.6354248921076455,1.6888761070324316e+18,16.605431640625,1.1091785828272502,2.160274008909861,2.0281745195388794,1.6888761070194573e+18,16.592457356770833,1.964339057604472,2.3967296282450357,0.5193881591161092,1.688876107019458e+18,16.5924580078125,0.0,0.0,1.2126996517181396,22.64299964904785,0.3952755928039551,350.2755432128906,23.299999237060547,-122.7500591,49.1924069,1.688876107026441e+18,16.59944091796875,6.797839879989624,50.83007965087891,-1.4615599755197763,1.688876107026441e+18,16.59944091796875,-248.8287567138672,145.68507690429686,-134.58795471191405,1.6888761070237798e+18,16.596779622395832,0.1765584498643874,-0.2656487425168355,-0.5868194301923116,0.7429836193720499,-0.8442598183949789,1.3101027011871338,0.2022285650794705
1.65,1.6888761070756833e+18,16.648683430989582,2.25137710571289,-17.485896110534668,5.6135908762613935,1.6888761070756833e+18,16.648683430989582,4.773681004842122,-26.74617354075114,7.775476932525635,1.6888761070756833e+18,16.648683430989582,2.499502420425415,-9.24453099568685,2.097172578175863,1.6888761070843318e+18,16.65733146158854,-1.106938689947128,-1.2202032407124836,0.8943066596984863,1.6888761070713572e+18,16.644357340494793,-1.433802564938863,-3.4874805261691413,2.095216910044352,,,,,,,,,,,,1.688876107076442e+18,16.6494421875,0.7539599657058715,51.42299880981445,-2.9963199138641357,1.688876107076442e+18,16.6494421875,-254.8726318359375,146.2779968261719,-136.12271728515626,1.6888761070756833e+18,16.648683430989582,0.1934226105610529,-0.2837109963099161,-0.531583825747172,0.7736535668373108,-0.70573757092158,1.203128218650818,0.0046745859241734
1.7,1.688876107127588e+18,16.700588297526043,-21.82774353027344,-2.506188710530599,2.938369393348694,1.688876107127588e+18,16.700588297526043,-19.840887069702152,-12.011371692021688,4.307479500770569,1.688876107127588e+18,16.700588297526043,1.9640554984410603,-9.489437103271484,1.3043967485427856,1.688876107127586e+18,16.700586059570313,3.4610860347747803,2.1894173622131348,-3.5287394523620605,1.6888761071232602e+18,16.696259928385416,2.7241535782814026,3.4265976349512735,-3.275459369023641,,,,,,,,,,,,1.688876107126438e+18,16.699437939453126,1.5054799675941468,51.174119567871095,-1.4859599597752091,1.688876107126438e+18,16.699437939453126,-254.1211151123047,146.02911376953125,-134.61235656738282,1.688876107127588e+18,16.700588297526043,0.175883134206136,-0.2331443627675374,-0.5776450037956238,0.7611228227615356,-0.5757511357466379,1.2971237897872925,-0.0174132777998844
1.75,1.6888761071794895e+18,16.752489583333332,-0.0183117389678953,6.109099706013997,1.8931699991226196,1.6888761071794895e+18,16.752489583333332,-0.6819545030593872,-3.6510485410690303,1.950150489807129,1.6888761071794895e+18,16.752489583333332,-0.6864441434542338,-9.744402885437012,-0.0077330370744069,1.6888761071708372e+18,16.743837158203124,1.4097243150075276,4.919857819875081,-5.90711784362793,1.6888761071751626e+18,16.748162760416665,0.5876014629999796,5.641645749409993,-5.9064052899678545,,,,,,,,,,,,1.6888761071764444e+18,16.749444287109377,14.893759727478027,48.62431945800781,4.967839860916138,1.6888761071764444e+18,16.749444287109377,-240.7328338623047,143.47931823730468,-128.15855560302734,1.6888761071794895e+18,16.752489583333332,0.1360028013586997,-0.1501254389683405,-0.7056433955828348,0.6755103468894958,0.0525388717651367,1.4808945655822754,1.6334394415219624
1.8,1.6888761072313897e+18,16.80438972981771,-14.248825788497925,-25.04281171162923,2.790470918019613,1.6888761072313897e+18,16.80438972981771,-16.599010626475017,-34.25525093078613,5.199404160181682,1.6888761072313897e+18,16.80438972981771,-2.3729867935180664,-9.196693102518717,2.3442198435465493,1.688876107222743e+18,16.795743082682293,-4.182237982749939,4.595539093017578,-3.17049249013265,1.6888761072270697e+18,16.80006982421875,-3.785481075445811,3.0989195505777993,-3.3066136042277017,,,,,,,,,,,,1.6888761072264404e+18,16.799440576171875,25.527279663085935,43.6930793762207,-9.555039930343629,1.6888761072264404e+18,16.799440576171875,-230.09931640625,138.54807739257814,-142.6814392089844,1.6888761072313897e+18,16.80438972981771,-0.0626677311956881,-0.1209062015016873,-0.7689195275306702,0.6233754754066467,-2.27176300684611,1.235968867937724,2.188082774480184
1.85,1.6888761072832942e+18,16.856294108072916,29.70921452840169,-2.9788661003112797,-1.916167974472046,1.6888761072832942e+18,16.856294108072916,24.56072998046875,-11.051451047261557,0.2087738513946533,1.6888761072832942e+18,16.856294108072916,-5.171286265055339,-8.05683978398641,2.0602283477783203,1.6888761072746427e+18,16.847642578125,0.2199114958445231,-1.610291639963786,-5.532555500666301,1.688876107278973e+18,16.851972900390624,0.2272927776599923,-0.1941533672312895,-4.922250270843506,,,,,,,,,,,,1.688876107276438e+18,16.84943818359375,38.534919357299806,34.833439636230466,-8.535119724273681,1.688876107276438e+18,16.84943818359375,-217.0916748046875,129.68843994140624,-141.6615203857422,1.6888761072832942e+18,16.856294108072916,-0.0332244555465876,-0.165159448981285,-0.8508939345677694,0.4956956803798675,-2.728663126627604,0.9867145419120787,2.5337024529774985
1.9,1.6888761073265495e+18,16.899549438476562,-0.2233173847198486,11.25180959701538,1.2993977069854736,1.6888761073265495e+18,16.899549438476562,-5.293522000312805,3.4283165335655212,4.419244408607483,1.6888761073265495e+18,16.899549438476562,-5.093006134033203,-7.807747840881348,3.0551332235336304,1.688876107326548e+18,16.899548014322917,-0.5683082938194275,1.9579248776038487,0.2105448842048644,1.6888761073308756e+18,16.903875813802085,-0.7164431363344193,1.312443981568019,0.3370448884864648,,,,,,,,,,,,1.6888761073264394e+18,16.899439453125,41.05055923461914,30.87575912475586,-15.098719787597656,1.6888761073264394e+18,16.899439453125,-214.57603454589844,125.7307586669922,-148.2251190185547,1.6888761073265495e+18,16.899549438476562,-0.1142479814589023,-0.125588484108448,-0.8552745878696442,0.4895407855510711,-2.569665312767029,0.9419491291046144,2.5527929067611694
1.95,1.688876107369801e+18,16.942801106770833,10.248838265736898,7.174477259318034,-10.224071820576986,1.688876107369801e+18,16.942801106770833,5.755735596021016,-0.7888338565826416,-6.630112806955974,1.688876107369801e+18,16.942801106770833,-4.5159041086832685,-7.947565873463948,3.529245615005493,1.6888761073784486e+18,16.951448567708336,-0.0171042457222939,2.527149518330892,1.935679276784261,1.688876107382779e+18,16.95577872721354,0.220776895682017,2.5569291512171426,1.909972071647644,,,,,,,,,,,,1.68887610737644e+18,16.949439990234374,37.75655975341797,32.01279983520508,-17.69243965148926,1.68887610737644e+18,16.949439990234374,-217.87003479003903,126.8677963256836,-150.81883850097657,1.688876107369801e+18,16.942801106770833,-0.1353181973099708,-0.1369262884060541,-0.8358741601308187,0.5133989155292511,-2.4395931561787925,0.963699479897817,2.437084992726644
2.0,1.6888761074217052e+18,16.994705240885416,-0.5578511555989583,5.096867720286052,-9.119510014851889,1.6888761074217052e+18,16.994705240885416,-4.083950002988179,-3.4267214139302573,-5.71864652633667,1.6888761074217052e+18,16.994705240885416,-3.548900286356608,-8.507843971252441,3.3361499309539795,1.6888761074303542e+18,17.003354329427083,1.1615602870782216,-1.6763669302066166,2.3798800706863403,1.6888761074346783e+18,17.0076787109375,1.06636709968249,-1.944078673919042,2.609158158302307,,,,,,,,,,,,1.688876107426442e+18,16.9994419921875,33.51095962524414,36.64147872924805,-18.63427963256836,1.688876107426442e+18,16.9994419921875,-222.11563415527343,131.49647827148436,-151.76067810058595,1.6888761074217052e+18,16.994705240885416,-0.1401466876268386,-0.104924514889717,-0.8102348844210306,0.5589362780253092,-2.3430604139963784,1.069054126739502,2.394603888193766
2.05,1.6888761074736015e+18,17.046601481119794,0.5764258702596029,-10.135147094726562,-3.734511534372966,1.6888761074736015e+18,17.046601481119794,-1.6905293464660645,-19.30329926808675,-1.0309077713948984,1.6888761074736015e+18,17.046601481119794,-2.289756496747335,-9.152406374613443,2.638890266418457,1.6888761074822597e+18,17.055259440104166,1.4368568162123363,0.3674354553222656,3.807726780573527,1.6888761074779346e+18,17.050934814453125,1.0883327722549438,0.9533315896987916,3.2824079990386963,,,,,,,,,,,,1.6888761074764403e+18,17.04944033203125,27.815999221801757,41.77279968261719,-14.840079498291017,1.6888761074764403e+18,17.04944033203125,-227.8105926513672,136.62779541015624,-147.9664764404297,1.6888761074736015e+18,17.046601481119794,-0.0875304838021596,-0.1128351415197054,-0.7683154741923014,0.6233847935994467,-2.205042044321696,1.2179057598114014,2.168649196624756
2.1,1.6888761075255112e+18,17.09851114908854,-1.1082084973653157,-30.158296585083008,10.963101466496786,1.6888761075255112e+18,17.09851114908854,-1.0769696633021038,-39.75674819946289,13.010375181833902,1.6888761075255112e+18,17.09851114908854,0.0084373330076535,-9.582704544067385,1.9825608332951865,1.688876107534159e+18,17.107159098307292,-0.304210881392161,-3.721187432607015,5.476814270019531,1.6888761075211835e+18,17.094183268229166,0.4751513004302978,-2.7052167654037476,5.543449401855469,1.6888761075384878e+18,17.11148779296875,0.0,0.0,1.3058969974517822,22.46299934387207,0.509385883808136,356.1097717285156,22.899999618530273,-122.7500453,49.1924385,1.6888761075264422e+18,17.0994421875,16.33335952758789,47.62391891479492,-10.794559860229493,1.6888761075264422e+18,17.0994421875,-239.2932373046875,142.47891540527343,-143.92095947265625,1.6888761075255112e+18,17.09851114908854,-0.0312353363260626,-0.1149100561936695,-0.6868977149327596,0.7153442700703939,-1.460519274075826,1.3483340740203855,1.341256598631541
2.15,1.6888761075774065e+18,17.150406331380207,-0.2711698214213053,-13.953730583190918,5.035095453262329,1.6888761075774065e+18,17.150406331380207,2.0883357326189675,-23.24048932393392,7.143174052238464,1.6888761075774065e+18,17.150406331380207,2.336703896522522,-9.271013577779136,2.0433655182520547,1.6888761075774185e+18,17.15041845703125,1.983250379562378,-2.55196600407362,6.226931095123291,1.6888761075730875e+18,17.146087646484375,1.3839661329984665,-2.7647251337766647,5.880799770355225,,,,,,,,,,,,1.688876107576436e+18,17.149435986328125,4.921479964256287,50.33475952148437,-8.784000015258789,1.688876107576436e+18,17.149435986328125,-250.70511779785156,145.18975830078125,-141.910400390625,1.6888761075774065e+18,17.150406331380207,0.0535264884432156,-0.1774900903304417,-0.5803937117258707,0.791530191898346,-0.7253317435582479,1.214884837468465,0.3915477146704991
2.2,1.688876107629314e+18,17.202313883463543,-11.97864818572998,7.112296899159749,-1.169214169184367,1.688876107629314e+18,17.202313883463543,-7.945766448974609,-1.6386845509211223,0.8386843204498291,1.688876107629314e+18,17.202313883463543,4.010080734888713,-8.735236485799154,1.9431849718093872,1.6888761076206636e+18,17.19366357421875,0.7045821398496628,-3.0376292069753013,3.0805426041285195,1.6888761076249946e+18,17.197994384765625,0.526464025179545,-3.4299065669377646,2.720335682233175,,,,,,,,,,,,1.688876107626442e+18,17.199441845703127,-6.629479789733887,50.537279510498045,-5.626639938354492,1.688876107626442e+18,17.199441845703127,-262.2560791015625,145.39227905273438,-138.75303955078124,1.688876107629314e+18,17.202313883463543,0.1249038030703862,-0.2015653550624847,-0.4941512147585551,0.8357626795768738,-0.4612970848878224,1.0703988075256348,-0.020322298631072
2.25,1.6888761076812173e+18,17.254217285156248,-8.627213795979818,23.048131306966145,-1.923552433649699,1.6888761076812173e+18,17.254217285156248,-4.705286423365275,14.542180379231771,1.121635675430298,1.6888761076812173e+18,17.254217285156248,3.899125893910726,-8.490205764770508,2.9804747104644775,1.688876107672565e+18,17.24556510416667,-0.6665048897266388,-3.336444099744161,0.3174972136815389,1.688876107676892e+18,17.249892008463544,-0.662432461977005,-2.9771535992622375,0.0912734667460124,,,,,,,,,,,,1.68887610767644e+18,17.249439990234375,-9.1231595993042,49.72475891113281,-7.507879734039307,1.68887610767644e+18,17.249439990234375,-264.749755859375,144.5797576904297,-140.63428344726563,1.6888761076812173e+18,17.254217285156248,0.1672281970580419,-0.2891205946604411,-0.45749232172966,0.8239472111066183,-0.6631184418996176,1.0172090530395508,-0.0211313633869091
2.3,1.6888761077331205e+18,17.3061201171875,-11.228901545206703,11.751261075337728,-4.279974857966105,1.6888761077331205e+18,17.3061201171875,-8.572287400563559,2.904687245686849,-0.903888742129008,1.6888761077331205e+18,17.3061201171875,2.6338130633036294,-8.830828348795572,3.311372598012289,1.688876107724474e+18,17.29747395833333,0.5493205587069193,-2.447329819202423,-2.5631906191507974,1.688876107728795e+18,17.301794840494793,0.7640905976295471,-2.6891815662384033,-2.7001771132151284,,,,,,,,,,,,1.688876107726437e+18,17.299437060546875,-4.662839961051941,49.89799880981445,-9.137799930572507,1.688876107726437e+18,17.299437060546875,-260.2894348144531,144.75299682617188,-142.26419982910156,1.6888761077331205e+18,17.3061201171875,0.1764357884724934,-0.3413441677888234,-0.4906530777613322,0.7813074787457784,-0.908912440141042,1.0923031568527222,0.1359544843435287
2.35,1.6888761077763758e+18,17.3493759765625,34.04137992858887,-5.526606559753417,-4.195979118347167,1.6888761077763758e+18,17.3493759765625,35.77030658721924,-14.88634729385376,-1.714158296585083,1.6888761077763758e+18,17.3493759765625,1.7061249017715454,-9.343995571136476,2.417107105255127,1.6888761077763758e+18,17.349375732421876,2.108961343765259,4.31947906812032,-1.2163853844006856,1.6888761077807045e+18,17.353704589843748,1.7851009716590245,4.2957572142283125,-0.729780356089274,,,,,,,,,,,,1.6888761077764398e+18,17.349439941406253,3.106119894981384,50.31767883300781,-5.099599885940552,1.6888761077764398e+18,17.349439941406253,-252.52047424316407,145.1726806640625,-138.2259948730469,1.6888761077763758e+18,17.3493759765625,0.1889456436038017,-0.3184517323970794,-0.5486164689064026,0.7482098042964935,-0.943620413541794,1.2318724989891052,0.1975381523370742
2.4,1.6888761078196316e+18,17.39263175455729,-9.269567330678305,-1.1646755536397295,3.8969208796819057,1.6888761078196316e+18,17.39263175455729,-6.970890522003174,-10.354541301727297,6.534998178482056,1.6888761078196316e+18,17.39263175455729,2.2758754094441733,-9.174120585123696,2.573363741238912,1.6888761078282793e+18,17.401279296875,-1.3355041046937306,-5.437413374582927,1.8893043796221416,1.6888761078326047e+18,17.40560457356771,-1.0044660965601604,-5.385897080103557,1.584889883796374,,,,,,,,,,,,1.68887610782644e+18,17.399439990234377,1.0174799889326094,50.73003921508789,-5.758400011062622,1.68887610782644e+18,17.399439990234377,-254.6091156005859,145.5850341796875,-138.88479919433593,1.6888761078196316e+18,17.39263175455729,0.1727592746416727,-0.3023346463839213,-0.530310312906901,0.7714092135429382,-0.8387132088343302,1.180831829706828,0.1384269843498865
2.45,1.6888761078715313e+18,17.44453125,-9.243845423062645,-13.380315144856771,6.98410177230835,1.6888761078715313e+18,17.44453125,-7.208776950836182,-22.65006033579509,9.548359433809916,1.6888761078715313e+18,17.44453125,2.0122671127319336,-9.253999710083008,2.4995442231496177,1.6888761078801823e+18,17.453182291666668,2.0173315604527793,6.844032605489095,-2.1907664140065513,1.688876107884508e+18,17.45750789388021,2.004757841428121,7.329568386077881,-2.3239858945210776,,,,,,,,,,,,1.6888761078764378e+18,17.449437841796875,1.0882399678230286,50.67635879516602,-5.050799798965454,1.6888761078764378e+18,17.449437841796875,-254.5383514404297,145.53135986328124,-138.177197265625,1.6888761078715313e+18,17.44453125,0.1938414126634597,-0.3194658855597178,-0.5324416855971018,0.7570264140764872,-0.8839961489041647,1.2041415373484294,0.1259055559833844
2.5,1.6888761079234324e+18,17.496432373046876,-7.848730246225993,5.3279603322347,1.009756048520406,1.6888761079234324e+18,17.496432373046876,-7.109474778175353,-4.360321015119553,2.327019959688186,1.6888761079234324e+18,17.496432373046876,0.7164537260929743,-9.672536214192707,1.252550443013509,1.6888761079320842e+18,17.505084309895835,0.2152281602223714,2.559678057829539,-5.6981509526570635,1.6888761079277624e+18,17.500762329101562,0.7826711088418961,1.6014596223831177,-5.565974950790405,,,,,,,,,,,,1.6888761079264366e+18,17.499436767578125,8.46191964149475,49.841879272460936,-2.1301199436187743,1.6888761079264366e+18,17.499436767578125,-247.16467895507813,144.696875,-135.2565185546875,1.6888761079234324e+18,17.496432373046876,0.117732636630535,-0.2019865065813063,-0.6391850709915161,0.7314390142758688,-1.0628886024157207,1.3829576174418132,0.6044867634773254
2.55,1.688876107975338e+18,17.548337890625,-14.189334551493326,-16.052449544270832,3.098811308542887,1.688876107975338e+18,17.548337890625,-16.005391359329224,-25.424737294514973,5.348756233851115,1.688876107975338e+18,17.548337890625,-1.8388585646947224,-9.356541951497396,2.1852315266927085,1.688876107983984e+18,17.55698388671875,-2.178294579188029,4.043418844540914,-4.7850602467854815,1.6888761079710126e+18,17.544012613932292,-2.4487042824427285,5.171534299850464,-5.408244450887044,,,,,,,,,,,,1.6888761079764403e+18,17.549440087890623,21.57447929382324,45.34983825683594,-6.790519714355469,1.6888761079764403e+18,17.549440087890623,-234.05211181640624,140.20484008789063,-139.9169189453125,1.688876107975338e+18,17.548337890625,-0.00907672320803,-0.1698543379704157,-0.7412029504776001,0.6472004652023315,-2.1453211307525635,1.2825260162353516,1.9151138464609785
2.6,1.6888761080272374e+18,17.6002373046875,19.15855820973714,-14.64950688680013,-7.584430694580078,1.6888761080272374e+18,17.6002373046875,15.026726404825846,-23.107288996378585,-4.9503512382507315,1.6888761080272374e+18,17.6002373046875,-4.154632409413655,-8.442036628723145,2.569365978240967,1.6888761080272425e+18,17.60024267578125,-0.1721112728118896,-3.2746957540512085,-6.725397109985352,1.6888761080229133e+18,17.595913330078126,-0.3445788969596227,-2.122909372051557,-6.075512886047363,,,,,,,,,,,,1.6888761080264402e+18,17.599440136718748,34.77731895446777,36.46335868835449,-11.877919578552248,1.6888761080264402e+18,17.599440136718748,-220.84927368164065,131.3183563232422,-145.0043151855469,1.6888761080272374e+18,17.6002373046875,-0.0521638467907905,-0.1742562452952066,-0.8162151773770651,0.5456637243429819,-2.51448130607605,1.0620928009351094,2.3353283405303955
2.65,1.688876108079144e+18,17.65214388020833,16.514139652252197,1.281350294748942,-1.915393948554993,1.688876108079144e+18,17.65214388020833,11.188240736722946,-6.233502388000488,1.495115339756012,1.688876108079144e+18,17.65214388020833,-5.348700523376465,-7.4991075197855634,3.3457957903544107,1.6888761080704934e+18,17.643493570963543,-0.5210171391566595,3.801007111867269,-1.6917403141657512,1.6888761080748198e+18,17.64781982421875,-0.4317290087540944,3.993327856063843,-1.015665243069331,1.6888761080575186e+18,17.6305185546875,0.0,0.0,1.3058969974517822,22.316999435424805,0.6347054839134216,357.8666076660156,22.899999618530273,-122.7500469,49.1924611,1.6888761080764452e+18,17.6494453125,41.50927963256836,28.90911979675293,-15.572079467773438,1.6888761080764452e+18,17.6494453125,-214.11732177734376,123.76411590576171,-148.69847717285157,1.688876108079144e+18,17.65214388020833,-0.1148447791735331,-0.1622655143340428,-0.856472114721934,0.4753613770008087,-2.5483076572418213,0.8908540407816569,2.4770901997884116
2.7,1.6888761081310444e+18,17.70404443359375,7.205276171366374,9.102160771687826,-7.191571553548177,1.6888761081310444e+18,17.70404443359375,2.6111677487691245,1.502892017364502,-2.9672994315624237,1.6888761081310444e+18,17.70404443359375,-4.616909980773926,-7.583523591359456,4.159558534622192,1.6888761081223967e+18,17.695396565755207,-0.9378817677497864,1.1205814182758331,1.2480995257695515,1.6888761081267249e+18,17.699724609375,-0.9678650895754496,1.121650367975235,1.3747013012568157,,,,,,,,,,,,1.6888761081264402e+18,17.699440234374997,38.12011947631836,29.80947952270508,-20.461840057373045,1.6888761081264402e+18,17.699440234374997,-217.50647583007813,124.6644760131836,-153.5882354736328,1.6888761081310444e+18,17.70404443359375,-0.1648440311352411,-0.1556942909955978,-0.8352345824241638,0.5006764829158783,-2.3701020876566568,0.9023762345314026,2.3837900161743164
2.75,1.6888761081829458e+18,17.75594571940104,0.2433257102966308,6.27658748626709,-9.537286122639976,1.6888761081829458e+18,17.75594571940104,-3.5030922889709473,-1.7427724599838257,-5.245067119598389,1.6888761081829458e+18,17.75594571940104,-3.7692193190256753,-8.003614584604898,4.227505683898926,1.6888761081743045e+18,17.74730476888021,0.9835439547896384,0.8345437447230021,1.2070188124974568,1.6888761081786245e+18,17.75162443033854,1.2345077395439148,0.5350670491655667,1.2716687222321827,,,,,,,,,,,,1.688876108176442e+18,17.749441650390626,34.123399353027345,32.20555953979492,-22.731039810180665,1.688876108176442e+18,17.749441650390626,-221.5031982421875,127.06055755615236,-155.85743713378906,1.6888761081829458e+18,17.75594571940104,-0.1767948021491368,-0.1387300193309783,-0.8115470210711161,0.5390898187955221,-2.2554333209991455,0.9722367723782858,2.311826546986898
2.8,1.6888761082262026e+18,17.79920263671875,-2.942321538925171,-1.1941430568695068,-10.537184715270996,1.6888761082262026e+18,17.79920263671875,-5.862714529037476,-9.973583936691284,-7.2059853076934814,1.6888761082262026e+18,17.79920263671875,-2.9431943893432617,-8.76369571685791,3.266485810279846,1.6888761082262047e+18,17.79920458984375,1.905441443125407,-1.6010777950286863,3.61576239267985,1.688876108230527e+18,17.803527018229165,1.8653788169225056,-1.6233744223912556,3.6515488624572754,,,,,,,,,,,,1.68887610822644e+18,17.799439990234376,30.168159866333006,37.554039764404294,-18.52935943603516,1.68887610822644e+18,17.799439990234376,-225.45843505859375,132.4090362548828,-151.6557586669922,1.6888761082262026e+18,17.79920263671875,-0.1201832331717014,-0.1269694492220878,-0.7867246568202972,0.5917144417762756,-2.24204421043396,1.1216199398040771,2.2322709560394287
2.85,1.6888761082694546e+18,17.842454427083332,6.026981274286906,-18.319934844970703,0.3548586368560791,1.6888761082694546e+18,17.842454427083332,4.441876411437989,-27.71008237202962,2.7196423212687173,1.6888761082694546e+18,17.842454427083332,-1.6079062620798747,-9.374402364095053,2.3000702460606894,1.6888761082780972e+18,17.85109716796875,1.6001615275939305,-1.703194081783295,4.511698007583618,1.6888761082824292e+18,17.855429117838543,1.1562661329905193,-1.712153434753418,4.570850054423015,,,,,,,,,,,,1.6888761082764406e+18,17.849440722656247,23.614319610595704,44.059078216552734,-12.702639770507812,1.6888761082764406e+18,17.849440722656247,-232.01227722167968,138.91407470703126,-145.82903442382812,1.6888761082694546e+18,17.842454427083332,-0.0617256710926691,-0.1146302620569864,-0.744052529335022,0.6542377869288126,-2.049204627672831,1.286997119585673,1.9736597140630088
2.9,1.688876108321357e+18,17.89435725911458,-2.613216837247213,-25.84212303161621,11.395866711934408,1.688876108321357e+18,17.89435725911458,-2.3068803946177163,-35.36731465657552,13.816357294718424,1.688876108321357e+18,17.89435725911458,0.2835351924101512,-9.509445190429688,2.3557769457499185,1.6888761083300088e+18,17.903008951822915,-0.4334597984949748,-2.387617826461792,3.838829835255941,1.6888761083343365e+18,17.907336263020834,-0.0508545637130737,-2.364761233329773,3.9588140646616616,,,,,,,,,,,,1.6888761083264422e+18,17.899442285156248,14.669279861450196,48.1655990600586,-11.694919776916503,1.6888761083264422e+18,17.899442285156248,-240.95731506347656,143.02059631347657,-144.82131958007812,1.688876108321357e+18,17.89435725911458,-0.0158401934119561,-0.1574119627475738,-0.668012817700704,0.7263741691907247,-1.3601245482762654,1.308364470799764,1.1577046513557434
2.95,1.6888761083732616e+18,17.946261555989583,-5.260578910509746,-7.355404853820801,0.3827032645543417,1.6888761083732616e+18,17.946261555989583,-3.0390841563542677,-16.69891134897868,2.453042060136795,1.6888761083732616e+18,17.946261555989583,2.1986932357152305,-9.32776133219401,2.005625367164612,1.6888761083819105e+18,17.954910156249998,1.2469286719957986,-2.144951442877451,4.611574411392212,1.6888761083775885e+18,17.950588500976565,1.3484086394309998,-1.290223807096481,4.820872068405151,,,,,,,,,,,,1.6888761083764393e+18,17.949439404296875,4.69455977678299,50.16883850097656,-7.978799819946289,1.6888761083764393e+18,17.949439404296875,-250.93203430175785,145.02383422851562,-141.10519714355468,1.6888761083732616e+18,17.946261555989583,0.0518805496394634,-0.1765375932057698,-0.5860443313916525,0.7883142630259196,-0.734693686167399,1.2287160555521648,0.4052195996046066
3.0,1.6888761084251648e+18,17.998164876302084,-11.534096638361612,18.56524912516276,-1.7668617566426594,1.6888761084251648e+18,17.998164876302084,-7.965308037896951,9.731011629104616,0.6961119522651037,1.6888761084251648e+18,17.998164876302084,3.5459865729014077,-8.81849193572998,2.3982602755228677,1.6888761084338092e+18,18.00680908203125,0.0015271628896395,-4.880049864451091,2.5927666624387107,1.6888761084208305e+18,17.99383056640625,0.3166318188110987,-5.580508708953857,3.395749012629191,,,,,,,,,,,,1.6888761084264433e+18,17.999443408203128,-5.043479967117309,50.60315856933594,-6.43671989440918,1.6888761084264433e+18,17.999443408203128,-260.6700744628906,145.45815734863282,-139.56311645507813,1.6888761084251648e+18,17.998164876302084,0.1454649989803631,-0.2490956286589304,-0.4956168135007222,0.8179462552070618,-0.6038890679677328,1.0871615409851074,0.0199107765996207
3.05,1.688876108477061e+18,18.050061116536455,-11.678463617960611,21.7977294921875,-2.6753509044647217,1.688876108477061e+18,18.050061116536455,-8.184450467427572,13.111870288848875,0.3812563816706339,1.688876108477061e+18,18.050061116536455,3.471211830774943,-8.670113881429037,2.9918938477834067,1.6888761084770678e+18,18.050067626953123,-0.1626428784802555,-0.962876319885254,-1.226464718580246,1.6888761084727432e+18,18.045743245442708,-0.1664607773224512,-1.1063787539800007,-0.8757771452267965,,,,,,,,,,,,1.6888761084764403e+18,18.049440380859373,-7.651839828491211,50.28595886230469,-7.788479900360107,1.6888761084764403e+18,18.049440380859373,-263.2784362792969,145.14095764160157,-140.91488037109374,1.688876108477061e+18,18.050061116536455,0.1767242650190989,-0.305201788743337,-0.4706085721651713,0.8086892565091451,-0.7245622674624125,1.0531965494155884,0.0040358466018612
3.1,1.688876108528971e+18,18.101971028645835,2.037242333094279,7.747302532196045,-4.036958376566569,1.688876108528971e+18,18.101971028645835,4.122634132703145,-1.4889339605967205,-1.3968102286259334,1.688876108528971e+18,18.101971028645835,2.0625901222229004,-9.220491409301758,2.575434605280558,1.688876108520321e+18,18.09332088216146,1.2620475888252258,0.4066835343837738,-3.6003889242808023,1.6888761085246482e+18,18.097648193359376,1.3620767792065938,0.4746422866980235,-3.7116681734720864,,,,,,,,,,,,1.6888761085264425e+18,18.099442578125,-0.5124000191688538,50.71783828735352,-6.5709198951721195,1.6888761085264425e+18,18.099442578125,-256.1389953613281,145.57283630371094,-139.69731750488282,1.688876108528971e+18,18.101971028645835,0.1689117401838302,-0.3057339092095693,-0.5392448703447977,0.7656883796056112,-0.9024650851885476,1.193318525950114,0.2046831026673317
3.15,1.6888761085808783e+18,18.153878255208337,5.338464180628459,-5.751747767130534,1.2333519061406453,1.6888761085808783e+18,18.153878255208337,6.934001286824544,-15.222339948018393,3.3748769760131836,1.6888761085808783e+18,18.153878255208337,1.57273530960083,-9.454847017923992,2.0768115520477295,1.6888761085722235e+18,18.145223632812503,0.3739513556162516,-0.010842760403951,0.1685478786627451,1.6888761085765455e+18,18.14954541015625,0.1709913586576779,-0.46812637646993,0.7505497733751932,1.6888761085765527e+18,18.149552734375,0.0,0.0,1.3058969974517822,22.049999237060547,0.7047990560531616,357.5259704589844,22.899999618530273,-122.7500535,49.1924719,1.6888761085764442e+18,18.149444287109375,5.821839809417725,51.04723892211914,-4.035759925842285,1.6888761085764442e+18,18.149444287109375,-249.80475769042968,145.90223999023436,-137.162158203125,1.6888761085808783e+18,18.153878255208337,0.1652677605549494,-0.2823472321033477,-0.5736812949180603,0.7504595319430033,-0.913737138112386,1.2695737679799397,0.2616882522900898
3.2,1.6888761086327767e+18,18.20577669270833,-3.791709899902344,-19.893686294555664,8.492631991704306,1.6888761086327767e+18,18.20577669270833,-1.6169496377309176,-29.2630246480306,10.54995517184337,1.6888761086327767e+18,18.20577669270833,2.151958386103312,-9.353592872619627,1.9926093419392903,1.6888761086241267e+18,18.197126708984374,0.8236499826113383,0.9297369321187338,0.7502442995707194,1.6888761086284493e+18,18.201449381510415,1.0703886436919372,1.8272506793340049,0.2654209434986114,,,,,,,,,,,,1.6888761086264402e+18,18.199440087890626,1.3346799612045288,51.03991928100586,-3.689279937744141,1.6888761086264402e+18,18.199440087890626,-254.2919189453125,145.89491577148436,-136.81567993164063,1.6888761086327767e+18,18.20577669270833,0.1948918153842289,-0.2880366990963617,-0.5446082154909769,0.7623304128646851,-0.7540555000305176,1.233818491299947,0.0460059742132822
