seconds_elapsed_rounded,accelerometer_time,accelerometer_seconds_elapsed,accelerometer_z,accelerometer_y,accelerometer_x,accelerometeruncalibrated_time,accelerometeruncalibrated_seconds_elapsed,accelerometeruncalibrated_z,accelerometeruncalibrated_y,accelerometeruncalibrated_x,gravity_time,gravity_seconds_elapsed,gravity_z,gravity_y,gravity_x,gyroscope_time,gyroscope_seconds_elapsed,gyroscope_z,gyroscope_y,gyroscope_x,gyroscopeuncalibrated_time,gyroscopeuncalibrated_seconds_elapsed,gyroscopeuncalibrated_z,gyroscopeuncalibrated_y,gyroscopeuncalibrated_x,location_time,location_seconds_elapsed,location_bearingAccuracy,location_speedAccuracy,location_verticalAccuracy,location_horizontalAccuracy,location_speed,location_bearing,location_altitude,location_longitude,location_latitude,magnetometer_time,magnetometer_seconds_elapsed,magnetometer_z,magnetometer_y,magnetometer_x,magnetometeruncalibrated_time,magnetometeruncalibrated_seconds_elapsed,magnetometeruncalibrated_z,magnetometeruncalibrated_y,magnetometeruncalibrated_x,orientation_time,orientation_seconds_elapsed,orientation_qz,orientation_qy,orientation_qx,orientation_qw,orientation_roll,orientation_pitch,orientation_yaw
0.0,1.6887025507031063e+18,29.998106363932298,65.62813250223796,-14.007278601328531,0.6650084654490153,1.6887025507117555e+18,30.00675528971354,42.2213552792867,-16.166707674662273,3.145764191945394,1.6887025507031063e+18,29.998106363932298,-7.1657538414001465,-5.8384372393290205,3.2398035526275635,1.6887025507031063e+18,29.998106363932298,-2.80081707239151,-5.570123751958211,1.4158838589986165,1.6887025507031063e+18,29.998106363932298,-2.80178439617157,-5.565389633178711,1.418174664179484,,,,,,,,,,,,1.6887025507036603e+18,29.998660205078124,28.27715950012207,26.193399047851564,-33.87695999145508,1.6887025507036603e+18,29.998660205078124,-226.26363525390624,121.6583984375,-167.08875732421876,1.6887025507031063e+18,29.998106363932298,-0.3576941986878713,0.6650139490763346,-0.6493770678838094,0.0811240648229916,-2.6848748524983725,0.6207457979520162,-1.6967921257019043
0.05,1.6887025507550075e+18,30.050007975260417,-2.3661104838053384,-1.175399939219157,-4.469590425491333,1.688702550755007e+18,30.050007080078124,-7.45782995223999,-7.779365301132202,0.0909272581338882,1.6887025507550075e+18,30.050007975260417,-5.35100523630778,-6.804905732472737,4.566225051879883,1.6887025507550075e+18,30.050007975260417,0.4097378502289454,4.558836460113525,2.875189940134684,1.6887025507550075e+18,30.050007975260417,0.4087197631597519,4.563519795735677,2.8775316874186196,,,,,,,,,,,,1.6887025507536602e+18,30.048660009765623,18.817279815673828,28.172239685058592,-37.36859970092773,1.6887025507536602e+18,30.048660009765623,-235.72351684570313,123.63723754882812,-170.58039245605468,1.6887025507550075e+18,30.050007975260417,-0.4737424254417419,0.6329204638799032,-0.6077964703241984,0.0651113043228784,-2.400286912918091,0.7464896440505981,-1.8343334992726643
0.1,1.6887025508069112e+18,30.10191121419271,-2.71367613474528,5.651055335998535,-6.0802890459696455,1.688702550798258e+18,30.093257975260418,-6.113262971242269,-2.5908287366231284,-0.9930214285850524,1.6887025508069112e+18,30.10191121419271,-3.60742712020874,-7.833751360575358,4.647311846415202,1.6887025508069112e+18,30.10191121419271,1.38376251856486,0.6462445060412089,3.561802546183268,1.6887025508069112e+18,30.10191121419271,1.3827952941258748,0.6508769591649374,3.564093271891276,,,,,,,,,,,,1.6887025508036582e+18,30.0986583984375,7.271199893951416,32.359279251098634,-38.00055923461914,1.6887025508036582e+18,30.0986583984375,-247.26959533691405,127.82427825927736,-171.2123565673828,1.6887025508069112e+18,30.10191121419271,-0.5568092862764994,0.6115102966626486,-0.5536764860153198,0.0934351583321888,-2.192089875539144,0.902183751265208,-1.9610833326975503
0.15,1.6887025508588145e+18,30.153814453125005,-0.1728820006052653,-3.397023836771648,-7.469724178314209,1.688702550850167e+18,30.145167236328124,-4.3978085120519,-8.698309024175009,-3.3716865380605063,1.6887025508588145e+18,30.153814453125005,-2.092187285423279,-8.647291819254557,4.106337070465088,1.6887025508588145e+18,30.153814453125005,0.2913318127393722,-1.6752979159355164,4.393801053365071,1.6887025508588145e+18,30.153814453125005,0.2903646056850751,-1.6706146597862244,4.396142641703288,,,,,,,,,,,,1.688702550853658e+18,30.148658251953123,1.0223599679768085,35.25067977905273,-36.34379959106445,1.688702550853658e+18,30.148658251953123,-253.5184326171875,130.7156768798828,-169.55559997558595,1.6887025508588145e+18,30.153814453125005,-0.5994905829429626,0.5545004804929098,-0.5455897649129232,0.1851816624403,-2.005908966064453,1.0490328868230183,-2.264544089635214
0.2,1.6887025509107192e+18,30.20571923828125,9.136420567830404,-23.15832455952962,8.840768496195475,1.68870255090207e+18,30.19706974283854,10.658429304758709,-30.427332560221355,9.74457057317098,1.6887025509107192e+18,30.20571923828125,-1.160009463628133,-8.95399538675944,3.832940896352132,1.6887025509107192e+18,30.20571923828125,2.3188953399658203,12.20468012491862,-5.366654833157857,1.6887025509107192e+18,30.20571923828125,2.3179790576299033,12.20936361948649,-5.364313244819641,,,,,,,,,,,,1.6887025509036582e+18,30.198658251953127,-7.361479973793029,36.646358489990234,-34.274678802490236,1.6887025509036582e+18,30.198658251953127,-261.90227966308595,132.11135864257812,-167.48647766113282,1.6887025509107192e+18,30.20571923828125,-0.6551898717880249,0.6062504251797994,-0.4216565489768982,0.1132907631496588,-1.8183128833770752,1.1223262548446655,-2.125800093015035
0.25,1.6887025509626245e+18,30.257624593098956,10.476872762044271,-10.59026257197062,3.534833828608195,1.6887025509539748e+18,30.248974853515623,6.483153343200684,-22.536999384562176,9.04008404413859,1.6887025509626245e+18,30.257624593098956,-3.518608252207438,-8.366518497467041,3.622422218322754,1.6887025509626245e+18,30.257624593098956,1.9007071654001872,6.434905370076497,-9.266825675964355,1.6887025509626245e+18,30.257624593098956,1.899739980697632,6.439639727274577,-9.264534950256348,,,,,,,,,,,,1.6887025509536604e+18,30.2486603515625,-5.3435999870300295,44.20791931152344,-23.28491973876953,1.6887025509536604e+18,30.2486603515625,-259.88439025878904,139.67291870117188,-156.49671630859376,1.6887025509626245e+18,30.257624593098956,0.5683489044507345,-0.784735381603241,0.2177846233050028,0.0865421183407306,-2.2652553717295327,1.028917630513509,-1.0686464508374531
0.3,1.6887025510058783e+18,30.300878173828124,-0.0073002576828002,3.607013940811157,-0.719658136367798,1.688702551005875e+18,30.30087491861979,-3.1192437410354614,-4.763511498769124,3.3094731171925864,1.6887025510058783e+18,30.300878173828124,-4.530252695083618,-7.96179461479187,3.50263512134552,1.6887025510058783e+18,30.300878173828124,0.5291620306670666,-3.4488689303398132,0.6563747227191925,1.6887025510058783e+18,30.300878173828124,0.5282457321882248,-3.444287419319153,0.6586654484272003,,,,,,,,,,,,1.6887025510036577e+18,30.298657470703127,3.594119930267334,46.55275955200195,-19.632239532470702,1.6887025510036577e+18,30.298657470703127,-250.94667358398436,142.01775817871095,-152.8440368652344,1.6887025510058783e+18,30.300878173828124,0.5175080597400665,-0.8297523558139801,0.169663667678833,0.1199277639389037,-2.4308760166168213,0.9589901566505432,-0.7844322919845581
0.35,1.6887025510491318e+18,30.3441318359375,3.724596738815307,8.459237257639566,-0.1067433754603068,1.688702551057783e+18,30.352782958984378,-0.3613162195930878,0.7070790926615397,2.210768699645996,1.6887025510491318e+18,30.3441318359375,-4.17271622021993,-8.453696886698404,2.692312399546305,1.6887025510491318e+18,30.3441318359375,-1.3176872332890828,-5.819356918334961,3.7634390195210776,1.6887025510491318e+18,30.3441318359375,-1.318654477596283,-5.814622720082601,3.7657297452290854,,,,,,,,,,,,1.6887025510536617e+18,30.348661816406253,2.4009599685668945,46.32583923339844,-19.6444393157959,1.6887025510536617e+18,30.348661816406253,-252.13983459472655,141.79083862304688,-152.85624084472656,1.6887025510491318e+18,30.3441318359375,0.1720606287320455,-0.2803952892621358,0.0600835978984832,0.02886337817957,-2.5046191215515137,1.044883370399475,-0.9975417455037436
0.4,1.6887025511010296e+18,30.396029541015626,2.167188803354899,11.915479024251304,-1.3867841958999634,1.68870255110968e+18,30.404680094401044,-1.2634103496869404,3.153142054875692,1.4295121033986409,1.6887025511010296e+18,30.396029541015626,-3.1867940425872803,-8.873048146565756,2.696978807449341,1.6887025511010296e+18,30.396029541015626,-2.306678056716919,-4.846553961435954,3.619325637817383,1.6887025511010296e+18,30.396029541015626,-2.307594378789266,-4.841972351074219,3.6216673056284585,,,,,,,,,,,,1.6887025511036534e+18,30.398653173828126,-1.2956399321556091,44.45191879272461,-24.053519821166994,1.6887025511036534e+18,30.398653173828126,-255.83643493652343,139.9169158935547,-157.26531677246095,1.6887025511010296e+18,30.396029541015626,-0.5804149707158407,0.7202998598416647,-0.3671112358570099,0.0863438136875629,-2.366296370824178,1.1213400761286418,-1.4460920492808025
0.45,1.688702551152941e+18,30.44794091796875,1.8392879962921145,10.151641209920248,-1.880820631980896,1.6887025511615916e+18,30.45659147135417,-0.3631108204523722,0.4679962396621704,0.9796614746252696,1.688702551152941e+18,30.44794091796875,-2.4880057175954184,-8.973219235738119,3.082939386367798,1.688702551152941e+18,30.44794091796875,-1.9762508471806843,-5.018156210581462,2.864041725794474,1.688702551152941e+18,30.44794091796875,-1.9772180716196697,-5.013473033905029,2.866332451502482,1.6887025511356416e+18,30.4306416015625,0.0,0.0,3.9773805141448975,7.085999965667725,1.2970038652420044,31.377771377563477,43.400001525878906,-122.7525085,49.1875994,1.68870255115366e+18,30.448659716796875,-1.0882399678230286,41.27991943359375,-28.865199279785156,1.68870255115366e+18,30.448659716796875,-255.62903442382813,136.7449188232422,-162.07699584960938,1.688702551152941e+18,30.44794091796875,-0.5888432065645853,0.6313071052233378,-0.4734997153282165,0.1697697142759958,-2.1949357986450195,1.132515788078308,-1.9170066515604656
0.5,1.6887025512048407e+18,30.499840657552085,3.4412052631378174,6.95534880956014,-1.6865819295247395,1.6887025512048374e+18,30.499837524414065,1.7673985958099363,-1.9582262635231016,1.3100703656673431,1.6887025512048407e+18,30.499840657552085,-2.208566188812256,-9.038742701212565,3.107045809427897,1.6887025512048407e+18,30.499840657552085,-0.2953533480564753,-2.463772177696228,1.1614584525426228,1.6887025512048407e+18,30.499840657552085,-0.2962696452935536,-2.459038019180298,1.1637491782506306,,,,,,,,,,,,1.6887025512036564e+18,30.498656494140626,1.3907999783754348,39.567039489746094,-31.175879287719727,1.6887025512036564e+18,30.498656494140626,-253.14999694824215,135.03204040527345,-164.38767700195314,1.6887025512048407e+18,30.499840657552085,-0.5745850801467896,0.570445199807485,-0.5364940166473389,0.237369547287623,-2.150976816813151,1.1444352865219116,-2.1792520682017007
0.55,1.6887025512567388e+18,30.55173876953125,1.938260277112325,-11.0549529393514,11.33233880996704,1.6887025512480911e+18,30.543091389973956,0.0079760799805322,-14.710276126861572,10.956535498301188,1.6887025512567388e+18,30.55173876953125,-1.9488919576009112,-9.158657391866049,2.9232256412506104,1.6887025512567388e+18,30.55173876953125,1.2451469699541728,4.397873441378276,-1.0553714980681737,1.6887025512567388e+18,30.55173876953125,1.2441288630167644,4.402607520421346,-1.053080747524897,,,,,,,,,,,,1.688702551253653e+18,30.5486529296875,-0.0658799886703491,40.40395889282227,-30.680559158325195,1.688702551253653e+18,30.5486529296875,-254.60667724609377,135.86895751953125,-163.8923583984375,1.6887025512567388e+18,30.55173876953125,-0.5900264779726664,0.5874743660291036,-0.5030139784018198,0.2278899600108463,-2.117764075597127,1.1789850791295369,-2.134943723678589
0.6,1.6887025513086444e+18,30.603644368489583,-3.811514854431152,-20.11681842803955,12.291898091634115,1.6887025512999956e+18,30.594995524088542,-5.221139033635457,-31.833913167317707,19.038493474324543,1.6887025513086444e+18,30.603644368489583,-2.479678233464559,-8.57875124613444,4.005342086156209,1.6887025513086444e+18,30.603644368489583,-2.685210903485616,4.849862893422444,-4.174653212229411,1.6887025513086444e+18,30.603644368489583,-2.6861780881881714,4.854596932729085,-4.172362327575684,,,,,,,,,,,,1.6887025513036529e+18,30.598652832031252,-4.384679841995239,40.550358581542966,-30.848919677734376,1.6887025513036529e+18,30.598652832031252,-258.92547607421875,136.0153564453125,-164.0607177734375,1.6887025513086444e+18,30.603644368489583,-0.6086852153142294,0.6560562054316202,-0.4370163381099701,0.0758154584715763,-2.082226355870565,1.049181620279948,-1.8291947444279988
0.65,1.688702551360548e+18,30.65554801432292,-1.9171005090077715,1.1942152976989746,-4.7088156541188555,1.688702551351898e+18,30.64689811197917,-4.578865607579549,-9.185248533884684,3.1256246169408164,1.688702551360548e+18,30.65554801432292,-3.626135985056559,-7.402236779530843,5.293785572052002,1.688702551360548e+18,30.65554801432292,-3.132669687271118,-1.8370244825879736,-2.1085541248321533,1.688702551360548e+18,30.65554801432292,-3.1335860093434653,-1.8322903091708815,-2.1062633991241455,,,,,,,,,,,,1.6887025513536522e+18,30.648652197265623,-1.2248799800872805,35.71671905517578,-35.93387908935547,1.6887025513536522e+18,30.648652197265623,-255.7656768798828,131.1817169189453,-169.1456756591797,1.688702551360548e+18,30.65554801432292,0.5664408206939697,-0.6721243460973104,0.4756046533584595,0.0188509851383666,-2.1338544686635337,0.8392331997553507,-1.714616854985555
0.7,1.688702551412452e+18,30.70745198567708,53.44900639851888,-8.127430280049643,1.253483057022095,1.6887025514038026e+18,30.698802815755204,21.29751682281494,-9.702497025330862,3.8247275352478023,1.688702551412452e+18,30.70745198567708,-6.7788591384887695,-5.815789858500163,3.934479951858521,1.688702551412452e+18,30.70745198567708,-3.0638455152511597,-8.910233040650686,-0.577623960285564,1.688702551412452e+18,30.70745198567708,-3.0647618770599365,-8.905498946706453,-0.5753332282571743,,,,,,,,,,,,1.6887025514036536e+18,30.698653564453128,17.160519313812255,27.78427963256836,-37.5955192565918,1.6887025514036536e+18,30.698653564453128,-237.3802734375,123.24927825927736,-170.80731811523438,1.688702551412452e+18,30.70745198567708,-0.0884234011173248,0.2117402156194051,-0.2457523147265116,0.0505539503258962,-2.5836798350016275,0.6175002257029215,-1.7103696664174397
0.75,1.6887025514557048e+18,30.750704833984372,1.6626641750335691,-2.3217833042144775,-4.141212701797485,1.6887025514557048e+18,30.750704752604168,2.7970102628072104,-9.269994258880615,0.4979065259297688,1.6887025514557048e+18,30.750704833984372,-5.992340803146362,-6.553936719894409,4.148216247558594,1.6887025514557048e+18,30.750704833984372,-0.4712061882019042,3.6677112579345703,3.4849863052368164,1.6887025514557048e+18,30.750704833984372,-0.4721224904060364,3.6723692417144775,3.487277030944824,,,,,,,,,,,,1.6887025514536535e+18,30.74865341796875,24.824560165405273,26.23975944519043,-35.74355926513672,1.6887025514536535e+18,30.74865341796875,-229.7162353515625,121.70475769042967,-168.95535583496093,1.6887025514557048e+18,30.750704833984372,-0.4322226792573929,0.6211714446544647,-0.6472227871417999,0.0893953591585158,-2.506770133972168,0.7110426425933838,-1.8554123640060425
0.8,1.6887025514989596e+18,30.793959391276044,-0.7243343194325765,1.5289123853047688,-5.386611302693685,1.688702551507611e+18,30.802611002604166,-5.360919793446858,-6.417350927988688,-1.0977073808511095,1.6887025514989596e+18,30.793959391276044,-4.449609835942586,-7.454182147979736,4.535289446512858,1.6887025514989596e+18,30.793959391276044,0.8523606558640798,1.7781269351641338,3.5687766075134277,1.6887025514989596e+18,30.793959391276044,0.8513425290584564,1.7828101714452107,3.5710673332214355,,,,,,,,,,,,1.6887025515036536e+18,30.79865361328125,13.673759841918946,30.18279914855957,-38.00299987792969,1.6887025515036536e+18,30.79865361328125,-240.86703491210935,125.64779663085938,-171.214794921875,1.6887025514989596e+18,30.793959391276044,-0.511012057463328,0.5956198573112488,-0.6089503963788351,0.1117574051022529,-2.3140010039011636,0.8405148386955261,-1.982210596402486
0.85,1.6887025515508636e+18,30.84586360677083,1.4895273049672444,-5.031267801920573,-4.759354988733928,1.6887025515595172e+18,30.854517252604165,5.829514185587565,-17.23290952046712,1.4935201108455658,1.6887025515508636e+18,30.84586360677083,-2.92867382367452,-8.397096633911133,4.113815704981486,1.6887025515508636e+18,30.84586360677083,0.9689849813779196,-0.6450228045384089,3.637549877166748,1.6887025515508636e+18,30.84586360677083,0.967966894308726,-0.640390415986379,3.639840602874756,,,,,,,,,,,,1.6887025515536558e+18,30.84865576171875,5.089839887619019,34.51624069213867,-36.65123825073242,1.6887025515536558e+18,30.84865576171875,-249.4509521484375,129.98123779296876,-169.863037109375,1.6887025515508636e+18,30.84586360677083,-0.5633028745651245,0.5614240368207296,-0.5778403878211975,0.1810430685679117,-2.1555989583333335,1.0009577870368958,-2.1729660828908286
0.9,1.6887025516027763e+18,30.897776448567708,6.42101526260376,-24.32728894551595,8.903063774108888,1.6887025516114289e+18,30.906429036458334,-2.0133608976999917,-32.166714350382485,12.727224032084148,1.6887025516027763e+18,30.897776448567708,-1.7746156454086304,-8.750336011250814,4.056188344955444,1.6887025516027763e+18,30.897776448567708,1.7534377972284954,11.370493253072103,-3.68234654267629,1.6887025516027763e+18,30.897776448567708,1.75247061252594,11.375176429748535,-3.680055816968282,,,,,,,,,,,,1.6887025516036636e+18,30.89866357421875,-6.263479793071747,37.69067916870117,-33.33527946472168,1.6887025516036636e+18,30.89866357421875,-260.8042785644531,133.15567932128906,-166.5470764160156,1.6887025516027763e+18,30.897776448567708,-0.629887600739797,0.6084687113761902,-0.4589401086171468,0.1135784511764844,-1.9420934120814008,1.0760635137557983,-2.0656455357869468
0.95,1.6887025516546767e+18,30.94967683919271,11.288487990697226,-8.952490647633871,1.8804669380187988,1.6887025516546806e+18,30.94968078613281,13.809577465057371,-17.735002994537354,6.498009204864502,1.6887025516546767e+18,30.94967683919271,-3.3852575620015464,-8.148457686106363,4.223747889200847,1.6887025516546767e+18,30.94967683919271,2.142558972040812,6.840367158253987,-9.346289157867432,1.6887025516546767e+18,30.94967683919271,2.141591747601827,6.844948609670003,-9.343998432159424,1.6887025516490998e+18,30.944099853515624,0.0,0.0,3.8378052711486816,7.124000072479248,1.3912146091461182,30.35102081298828,43.400001525878906,-122.7524965,49.1876105,1.688702551653656e+18,30.9486560546875,-3.3940398663282396,42.99523849487305,-26.8131591796875,1.688702551653656e+18,30.9486560546875,-257.93483276367186,138.46023864746093,-160.02495727539062,1.6887025516546767e+18,30.94967683919271,0.5721937616666158,-0.7651792367299398,0.2683431307474772,0.0896451541533072,-2.18377693494161,0.9798230528831482,-1.222429056962331
1.0,1.6887025517065833e+18,31.001583333333333,-0.4649253686269124,5.2284895579020185,-0.2307267189025879,1.688702551697934e+18,30.99293408203125,-3.8727834224700928,-4.082953055699666,3.526023546854655,1.6887025517065833e+18,31.001583333333333,-4.237034638722737,-8.076788902282715,3.576814572016398,1.6887025517065833e+18,31.001583333333333,1.401783049106598,-4.067751715580623,1.6640477776527405,1.6887025517065833e+18,31.001583333333333,1.4008158047993975,-4.063068489233653,1.6663385033607483,,,,,,,,,,,,1.6887025517036572e+18,30.998657128906252,2.503439950942993,45.801239776611325,-21.80871963500977,1.6887025517036572e+18,30.998657128906252,-252.03735961914063,141.2662353515625,-155.02051696777343,1.6887025517065833e+18,31.001583333333333,0.5331006646156311,-0.8134384751319885,0.2051265835762023,0.1008182403941949,-2.390692234039306,0.9749596714973452,-0.9050645033518472
1.05,1.6887025517584865e+18,31.053486490885415,2.5643580754597983,10.704665501912435,-0.3634129762649536,1.6887025517498337e+18,31.044833496093748,-1.2143574754397075,1.2442677492896717,2.425923307736715,1.6887025517584865e+18,31.053486490885415,-3.519955317179362,-8.833521207173666,2.382082462310791,1.6887025517584865e+18,31.053486490885415,-0.6402377088864645,-5.789068063100179,4.034714063008626,1.6887025517584865e+18,31.053486490885415,-0.641204888621966,-5.784435590108235,4.037055651346843,,,,,,,,,,,,1.6887025517536584e+18,31.048658349609376,0.64416002035141,46.61619873046875,-19.93479995727539,1.6887025517536584e+18,31.048658349609376,-253.89663696289065,142.08119201660156,-153.14659729003907,1.6887025517584865e+18,31.053486490885415,-0.5710654258728027,0.7641764879226685,-0.2925843894481658,0.0445280193816869,-2.475022077560425,1.1216535568237305,-1.1608241001764934
1.1,1.6887025518103872e+18,31.105387207031253,0.1270254055658976,12.397077560424805,-0.5770464738210043,1.6887025518017434e+18,31.09674324544271,-1.840878188610077,3.20279312133789,1.6002001365025835,1.6887025518103872e+18,31.105387207031253,-2.451117753982544,-9.236799875895182,2.1943199634552,1.6887025518103872e+18,31.105387207031253,-1.5188145637512207,-5.365534941355388,3.6876407464345298,1.6887025518103872e+18,31.105387207031253,-1.519832730293274,-5.360851446787517,3.6899314721425376,,,,,,,,,,,,1.688702551803661e+18,31.098661083984375,-2.4399999141693116,45.2180793762207,-22.30891952514649,1.688702551803661e+18,31.098661083984375,-256.9807922363281,140.68307800292968,-155.52071533203124,1.6887025518103872e+18,31.105387207031253,-0.5956578652064005,0.6834426522254944,-0.3893724282582601,0.1557890201608339,-2.327907721201578,1.213881254196167,-1.6193394263585408
1.15,1.6887025518622917e+18,31.15729150390625,0.1226916114489238,9.509384473164875,-2.8652677138646445,1.688702551853647e+18,31.148647135416667,-2.0009979406992593,1.2847463289896648,0.1872383753458659,1.6887025518622917e+18,31.15729150390625,-1.4838722546895344,-9.401949882507324,2.3686817487080893,1.6887025518622917e+18,31.15729150390625,-1.07395201921463,-5.589773178100586,2.8478537797927856,1.6887025518622917e+18,31.15729150390625,-1.0749701261520386,-5.585140864054362,2.850144545237223,,,,,,,,,,,,1.688702551853659e+18,31.148659033203124,-3.852759885787964,42.70487823486328,-26.600879669189453,1.688702551853659e+18,31.148659033203124,-258.3935546875,138.1698760986328,-159.81268005371095,1.6887025518622917e+18,31.15729150390625,-0.5959697564442953,0.5838745832443237,-0.483340710401535,0.2615099151929219,-2.078298489252726,1.2541944980621338,-2.189512570699056
1.2,1.6887025519055503e+18,31.20055017089844,4.3715245723724365,7.595029354095459,-1.484961986541748,1.688702551905551e+18,31.20055118815104,2.579662243525187,-2.3399811585744223,0.4440679947535196,1.6887025519055503e+18,31.20055017089844,-1.4587253332138062,-9.493278503417969,1.9920654892921448,1.6887025519055503e+18,31.20055017089844,1.1436160802841189,-2.4068090319633484,-0.1990657150745392,1.6887025519055503e+18,31.20055017089844,1.1426998376846311,-2.4020748138427734,-0.1967749819159508,,,,,,,,,,,,1.6887025519036603e+18,31.198660302734375,-0.5807199865579605,42.30959930419922,-27.801359939575196,1.6887025519036603e+18,31.198660302734375,-255.12151794433595,137.77459716796875,-161.01315612792968,1.6887025519055503e+18,31.20055017089844,-0.5626217126846313,0.5487678349018097,-0.5254067778587341,0.3258433490991592,-2.156035542488098,1.2867714762687683,-2.2927913665771484
1.25,1.6887025519488028e+18,31.243802978515628,1.8679405848185224,-3.893245697021485,8.050781607627869,1.688702551957456e+18,31.252456054687503,-1.2267203330993652,-20.14198382695516,14.319448471069336,1.6887025519488028e+18,31.243802978515628,-1.8823608954747515,-9.44598642985026,1.8480512698491416,1.6887025519488028e+18,31.243802978515628,0.6364197668929895,5.663637081782023,-2.406045476595561,1.6887025519488028e+18,31.243802978515628,0.6354525809486707,5.668269395828247,-2.403703808784485,,,,,,,,,,,,1.6887025519536566e+18,31.248656689453128,0.2025200009346008,43.43199920654297,-26.0421199798584,1.6887025519536566e+18,31.248656689453128,-254.33827514648436,138.8969970703125,-159.25391540527343,1.6887025519488028e+18,31.243802978515628,-0.5662812987963358,0.595658560593923,-0.4908048013846079,0.2845724423726399,-2.2967728773752847,1.2745550870895386,-2.0215569337209067
1.3,1.6887025520007127e+18,31.295712565104168,-6.144296884536743,-28.24841086069743,19.78162972132365,1.6887025520093545e+18,31.30435465494792,-9.201599597930908,-32.2061964670817,19.181664148966473,1.6887025520007127e+18,31.295712565104168,-2.6868772506713867,-8.852546691894531,3.2033510208129883,1.6887025520007127e+18,31.295712565104168,-1.890933314959208,6.396369934082031,-4.305276552836101,1.6887025520007127e+18,31.295712565104168,-1.8919005393981936,6.401002248128255,-4.302985827128093,,,,,,,,,,,,1.6887025520036562e+18,31.298656201171877,-2.7059599637985228,42.54383926391601,-27.65495910644531,1.6887025520036562e+18,31.298656201171877,-257.24675903320315,138.008837890625,-160.86675415039062,1.6887025520007127e+18,31.295712565104168,-0.5972829063733419,0.6840486725171407,-0.4040797551472981,0.0959827291468779,-2.212838808695475,1.1137105623881025,-1.6723414262135825
1.35,1.6887025520526098e+18,31.34760986328125,0.7723165353139242,0.4980185826619466,-1.8277112642923992,1.6887025520612603e+18,31.35626033528646,-6.006782452265422,-3.5367911656697593,-0.116650104522705,1.6887025520526098e+18,31.34760986328125,-4.2202378908793134,-7.6974663734436035,4.332721869150798,1.6887025520526098e+18,31.34760986328125,-3.205158948898315,-2.4235568841298423,-2.972572088241577,1.6887025520526098e+18,31.34760986328125,-3.206075429916382,-2.4188228050867715,-2.9702813625335693,,,,,,,,,,,,1.6887025520536556e+18,31.34865556640625,3.4037999391555784,39.04975967407226,-32.33487892150879,1.6887025520536556e+18,31.34865556640625,-251.13699340820312,134.51475524902344,-165.5466766357422,1.6887025520526098e+18,31.34760986328125,-0.5390209754308065,0.7135317921638489,-0.4460594256718953,0.0089687868021428,-2.297548532485962,0.8917948206265768,-1.5413573185602825
1.4,1.6887025521045128e+18,31.399512776692703,47.74118296305338,-5.325691223144531,8.954857349395752,1.6887025521045176e+18,31.39951770019531,39.08167403936386,-14.450854301452637,13.928919792175291,1.6887025521045128e+18,31.399512776692703,-7.19088093439738,-6.225902080535889,1.6594294458627703,1.6887025521045128e+18,31.399512776692703,-3.661678949991862,-15.632194519042969,-0.114537239074707,1.6887025521045128e+18,31.399512776692703,-3.662595351537069,-15.627562204996744,-0.1121447881062825,,,,,,,,,,,,1.688702552103659e+18,31.398659082031248,27.215759086608887,30.585400009155272,-28.777359771728516,1.688702552103659e+18,31.398659082031248,-227.32503662109377,126.05039825439454,-161.9891571044922,1.6887025521045128e+18,31.399512776692703,-0.3143797516822814,0.6863030791282654,-0.6267232497533163,0.1431209370493888,-2.8817244370778403,0.6744232972462972,-1.570443073908488
1.45,1.6887025521564198e+18,31.451419759114582,10.502949714660645,-0.6169044176737467,0.4189629952112834,1.6887025521477704e+18,31.442770263671875,15.021143674850464,-9.23809003829956,3.3220353921254477,1.6887025521564198e+18,31.451419759114582,-6.328334808349609,-7.284437815348308,1.5259278217951455,1.6887025521564198e+18,31.451419759114582,-1.738318880399068,5.898056666056315,2.528422196706136,1.6887025521564198e+18,31.451419759114582,-1.7392351627349854,5.902739842732747,2.530763864517212,1.6887025521737196e+18,31.468719482421875,0.0,0.0,3.6273422241210938,7.197999954223633,1.484253168106079,29.439517974853516,43.400001525878906,-122.7524864,49.1876205,1.688702552153659e+18,31.44865888671875,31.16367874145508,31.89323844909668,-24.124279022216797,1.688702552153659e+18,31.44865888671875,-223.37711486816409,127.35823822021484,-157.33607482910156,1.6887025521564198e+18,31.451419759114582,-0.3482434650262196,0.6228368679682413,-0.661895215511322,0.2235995531082152,-2.8671160538991294,0.8188215494155884,-1.7535652716954548
1.5,1.6887025522083218e+18,31.50332194010417,-1.6574465433756511,1.9346501032511392,-3.214648405710856,1.6887025521996703e+18,31.494670247395835,-5.788437207539876,-6.058826446533203,0.6344968179861704,1.6887025522083218e+18,31.50332194010417,-4.604235013326009,-8.001893997192383,3.2676141262054443,1.6887025522083218e+18,31.50332194010417,0.2195042570432027,3.843055168787638,3.02205220858256,1.6887025522083218e+18,31.50332194010417,0.2185879548390706,3.847738345464071,3.0243937969207764,,,,,,,,,,,,1.6887025522036567e+18,31.4986568359375,16.779879760742187,34.428399658203126,-32.46419982910156,1.6887025522036567e+18,31.4986568359375,-237.76091613769532,129.89339904785157,-165.67599487304688,1.6887025522083218e+18,31.50332194010417,-0.4812188148498535,0.61031440893809,-0.6023014386494955,0.1791878193616866,-2.485199292500814,0.9333264827728271,-1.899359663327535
1.55,1.6887025522602258e+18,31.55522566731771,-3.5016008615493774,-10.23045825958252,-2.8798303604125977,1.6887025522515794e+18,31.546579264322915,-7.10010290145874,-15.337594032287598,-0.456032117207845,1.6887025522602258e+18,31.55522566731771,-2.6398412783940635,-8.840182940165201,3.2723774115244546,1.6887025522602258e+18,31.55522566731771,0.80995641152064,0.362853966653347,4.5060475667317705,1.6887025522602258e+18,31.55522566731771,0.8089892069498698,0.3674863477547963,4.508338292439778,,,,,,,,,,,,1.6887025522536545e+18,31.548654736328125,6.146359872817993,37.605279541015626,-32.852159118652345,1.6887025522536545e+18,31.548654736328125,-248.3944396972656,133.07027893066407,-166.06395568847657,1.6887025522602258e+18,31.55522566731771,-0.5606422026952108,0.5754608511924744,-0.5511937936147054,0.222599059343338,-2.2036379178365073,1.0989384253819785,-2.1337362925211587
1.6,1.688702552312134e+18,31.607134033203124,14.344522396723429,-24.565622965494793,9.13575267791748,1.6887025523034796e+18,31.598479492187504,7.700701221823692,-34.812777837117515,11.17129135131836,1.688702552312134e+18,31.607134033203124,-1.7256369590759275,-9.109010696411133,3.178434371948242,1.688702552312134e+18,31.607134033203124,1.6264796157677968,9.383195400238035,-5.07975169022878,1.688702552312134e+18,31.607134033203124,1.6254615485668182,9.387878576914469,-5.077410091956456,,,,,,,,,,,,1.6887025523036575e+18,31.598657666015622,-3.681959891319275,39.94035873413086,-30.948959732055663,1.6887025523036575e+18,31.598657666015622,-258.22276306152344,135.40535888671874,-164.16076049804687,1.688702552312134e+18,31.607134033203124,-0.6179895599683126,0.614482581615448,-0.4500882128874461,0.1708178942402203,-2.0179096857706704,1.1671104828516643,-2.056729237238566
1.65,1.688702552355385e+18,31.65038525390625,9.559700846672058,-5.620041847229004,5.633480548858643,1.6887025523553833e+18,31.650383138020832,3.6612181663513184,-14.00220012664795,8.61436096827189,1.688702552355385e+18,31.65038525390625,-3.669033408164978,-8.45288896560669,3.3415228128433228,1.688702552355385e+18,31.65038525390625,2.763707160949707,9.205586433410645,-8.925275564193726,1.688702552355385e+18,31.65038525390625,2.762714385986328,9.210320949554443,-8.922984838485718,,,,,,,,,,,,1.688702552353653e+18,31.64865297851562,-0.5441200196743011,43.97367935180664,-24.946560287475585,1.688702552353653e+18,31.64865297851562,-255.0849090576172,139.4386779785156,-158.15835266113282,1.688702552355385e+18,31.65038525390625,-0.0157326757907867,-0.0229603350162506,-0.032148465514183,0.0340928598307072,-2.343671202659607,1.0367980003356934,-1.2011789679527285
1.7,1.688702552398635e+18,31.693635009765625,-0.6710201104482015,4.285107612609863,0.9211498101552328,1.6887025524072911e+18,31.702291259765627,-4.107678810755412,-2.5740789771080017,3.4713874657948813,1.688702552398635e+18,31.693635009765625,-4.500929991404216,-8.231313705444336,2.835506518681844,1.688702552398635e+18,31.693635009765625,1.6279558738072712,-2.405180136362711,-0.1928297181924184,1.688702552398635e+18,31.693635009765625,1.626988669236501,-2.400598684946696,-0.1905389924844106,,,,,,,,,,,,1.6887025524036603e+18,31.698660400390622,4.965399932861328,46.511278533935545,-19.51511993408203,1.6887025524036603e+18,31.698660400390622,-249.5753967285156,141.9762756347656,-152.72691955566407,1.688702552398635e+18,31.693635009765625,0.5272467335065206,-0.8165978391965231,0.2290780246257781,0.0418217293918132,-2.528935194015503,1.002034068107605,-0.8894012371699015
1.75,1.6887025524505477e+18,31.745547363281247,3.261435031890869,10.594555536905924,0.7135365009307861,1.688702552459193e+18,31.75419327799479,-0.7824530005455017,2.549153685569763,2.072184403737386,1.6887025524505477e+18,31.745547363281247,-4.096593538920085,-8.766880671183268,1.572331468264262,1.6887025524505477e+18,31.745547363281247,-0.5116505383824309,-5.6618045171101885,2.9119946161905923,1.6887025524505477e+18,31.745547363281247,-0.5126177445054054,-5.657121181488037,2.9142853418986,,,,,,,,,,,,1.6887025524536563e+18,31.748656347656247,4.5896398544311525,47.33355865478516,-17.099519348144533,1.6887025524536563e+18,31.748656347656247,-249.9511535644531,142.79855651855468,-150.31131896972656,1.6887025524505477e+18,31.745547363281247,-0.537985603014628,0.7827595869700114,-0.2973230779170989,0.086625908811887,-2.712288618087769,1.1098326047261555,-0.994805634021759
1.8,1.688702552502444e+18,31.797444173177084,1.9501334428787231,12.306307156880695,0.5741943915685018,1.6887025525110958e+18,31.806095703125,-1.057029406229655,2.7942186196645102,1.799003839492798,1.688702552502444e+18,31.797444173177084,-3.100745677947998,-9.229379653930664,1.1551429430643718,1.688702552502444e+18,31.797444173177084,-1.3868677218755086,-5.46434227625529,3.1133765379587808,1.688702552502444e+18,31.797444173177084,-1.3877840439478557,-5.459760824839274,3.1156672636667886,,,,,,,,,,,,1.6887025525036564e+18,31.798656298828128,2.5717599391937256,46.735758209228514,-18.634280014038087,1.6887025525036564e+18,31.798656298828128,-251.96903381347656,142.2007568359375,-151.84607543945313,1.688702552502444e+18,31.797444173177084,-0.5516199668248495,0.7097030083338419,-0.3875016967455546,0.1995369046926498,-2.6998491287231445,1.2208281358083088,-1.3127244710922243
1.85,1.6887025525543493e+18,31.84934920247396,9.174455881118774,9.816917419433594,-0.5698172052701314,1.6887025525543532e+18,31.849353149414064,1.1910274624824524,1.5379867553710938,0.9873384237289428,1.6887025525543493e+18,31.84934920247396,-1.9378260771433513,-9.540390014648438,1.1689446767171223,1.6887025525543493e+18,31.84934920247396,-1.3436998923619587,-4.710992813110352,2.732196569442749,1.6887025525543493e+18,31.84934920247396,-1.344616214434306,-4.706360340118408,2.7344873746236167,,,,,,,,,,,,1.6887025525536586e+18,31.848658496093748,0.6270799815654755,45.61091918945313,-21.308520126342778,1.6887025525536586e+18,31.848658496093748,-253.91371154785156,141.07591552734374,-154.52031555175782,1.6887025525543493e+18,31.84934920247396,-0.553652266661326,0.6152486403783163,-0.469652106364568,0.3045330146948496,-2.503265301386515,1.31902011235555,-1.8082067171732583
1.9,1.688702552606256e+18,31.901256184895832,1.978219707806905,8.554802894592285,-0.7265613873799642,1.6887025525975995e+18,31.892599527994793,2.3443679412206015,-1.1914262970288594,0.3615156362454096,1.688702552606256e+18,31.901256184895832,-1.3346137603123982,-9.60469659169515,1.4822192986806233,1.688702552606256e+18,31.901256184895832,-0.5114469230175018,0.115860750277837,0.3386738772193591,1.688702552606256e+18,31.901256184895832,-0.5124141275882721,0.1205949832995732,0.3409646203120549,,,,,,,,,,,,1.6887025526036577e+18,31.8986578125,-0.0097599923610687,44.71299819946289,-23.789999389648436,1.6887025526036577e+18,31.8986578125,-254.55055541992184,140.17799682617186,-157.00179443359374,1.688702552606256e+18,31.901256184895832,-0.5619764924049377,0.56843634446462,-0.497811237970988,0.3364813824494679,-2.246970256169637,1.3418281078338623,-2.1662307580312095
1.95,1.6887025526581596e+18,31.953159586588544,-2.607617179552714,-10.900648434956867,13.03614075978597,1.688702552649511e+18,31.94451049804688,-2.8859435518582663,-13.225130955378214,10.219745794932049,1.6887025526581596e+18,31.953159586588544,-1.6568549474080403,-9.480261166890465,1.858905831972758,1.6887025526581596e+18,31.953159586588544,-0.4911356419324875,4.789489030838013,-2.8358909289042153,1.6887025526581596e+18,31.953159586588544,-0.4921028638879459,4.794223149617513,-2.833600183327993,,,,,,,,,,,,1.688702552653658e+18,31.948657958984377,-1.5615999341011046,44.229878997802736,-24.31703987121582,1.688702552653658e+18,31.948657958984377,-256.102392578125,139.69488220214845,-157.52883605957032,1.6887025526581596e+18,31.953159586588544,-0.5793489019076029,0.6017972628275553,-0.4720893700917561,0.2778763473033904,-2.2414983908335366,1.2925747235616047,-2.031307299931844
2.0,1.688702552710065e+18,32.00506477864584,-7.667894681294759,-22.07677396138509,15.979837973912558,1.688702552701414e+18,31.99641422526042,-11.959925969441732,-35.47818247477213,23.3403902053833,1.688702552710065e+18,32.00506477864584,-3.344536860783895,-8.590680440266928,3.2872950236002603,1.688702552710065e+18,32.00506477864584,-1.8884390195210776,4.368093689282735,-5.243056297302246,1.688702552710065e+18,32.00506477864584,-1.8893553415934248,4.372777064641316,-5.240765571594238,1.6887025526927631e+18,31.98776318359375,0.0,0.0,3.6273422241210938,7.256999969482422,1.563244342803955,28.34291076660156,43.400001525878906,-122.7524755,49.1876331,1.6887025527036585e+18,31.99865830078125,-0.236679995059967,42.78295974731445,-27.33775939941406,1.6887025527036585e+18,31.99865830078125,-254.77747802734376,138.24795837402343,-160.549560546875,1.688702552710065e+18,32.00506477864584,-0.566742459932963,0.692409098148346,-0.433233102162679,0.0972649591664473,-2.321664333343506,1.057144006093343,-1.6168648799260457
2.05,1.6887025527619686e+18,32.05696875,-1.5597866376241047,3.2088217735290527,-5.877706130345662,1.688702552753319e+18,32.04831868489583,-4.331806500752767,-6.99262531598409,1.5639090538024902,1.6887025527619686e+18,32.05696875,-4.738983631134033,-7.311558246612549,4.453901608784993,1.6887025527619686e+18,32.05696875,-4.110563039779663,-2.8208230255792537,-3.0023008584976196,1.6887025527619686e+18,32.05696875,-4.11147936185201,-2.8161905401696763,-2.9999592304229736,,,,,,,,,,,,1.6887025527536563e+18,32.04865620117188,5.621759843826294,37.888319396972655,-32.517879486083984,1.6887025527536563e+18,32.04865620117188,-248.9190368652344,133.3533172607422,-165.72967834472655,1.6887025527619686e+18,32.05696875,-0.1920917332172393,0.2408660451571146,-0.1321798861026764,0.0101729560022552,-2.3533174991607666,0.8307828903198242,-1.5486780802408855
2.1,1.6887025528052183e+18,32.10021826171875,44.757883071899414,-13.89711570739746,1.796218752861023,1.6887025528052224e+18,32.100222412109375,37.25824101765951,-16.285151958465576,2.937987377246221,1.6887025528052183e+18,32.10021826171875,-7.553244590759277,-5.571930408477783,2.743389129638672,1.6887025528052183e+18,32.10021826171875,-5.150739431381226,-15.387390613555908,-1.060767650604248,1.6887025528052183e+18,32.10021826171875,-5.151731967926025,-15.38265609741211,-1.0584769248962402,,,,,,,,,,,,1.6887025528036582e+18,32.098658251953125,29.01403942108154,26.783879470825195,-31.517480087280273,1.6887025528036582e+18,32.098658251953125,-225.5267547607422,122.248876953125,-164.72928161621093,1.6887025528052183e+18,32.10021826171875,-0.3225882947444916,0.6782652139663696,-0.6510432958602905,0.0874198712408542,-2.769420862197876,0.5890609920024872,-1.6429453492164612
2.15,1.688702552848471e+18,32.14347111002604,16.567187786102295,-4.846423625946044,-2.323700745900472,1.6887025528571272e+18,32.15212719726562,1.8775684038798015,-8.615756511688232,-0.5627121130625407,1.688702552848471e+18,32.14347111002604,-7.157675902048747,-6.252727508544922,2.401192863782247,1.688702552848471e+18,32.14347111002604,-1.1280644834041595,1.584635337193807,1.5929838220278425,1.688702552848471e+18,32.14347111002604,-1.1290826102097828,1.5893186529477437,1.59527454773585,,,,,,,,,,,,1.6887025528536604e+18,32.1486603515625,32.62035980224609,26.120199584960936,-29.18971977233887,1.6887025528536604e+18,32.1486603515625,-221.9204345703125,121.58519744873048,-162.40151672363282,1.688702552848471e+18,32.14347111002604,-0.3301140268643697,0.623637835184733,-0.6915782888730367,0.1529885778824488,-2.794245481491089,0.6730151772499084,-1.7969332933425903
2.2,1.6887025529003753e+18,32.195375,2.2433807849884033,3.1931864420572915,-4.119668245315552,1.68870255290903e+18,32.20402986653646,-4.211168527603149,-3.57906444867452,-1.2109676599502563,1.6887025529003753e+18,32.195375,-6.389408111572266,-6.75813627243042,3.103441079457601,1.6887025529003753e+18,32.195375,0.2485712459310888,1.4120150009791057,1.9426023562749224,1.6887025529003753e+18,32.195375,0.2476040427573024,1.4166474143664043,1.9448931217193604,,,,,,,,,,,,1.6887025529036575e+18,32.19865737304688,27.19135971069336,28.404039764404295,-32.16651954650879,1.6887025529036575e+18,32.19865737304688,-227.3494384765625,123.86903533935546,-165.3783172607422,1.6887025529003753e+18,32.195375,-0.3882062633832295,0.6155029932657877,-0.6696988145510355,0.147176702817281,-2.6636962890625,0.7411410411198934,-1.84424889087677
2.25,1.6887025529522862e+18,32.2472861328125,0.9589226245880128,-3.6517276763916016,-4.683668613433838,1.6887025529609326e+18,32.255932373046875,6.120042959849041,-17.031114896138508,0.5477570295333862,1.6887025529522862e+18,32.2472861328125,-5.106943925221761,-7.767064571380615,3.074021339416504,1.6887025529522862e+18,32.2472861328125,0.3231986264387766,-0.1006400510668754,4.3050728638966875,1.6887025529522862e+18,32.2472861328125,0.3222823242346446,-0.0959567502140998,4.307363589604695,,,,,,,,,,,,1.6887025529536604e+18,32.24866044921875,21.091359329223632,32.642320251464845,-32.417839431762694,1.6887025529536604e+18,32.24866044921875,-233.4494384765625,128.10731506347656,-165.6296356201172,1.6887025529522862e+18,32.2472861328125,-0.4435207843780517,0.5890323122342428,-0.6446089943250021,0.1992781261603037,-2.5680794715881348,0.8945111234982809,-1.943743348121643
2.3,1.6887025530041876e+18,32.299187744140625,12.268311818440756,-27.982345581054688,12.700010617574057,1.688702553004183e+18,32.29918298339844,5.12064054608345,-36.99542999267578,16.285550594329834,1.6887025530041876e+18,32.299187744140625,-2.9174233277638755,-8.735361735026041,3.3080973625183105,1.6887025530041876e+18,32.299187744140625,3.1422908306121826,12.774006843566896,0.0460694233576458,1.6887025530041876e+18,32.299187744140625,3.141323645909627,12.778639475504557,0.0483601540327072,,,,,,,,,,,,1.6887025530036603e+18,32.298660546875,5.507080060243607,38.41047821044922,-31.649239349365235,1.6887025530036603e+18,32.298660546875,-249.0337127685547,133.87547607421874,-164.8610412597656,1.6887025530041876e+18,32.299187744140625,-0.5651640693346659,0.6194206277529398,-0.5074232618014017,0.1673919906218846,-2.244954983393351,1.0785386562347412,-1.9331996043523152
2.35,1.6887025530560922e+18,32.35109228515625,2.872600793838501,-10.137107849121094,4.361124515533447,1.6887025530474414e+18,32.34244156901042,-0.2825524806976318,-23.644677480061848,10.763713677724205,1.6887025530560922e+18,32.35109228515625,-3.3029731909434,-8.576204299926758,3.3805785179138184,1.6887025530560922e+18,32.35109228515625,2.5944974422454834,5.402695735295613,-6.277607520421346,1.6887025530560922e+18,32.35109228515625,2.59347931543986,5.407378991444905,-6.275316794713338,,,,,,,,,,,,1.6887025530536635e+18,32.34866381835938,-2.152079999446869,43.30999908447266,-25.961599349975582,1.6887025530536635e+18,32.34866381835938,-256.69287109375,138.77499694824218,-159.17340087890625,1.6887025530560922e+18,32.35109228515625,0.1727853218714396,-0.2779711286226908,0.0769424935181935,0.0239634485915303,-2.2852463722229004,1.0586973428726196,-1.3051730791727705
2.4,1.6887025531079887e+18,32.40298893229166,-1.8112295468648272,4.218628565470378,2.0495476722717285,1.6887025530993467e+18,32.39434643554687,-5.8544392585754395,-5.888736724853516,4.463212410608928,1.6887025531079887e+18,32.40298893229166,-3.904489596684774,-8.665532747904459,2.390658179918925,1.6887025531079887e+18,32.40298893229166,1.5168802241484325,-3.3814446131388345,1.486184279123942,1.6887025531079887e+18,32.40298893229166,1.5159130195776622,-3.3767612179120383,1.4884750147660573,,,,,,,,,,,,1.6887025531036626e+18,32.39866245117187,2.9328799724578856,46.286799621582034,-19.87868003845215,1.6887025531036626e+18,32.39866245117187,-251.6079132080078,141.75180053710938,-153.0904754638672,1.6887025531079887e+18,32.40298893229166,-0.1872050762176513,0.2590900858243306,-0.0931249459584554,0.030556896701455,-2.538980404535929,1.0857482353846233,-1.0051004886627195
2.45,1.6887025531599002e+18,32.45490014648437,0.3605125745137532,11.27240022023519,1.5564932425816853,1.6887025531512463e+18,32.446246419270835,-2.7006991704305015,1.509272923072179,3.448655605316162,1.6887025531599002e+18,32.45490014648437,-2.993279059727987,-9.199859937032064,1.5794250170389812,1.6887025531599002e+18,32.45490014648437,-0.9253081480662028,-5.245041847229004,3.658421039581299,1.6887025531599002e+18,32.45490014648437,-0.9262753327687582,-5.240307331085205,3.660762627919515,,,,,,,,,,,,1.6887025531536584e+18,32.44865830078125,0.929639957845211,46.88215866088867,-18.248759460449214,1.6887025531536584e+18,32.44865830078125,-253.61115417480468,142.34715576171874,-151.46055603027344,1.6887025531599002e+18,32.45490014648437,-0.5771629412968954,0.7332248091697693,-0.330253005027771,0.1346164569258689,-2.5773534774780273,1.2137851317723591,-1.2458062966664631
2.5,1.6887025532118044e+18,32.506804524739586,-0.2237787842750549,12.190376917521158,1.2904836336771648,1.6887025532031542e+18,32.49815437825521,-2.05603289604187,2.7072794437408447,3.030111074447632,1.6887025532118044e+18,32.506804524739586,-1.2737927834192913,-9.562501907348633,1.6751454671223958,1.6887025532118044e+18,32.506804524739586,-1.1128946542739868,-4.652909596761067,5.089169184366862,1.6887025532118044e+18,32.506804524739586,-1.1139128009478252,-4.648226340611775,5.09145991007487,1.6887025532118047e+18,32.5068046875,0.0,0.0,3.6370081901550297,7.314000129699707,1.6254795789718628,26.939428329467773,43.400001525878906,-122.7524682,49.1876435,1.6887025532036603e+18,32.49866030273437,-3.760039949417114,45.81831970214843,-21.05719985961914,1.6887025532036603e+18,32.49866030273437,-258.30084228515625,141.28331604003907,-154.2689971923828,1.6887025532118044e+18,32.506804524739586,-0.6119898557662964,0.627760112285614,-0.4104836781819661,0.2458375096321105,-2.1254263321558633,1.3280152877171834,-1.98982830842336
2.55,1.6887025532550625e+18,32.55006225585937,-0.0262540578842163,11.39562177658081,-0.9793834686279296,1.6887025532550582e+18,32.55005810546875,0.0081754922866822,1.5902300874392192,1.0029914776484172,1.6887025532550625e+18,32.55006225585937,0.5552038922905922,-9.615504264831545,1.8343435525894165,1.6887025532550625e+18,32.55006225585937,0.0711658075451851,-1.2740358039736748,4.208174228668213,1.6887025532550625e+18,32.55006225585937,0.0701731443405151,-1.26937797665596,4.210541367530823,,,,,,,,,,,,1.688702553253659e+18,32.5486587890625,-11.019039916992188,43.5247184753418,-23.582599639892575,1.688702553253659e+18,32.5486587890625,-265.55983276367186,138.98971557617188,-156.79440002441407,1.6887025532550625e+18,32.55006225585937,-0.6505219340324402,0.5382014513015747,-0.4282347708940505,0.3216631859540939,-1.3265488147735596,1.3488773703575134,-2.940627694129944
2.6,1.6887025532983084e+18,32.593308512369795,-1.7636765638987224,8.932680130004883,-0.8692829608917236,1.688702553306959e+18,32.60195939127604,0.2975076039632161,-0.783051202694575,1.1790633549292882,1.6887025532983084e+18,32.593308512369795,1.1887375513712566,-9.621058464050291,1.4919398228327434,1.6887025532983084e+18,32.593308512369795,1.2776246666908264,-0.9695958668986956,0.2428189416726431,1.6887025532983084e+18,32.593308512369795,1.2767083644866943,-0.9648616525034108,0.2451096723477045,,,,,,,,,,,,1.6887025533036626e+18,32.5986625,-15.740439987182617,43.0147590637207,-22.76519927978516,1.6887025533036626e+18,32.5986625,-270.28123168945314,138.4797576904297,-155.97699584960938,1.6887025532983084e+18,32.593308512369795,-0.6578239798545837,0.5193772912025452,-0.414179782072703,0.3546617031097412,-0.9830609560012816,1.357160210609436,2.967555602391561
2.65,1.6887025533502154e+18,32.645215169270834,1.6665772199630735,8.180530230204264,2.944850285847982,1.688702553358863e+18,32.65386319986979,1.49750816822052,-3.2624143163363137,5.548556804656982,1.6887025533502154e+18,32.645215169270834,0.1385447035233179,-9.76482105255127,0.7625536521275839,1.6887025533502154e+18,32.645215169270834,1.5066481828689575,0.9601783752441406,-3.5321755409240723,1.6887025533502154e+18,32.645215169270834,1.505630115667979,0.9648106892903646,-3.5298847357432046,,,,,,,,,,,,1.6887025533536584e+18,32.64865830078125,-10.367559814453124,45.559679412841795,-19.656639862060548,1.6887025533536584e+18,32.64865830078125,-264.908349609375,141.02467651367186,-152.86843566894532,1.6887025533502154e+18,32.645215169270834,-0.6098770101865133,0.5653360287348429,-0.4185833732287089,0.3636779189109802,-1.5526344776153564,1.4584156672159831,-0.6691492398579916
2.7,1.6887025534021169e+18,32.69711653645833,-6.655998190244039,-27.614986101786297,25.2180913289388,1.688702553410774e+18,32.70577400716146,-11.669995466868082,-40.91666920979818,28.62114969889323,1.6887025534021169e+18,32.69711653645833,-2.6106695334116616,-9.042899131774904,2.4045779705047607,1.6887025534021169e+18,32.69711653645833,-4.73471474647522,6.833851337432861,-7.499490737915039,1.6887025534021169e+18,32.69711653645833,-4.735732873280843,6.838483651479085,-7.497200012207031,,,,,,,,,,,,1.688702553403663e+18,32.6986630859375,-0.429440027475357,43.81019821166992,-25.368679809570313,1.688702553403663e+18,32.6986630859375,-254.9702362060547,139.2751953125,-158.58047790527343,1.6887025534021169e+18,32.69711653645833,-0.5756312608718872,0.6710384686787924,-0.426284243663152,0.1707304120063781,-2.3793818950653076,1.181648850440979,-1.6540066003799438
2.75,1.688702553454025e+18,32.74902506510417,-4.634397665659587,-10.301952679951986,2.7524642944335938,1.6887025534626744e+18,32.757674560546874,-6.601598262786865,-13.631112734476725,4.188635905583699,1.688702553454025e+18,32.74902506510417,-4.07972772916158,-7.872575441996257,4.185449600219727,1.688702553454025e+18,32.74902506510417,-2.1601722240448,-0.4683809081713359,-1.5213598882158597,1.688702553454025e+18,32.74902506510417,-2.16113942861557,-0.463646650314331,-1.5189673081040382,,,,,,,,,,,,1.6887025534536604e+18,32.74866040039062,5.036159992218018,39.035118865966794,-31.968880081176756,1.6887025534536604e+18,32.74866040039062,-249.5046356201172,134.50011291503907,-165.18067932128906,1.688702553454025e+18,32.74902506510417,-0.5422276854515076,0.712712566057841,-0.4438085953394572,0.0249993006388346,-2.315467357635498,0.919736365477244,-1.5412944952646892
2.8,1.6887025535059182e+18,32.80091821289062,28.098377227783203,-6.609953721364339,-4.42720643679301,1.6887025535059282e+18,32.80092822265625,59.11139488220215,-17.090735912322998,-2.5118655264377594,1.6887025535059182e+18,32.80091821289062,-6.225650310516357,-6.135459264119466,4.239693244298299,1.6887025535059182e+18,32.80091821289062,-5.955172538757324,-7.418449401855469,-3.2013411919275927,1.6887025535059182e+18,32.80091821289062,-5.956190745035808,-7.413766145706177,-3.198999563852946,,,,,,,,,,,,1.688702553503657e+18,32.79865688476563,19.96163969039917,29.03111915588379,-35.331198120117186,1.688702553503657e+18,32.79865688476563,-234.57915649414065,124.4961166381836,-168.54299621582032,1.6887025535059182e+18,32.80091821289062,-0.4214367767175038,0.6667744119962057,-0.606590469678243,0.0403801084806521,-2.5135571161905923,0.6652438243230184,-1.7046291828155518
2.85,1.688702553557831e+18,32.85283113606771,0.4233193397521972,-6.657325426737468,-5.499255657196045,1.688702553549182e+18,32.84418180338542,2.011167526245116,-15.64666748046875,0.7934200962384542,1.688702553557831e+18,32.85283113606771,-5.696366310119629,-5.734747409820557,5.5266977945963545,1.688702553557831e+18,32.85283113606771,0.0211257537206014,4.216191967328389,2.5071945190429688,1.688702553557831e+18,32.85283113606771,0.0202094515164693,4.220875263214111,2.5095362663269043,,,,,,,,,,,,1.6887025535536625e+18,32.84866240234375,19.986039543151858,22.787159729003907,-40.7260383605957,1.6887025535536625e+18,32.84866240234375,-234.55475463867188,118.25215911865234,-173.93783569335938,1.688702553557831e+18,32.85283113606771,-0.1505833268165588,0.2071431676546732,-0.2126591006914774,0.0056780835924049,-2.3540151119232178,0.6073981523513794,-1.8527369101842244
2.9,1.6887025536097377e+18,32.904737386067715,-0.4909876187642414,4.03299347559611,-7.240937391916911,1.6887025536010765e+18,32.89607649739583,-4.965505917867024,-3.692923069000244,-1.5451651811599731,1.6887025536097377e+18,32.904737386067715,-4.290533542633057,-6.944901943206787,5.418328921000163,1.6887025536097377e+18,32.904737386067715,1.4440345366795857,-0.4069889684518178,3.652617851893107,1.6887025536097377e+18,32.904737386067715,1.4430673122406006,-0.4023056825002034,3.654908577601115,,,,,,,,,,,,1.6887025536036593e+18,32.89865947265625,11.680279731750488,27.20843925476074,-40.835839080810544,1.6887025536036593e+18,32.89865947265625,-242.8605163574219,122.6734390258789,-174.04763793945312,1.6887025536097377e+18,32.904737386067715,-0.5276304284731547,0.5955179731051127,-0.6026520133018494,0.0546168635288873,-2.221946636835734,0.7679606477419535,-1.9783475001653037
2.95,1.6887025536616312e+18,32.95663102213542,2.4533796310424805,1.7081906000773113,-8.527894655863443,1.6887025536529907e+18,32.947990559895835,-2.1750757694244385,-4.952345212300618,-3.851646820704142,1.6887025536616312e+18,32.95663102213542,-3.367301861445109,-8.087099552154541,4.387438774108887,1.6887025536616312e+18,32.95663102213542,1.7949766715367634,-1.5064955055713654,3.275357643763224,1.6887025536616312e+18,32.95663102213542,1.7940093676249187,-1.5018631021181743,3.2776993115743003,,,,,,,,,,,,1.6887025536536576e+18,32.94865766601562,8.478999710083007,32.19579887390137,-37.70287933349609,1.6887025536536576e+18,32.94865766601562,-246.06179504394532,127.66079864501953,-170.9146759033203,1.6887025536616312e+18,32.95663102213542,-0.5495061675707499,0.5689542094866434,-0.5904057423273722,0.1578477472066878,-2.203499714533488,0.9480942487716676,-2.1171120007832847
3.0,1.6887025537048934e+18,32.999893310546874,10.68427324295044,-12.570273399353026,-4.190291166305542,1.6887025537048932e+18,32.99989306640625,7.362316211064656,-22.259232838948567,0.0881355802218119,1.6887025537048934e+18,32.999893310546874,-2.490514755249023,-8.79927110671997,3.54405415058136,1.6887025537048934e+18,32.999893310546874,3.095254182815552,4.451451420783997,0.0745255947113036,1.6887025537048934e+18,32.999893310546874,3.0942615270614624,4.456185579299927,0.0768926739692688,,,,,,,,,,,,1.6887025537036575e+18,32.998657373046875,3.799079844355583,37.24171981811523,-33.59635925292969,1.6887025537036575e+18,32.998657373046875,-250.7417175292969,132.70671997070312,-166.80816040039062,1.6887025537048934e+18,32.999893310546874,-0.5770857334136963,0.5831051468849182,-0.5353893935680389,0.1987944915890693,-2.1536725759506226,1.089995503425598,-2.11646044254303
3.05,1.688702553748147e+18,33.04314697265625,0.0754960378011067,-31.597984313964844,10.11861515045166,1.6887025537568038e+18,33.0518037109375,-3.648057540257772,-37.92264938354492,14.592828432718912,1.688702553748147e+18,33.04314697265625,-2.417733907699585,-8.71772829691569,3.77244242032369,1.688702553748147e+18,33.04314697265625,1.7656041781107583,11.712628364562988,-6.829931577046712,1.688702553748147e+18,33.04314697265625,1.764637033144633,11.71726099650065,-6.827640851338704,1.6887025537308457e+18,33.025845703125,0.0,0.0,3.6370081901550297,7.426000118255615,1.6976042985916138,25.849271774291992,43.400001525878906,-122.7524548,49.1876615,1.688702553753661e+18,33.048660546875,-4.992239952087402,41.47755889892578,-28.701719665527342,1.688702553753661e+18,33.048660546875,-259.5330322265625,136.94255676269532,-161.91351623535155,1.688702553748147e+18,33.04314697265625,-0.2123860120773315,0.1960829496383667,-0.1713921725749969,0.0684502360721428,-2.0927125612894693,1.0812126795450847,-1.6534751256306963
3.1,1.688702553800054e+18,33.09505428059896,14.170544147491457,0.0665934880574545,3.5090112686157227,1.6887025538087012e+18,33.10370109049479,12.56391441822052,-4.756333192189534,7.366304715474446,1.688702553800054e+18,33.09505428059896,-4.74966557820638,-7.517088413238525,4.123419443766276,1.688702553800054e+18,33.09505428059896,1.0758355259895325,2.250834862391154,-5.771404047807057,1.688702553800054e+18,33.09505428059896,1.0748173991839092,2.2555180390675864,-5.769113302230835,,,,,,,,,,,,1.6887025538036585e+18,33.0986583984375,5.89991998821497,43.57107925415039,-25.110039520263673,1.6887025538036585e+18,33.0986583984375,-248.64087524414063,139.03607482910155,-158.32183837890625,1.688702553800054e+18,33.09505428059896,0.5012824634710947,-0.8227313955624899,0.235250562429428,0.1215843980511029,-2.3869415124257407,0.8769067525863647,-0.925455629825592
3.15,1.688702553851955e+18,33.14695491536458,2.53627077738444,8.334160804748535,-1.1974351008733113,1.6887025538606031e+18,33.15560335286458,-1.311266799767812,1.3527424136797588,1.7330017884572346,1.688702553851955e+18,33.14695491536458,-4.7395256360371905,-7.954941590627034,3.1997536023457847,1.688702553851955e+18,33.14695491536458,0.0180714152132471,-5.846489588419597,4.012112140655518,1.688702553851955e+18,33.14695491536458,0.017053309828043,-5.841755231221517,4.014402866363525,,,,,,,,,,,,1.6887025538536566e+18,33.1486564453125,7.9373198509216305,44.634918975830075,-22.874999618530275,1.6887025538536566e+18,33.1486564453125,-246.6034729003906,140.09991760253905,-156.0867950439453,1.688702553851955e+18,33.14695491536458,0.1600119968255361,-0.2832664450009663,0.0691247781117757,0.0475407166716952,-2.506308396657308,0.9492439031600952,-0.970219075679779
3.2,1.688702553903859e+18,33.19885904947916,2.2916261355082193,12.625439325968424,-1.071947455406189,1.6887025539125102e+18,33.20751017252604,-1.6642081638177235,4.044667800267537,1.3892329931259155,1.688702553903859e+18,33.19885904947916,-3.636655251185099,-8.793575922648111,2.351234753926595,1.688702553903859e+18,33.19885904947916,-1.2268210450808208,-5.621741771697998,4.4009785652160645,1.688702553903859e+18,33.19885904947916,-1.227788249651591,-5.6170585950215655,4.403269290924072,,,,,,,,,,,,1.6887025539036603e+18,33.198660546875,3.799079990386963,45.22295989990234,-21.97219924926758,1.6887025539036603e+18,33.198660546875,-250.74171447753903,140.68796081542968,-155.18399353027343,1.688702553903859e+18,33.19885904947916,-0.5560057361920675,0.7407548030217489,-0.361378808816274,0.0948809745411077,-2.5097385247548423,1.106855869293213,-1.308101216952006
3.25,1.68870255395576e+18,33.25076000976563,2.2171401580174765,11.461480458577476,-1.0882974863052368,1.6887025539557637e+18,33.25076391601563,-0.0927218794822692,2.226222336292267,1.266401380300522,1.68870255395576e+18,33.25076000976563,-2.4682505130767822,-9.228820482889812,2.208063284556071,1.68870255395576e+18,33.25076000976563,-1.563611388206482,-5.662822564442952,3.7206273873647056,1.68870255395576e+18,33.25076000976563,-1.564578612645467,-5.658139228820801,3.722969055175781,,,,,,,,,,,,1.6887025539536584e+18,33.24865830078125,1.198039960861206,44.015158081054686,-24.568359756469725,1.6887025539536584e+18,33.24865830078125,-253.3427551269531,139.48015441894532,-157.78016052246093,1.68870255395576e+18,33.25076000976563,-0.5719288190205892,0.6423186262448629,-0.4596262872219085,0.2161724865436553,-2.3543875217437744,1.208411455154419,-1.802772045135498
