seconds_elapsed_rounded,accelerometer_time,accelerometer_seconds_elapsed,accelerometer_z,accelerometer_y,accelerometer_x,accelerometeruncalibrated_time,accelerometeruncalibrated_seconds_elapsed,accelerometeruncalibrated_z,accelerometeruncalibrated_y,accelerometeruncalibrated_x,gravity_time,gravity_seconds_elapsed,gravity_z,gravity_y,gravity_x,gyroscope_time,gyroscope_seconds_elapsed,gyroscope_z,gyroscope_y,gyroscope_x,gyroscopeuncalibrated_time,gyroscopeuncalibrated_seconds_elapsed,gyroscopeuncalibrated_z,gyroscopeuncalibrated_y,gyroscopeuncalibrated_x,location_time,location_seconds_elapsed,location_bearingAccuracy,location_speedAccuracy,location_verticalAccuracy,location_horizontalAccuracy,location_speed,location_bearing,location_altitude,location_longitude,location_latitude,magnetometer_time,magnetometer_seconds_elapsed,magnetometer_z,magnetometer_y,magnetometer_x,magnetometeruncalibrated_time,magnetometeruncalibrated_seconds_elapsed,magnetometeruncalibrated_z,magnetometeruncalibrated_y,magnetometeruncalibrated_x,orientation_time,orientation_seconds_elapsed,orientation_qz,orientation_qy,orientation_qx,orientation_qw,orientation_roll,orientation_pitch,orientation_yaw,totalacceleration_time,totalacceleration_seconds_elapsed,totalacceleration_z,totalacceleration_y,totalacceleration_x
-0.7000000000000001,,,,,,,,,,,,,,,,,,,,,,,,,,1.6887025199983634e+18,-0.70663671875,0.0,0.4066811800003052,10.988654136657717,43.13249969482422,0.5772318243980408,68.69818115234375,43.400001525878906,-122.75355795,49.18767135,,,,,,,,,,,,,,,,,,,,,,,,
0.1,1.6887025208407854e+18,0.1357852783203125,-2.9408035278320312,-1.0249709486961365,-0.8081974983215332,1.688702520823487e+18,0.1184869384765625,6.592525482177734,2.0892332792282104,-2.185394823551178,1.6887025208407854e+18,0.1357852783203125,9.064172744750977,3.0123666524887085,-2.2302639484405518,1.6887025208061898e+18,0.10118974609375,0.9375865161418915,2.4407426595687864,-2.0794464111328126,1.6887025208148408e+18,0.10984075927734376,0.8003098294138908,2.4196754693984985,-2.1826597154140472,,,,,,,,,,,,1.6887025208186557e+18,0.11365585327148438,-49.5640230178833,-19.070124745368958,6.917399913072586,1.6887025208186557e+18,0.11365585327148438,-304.10482025146484,76.39487361907959,-126.2943983078003,1.6887025208407854e+18,0.1357852783203125,-0.8745720386505127,-0.08253906294703481,0.1766725480556488,0.4438525289297104,0.24985653162002558,-0.30601620674133295,2.2409720420837402,1.6887025208148383e+18,0.10983837890624999,6.9204020500183105,2.386720967292786,-2.2850259065628054
0.2,1.6887025209099978e+18,0.20499763997395834,-3.8733061949412027,-1.0756024718284607,-0.3902814785639445,1.6887025209099978e+18,0.20499763997395834,4.927419940630595,2.2978076338768005,-2.99711004892985,1.6887025209099978e+18,0.20499763997395834,8.794880072275797,3.3909145991007485,-2.6695159673690796,1.6887025209013445e+18,0.19634444173177082,0.4029165382186572,0.608396320293347,1.1035535062352817,1.6887025209013445e+18,0.19634444173177082,0.40194933364788693,0.6130541873474916,1.1058951889475186,,,,,,,,,,,,1.6887025209086566e+18,0.2036566650390625,-49.4539192199707,-17.50699987411499,12.081659889221191,1.6887025209086566e+18,0.2036566650390625,-303.9947174072266,77.95799713134765,-121.13013763427735,1.6887025209099978e+18,0.20499763997395834,-0.8622037569681803,-0.08769893770416574,0.20892675469319022,0.4522990882396698,0.3037463277578354,-0.3474111358324687,2.2293172677357993,1.6887025209099978e+18,0.20499763997395834,4.921438018480937,2.315155605475108,-3.059921622276306
0.30000000000000004,1.688702521005154e+18,0.300154150390625,-2.041128635406494,-0.0038870811462401456,-2.124522399902344,1.688702521005154e+18,0.300154150390625,6.508716869354248,4.142813491821289,-4.443830442428589,1.688702521005154e+18,0.300154150390625,8.543999481201173,4.164205169677734,-2.381995439529419,1.6887025210051553e+18,0.30015519205729163,0.8677849868933359,-0.3669263819853465,-1.1794280409812927,1.6887025210051553e+18,0.30015519205729163,0.8668432136376699,-0.3622431010007858,-1.1771118591229122,,,,,,,,,,,,1.688702521008656e+18,0.30365568847656255,-48.95005912780762,-21.70867919921875,10.474919700622559,1.688702521008656e+18,0.30365568847656255,-303.49085693359376,73.75631866455078,-122.73687744140625,1.688702521005154e+18,0.300154150390625,-0.8398303389549255,-0.12411639392375942,0.2205526083707809,0.47949092984199526,0.2819577157497406,-0.4332423686981201,2.1672724723815917,1.688702521005154e+18,0.300154150390625,6.502734756469726,4.160161352157592,-4.506642198562622
0.4,1.6887025211003108e+18,0.3953107503255208,-1.466172218322754,-4.36453906695048,1.220276087522507,1.6887025211003108e+18,0.3953107503255208,8.037291844685873,-2.901197701692581,-0.31066813816626865,1.6887025211003108e+18,0.3953107503255208,9.497618039449057,1.4808459096432973,-1.593631664911906,1.6887025211089664e+18,0.40396634928385416,-1.0474048107862473,-0.8957066188255945,-3.4218125343322754,1.6887025211089664e+18,0.40396634928385416,-1.0483974764744441,-0.8910487790902456,-3.4194963375727334,,,,,,,,,,,,1.6887025211086595e+18,0.40365932617187494,-53.16515884399414,-6.394019880890847,5.960919952392578,1.6887025211086595e+18,0.40365932617187494,-307.70595092773436,89.07097854614258,-127.25087509155273,1.6887025211003108e+18,0.3953107503255208,-0.8539608915646871,-0.0193325876413534,0.11254976379374658,0.5042139738798141,0.17599779367446897,-0.14768395262459913,2.0896716912587485,1.6887025211003108e+18,0.3953107503255208,8.031309843063354,-2.8838498294353485,-0.3734797388315201
0.5,1.6887025212041219e+18,0.49912178548177083,0.17007923126220703,-4.532019337018331,-4.408360918362935,1.6887025212041219e+18,0.49912178548177083,9.760024388631185,-6.0147585074106855,-5.646562933921814,1.6887025212041219e+18,0.49912178548177083,9.584099133809408,-1.4652344981829326,-1.3008894125620525,1.688702521204122e+18,0.49912226562500006,-1.9968268871307373,0.7136433241888881,-2.209621810913086,1.688702521204122e+18,0.49912226562500006,-1.9977431297302246,0.7183775279670954,-2.207331085205078,,,,,,,,,,,,1.6887025212086602e+18,0.5036601074218751,-53.01631889343262,7.801899838447571,4.679919910430908,1.6887025212086602e+18,0.5036601074218751,-307.55711059570314,103.26689758300782,-128.53187637329103,1.6887025212041219e+18,0.49912178548177083,-0.8951924939950308,0.10144043589631713,0.03083155211061235,0.43049673239390057,0.14343226701021194,0.1564097578326861,2.233365615208944,1.6887025212041219e+18,0.49912178548177083,9.754042307535807,-5.997410575548808,-5.70937450726827
0.6000000000000001,1.6887025213079288e+18,0.602928955078125,-1.1227741241455078,-2.3872366746266684,-8.470925569534302,1.6887025213079288e+18,0.602928955078125,7.65374231338501,-6.285346945126851,-10.327920913696289,1.6887025213079288e+18,0.602928955078125,8.770670413970947,-3.880605618158976,-1.919683039188385,1.6887025212992832e+18,0.5942831217447917,-2.1227312485376992,1.1944960802793503,-2.1223494609196982,1.6887025212992832e+18,0.5942831217447917,-2.1236730416615806,1.1991539349158604,-2.1200587352116904,,,,,,,,,,,,1.6887025213086564e+18,0.603656494140625,-49.061079025268555,19.029559230804445,8.121539831161499,1.6887025213086564e+18,0.603656494140625,-303.60187072753905,114.49455871582032,-125.09025726318359,1.6887025213079288e+18,0.602928955078125,-0.9154631892840067,0.2303027932842572,0.029647866263985582,0.3251559436321258,0.22341823826233542,0.4153767426808675,2.411794106165568,1.6887025213079288e+18,0.602928955078125,7.647760311762492,-6.267998854319255,-10.390732526779175
0.7000000000000001,1.6887025214117396e+18,0.7067396647135417,0.8277537822723389,1.698801596959432,-7.571492354075114,1.6887025214117396e+18,0.7067396647135417,8.09272567431132,-4.1706899007161455,-10.4019988377889,1.6887025214117396e+18,0.7067396647135417,7.259125868479411,-5.85198696454366,-2.8931944767634072,1.6887025214030902e+18,0.6980902506510417,-0.1571196379760901,2.5568273663520817,-1.9575940171877544,1.6887025214030902e+18,0.6980902506510417,-0.15808683882157007,2.5614852209885917,-1.9552523692448933,,,,,,,,,,,,1.6887025214086564e+18,0.703656396484375,-41.71545944213867,28.973779296875,12.226839637756347,1.6887025214086564e+18,0.703656396484375,-296.2562561035156,124.43877792358398,-120.98495712280274,1.6887025214117396e+18,0.7067396647135417,-0.8936382333437601,0.3560110032558441,0.06496075664957361,0.2600867922107379,0.3915839393933614,0.6477324465910593,2.4392213026682534,1.6887025214117396e+18,0.7067396647135417,8.086743434270224,-4.153341929117839,-10.464810530344645
0.8,1.6887025215068925e+18,0.8018924804687501,3.527069854736328,4.5638199806213375,-1.3664979934692383,1.6887025215068925e+18,0.8018924804687501,9.054201602935791,-1.9018154487013816,-6.187480449676514,1.6887025215068925e+18,0.8018924804687501,5.521285724639893,-6.448130989074707,-4.883669853210449,1.688702521506898e+18,0.8018978271484375,0.34608061114947003,2.875495433807373,-0.23411410053571066,1.688702521506898e+18,0.8018978271484375,0.3450879553953807,2.8801787296930947,-0.23179790874322256,,,,,,,,,,,,1.688702521508657e+18,0.80365693359375,-32.340979385375974,32.893639373779294,23.36299934387207,1.688702521508657e+18,0.80365693359375,-286.88177490234375,128.35863647460937,-109.84879608154297,1.6887025215068925e+18,0.8018924804687501,-0.8519251942634583,0.43580960035324096,0.17821526825428005,0.22636704146862022,0.7338374972343444,0.7241501092910767,2.333086538314819,1.6887025215068925e+18,0.8018924804687501,9.048219585418702,-1.8844674862921238,-6.250292015075684
0.9,1.6887025216020552e+18,0.8970551757812499,-0.5369803508122762,1.901973009109497,-1.3168067932128906,1.6887025216020552e+18,0.8970551757812499,4.171985983848572,-3.918845216433207,-7.590332428614299,1.6887025216020552e+18,0.8970551757812499,4.703120311101277,-5.803313652674357,-6.336213270823161,1.688702521610703e+18,0.905703125,1.1384746581315994,1.369890809059143,0.9263262450695038,1.688702521610703e+18,0.905703125,1.1375074336926143,1.3745485941569011,0.928616980711619,,,,,,,,,,,,1.6887025216086577e+18,0.9036575927734376,-27.66349925994873,29.056739616394044,32.358059310913085,1.6887025216086577e+18,0.9036575927734376,-282.20429077148435,124.52173767089843,-100.8537384033203,1.6887025216020552e+18,0.8970551757812499,-0.8357080618540446,0.4241020331780115,0.2893875514467557,0.1926101272304852,0.9400552213191986,0.6408935884634653,2.3552958170572915,1.6887025216020552e+18,0.8970551757812499,4.166003902753194,-3.9014972448349,-7.653144121170044
1.0,1.6887025217058552e+18,1.000855224609375,-2.8968493143717446,0.19585529963175455,-3.977836529413859,1.6887025217058552e+18,1.000855224609375,1.5387843598922093,-4.467200517654419,-11.324930508931478,1.6887025217058552e+18,1.000855224609375,4.429787635803223,-4.6455512046813965,-7.409781853357951,1.6887025217058586e+18,1.0008585937499999,1.0709689378738403,0.5957463204860687,0.30424143373966217,1.6887025217058586e+18,1.0008585937499999,1.0700221180915832,0.6004499912261962,0.30653217136859895,,,,,,,,,,,,1.6887025217086574e+18,1.00365732421875,-26.41055965423584,23.0116397857666,38.14329986572265,1.6887025217086574e+18,1.00365732421875,-280.95135192871095,118.47663726806641,-95.06849822998046,1.6887025217058552e+18,1.000855224609375,-0.820714126030604,0.3877725452184677,0.3572697589794795,0.21928241103887555,1.0399781266848247,0.5004983047644297,2.329072117805481,1.6887025217058552e+18,1.000855224609375,1.5328023135662079,-4.449852506319682,-11.387742201487223
1.1,1.68870252180967e+18,1.1046698404947917,-6.100133419036865,-2.6571829319000244,-0.16299851735432944,1.68870252180967e+18,1.1046698404947917,-2.115653989215692,-6.718447844187419,-8.099505186080933,1.68870252180967e+18,1.1046698404947917,3.9786332845687866,-4.043760220209758,-7.999194304148356,1.6887025218010214e+18,1.0960216064453125,1.0663416385650635,-0.05599597717324892,-1.5750142236550648,1.6887025218010214e+18,1.0960216064453125,1.0653235216935475,-0.051287226689358555,-1.5727234482765198,,,,,,,,,,,,1.6887025218086572e+18,1.1036572265625,-24.080359649658202,19.937239265441896,41.33847923278809,1.6887025218086572e+18,1.1036572265625,-278.62115173339845,115.40223846435546,-91.87331848144531,1.68870252180967e+18,1.1046698404947917,-0.7878387173016866,0.39826277395089466,0.37744879225889844,0.27778131763140357,1.11812029282252,0.43071278433005017,2.1910922129948935,1.68870252180967e+18,1.1046698404947917,-2.1216361125310264,-6.701099872589111,-8.162316878636679
1.2000000000000002,1.6887025219048218e+18,1.1998217773437498,-1.3093938112258912,-1.134146499633789,2.5476737022399902,1.6887025219048218e+18,1.1998217773437498,2.0020747423171996,-5.895556163787842,-5.309314441680908,1.6887025219048218e+18,1.1998217773437498,3.3056225776672363,-4.743904972076416,-7.919675540924072,1.6887025219048287e+18,1.199828857421875,-0.2081014265616735,-0.8603528042634329,-2.3121249278386435,1.6887025219048287e+18,1.199828857421875,-0.20906862492362657,-0.8557458718617758,-2.3098087708155313,,,,,,,,,,,,1.6887025219086564e+18,1.20365625,-19.699339866638184,24.121839714050292,40.795579528808595,1.6887025219086564e+18,1.20365625,-274.2401397705078,119.58683700561524,-92.41621856689453,1.6887025219048218e+18,1.1998217773437498,-0.7416505455970764,0.47724916934967043,0.3281152009963989,0.33724181056022645,1.1858965158462524,0.5085659027099609,1.9411130905151368,1.6887025219048218e+18,1.1998217773437498,1.9960926175117493,-5.878208160400391,-5.372126197814941
1.3,1.6887025219999854e+18,1.2949853515625,-2.1646971702575684,0.262579083442688,-4.436697403589885,1.6887025219999854e+18,1.2949853515625,1.0568299908967067,-4.944668253262837,-12.051750183105469,1.6887025219999854e+18,1.2949853515625,3.2156811157862344,-5.189742724100749,-7.677740653355916,1.6887025220086372e+18,1.303637247721354,0.17916168676068386,0.0657698238889376,-0.7155522691706816,1.6887025220086372e+18,1.303637247721354,0.17821993709852293,0.07045313219229377,-0.713210636128982,,,,,,,,,,,,1.6887025220086577e+18,1.303657666015625,-18.575719833374023,27.138899421691896,39.23031845092773,1.6887025220086577e+18,1.303657666015625,-273.11651611328125,122.60389709472656,-93.98147888183594,1.6887025219999854e+18,1.2949853515625,-0.7210584878921509,0.5126108328501383,0.27901348471641535,0.37322382132212323,1.1853484908739726,0.559755394856135,1.80384361743927,1.6887025219999854e+18,1.2949853515625,1.050847961877783,-4.927320281664531,-12.114561875661215
1.4000000000000001,1.688702522103796e+18,1.3987961832682292,-1.2321791052818298,4.046968062718709,1.3319506645202637,1.688702522103796e+18,1.3987961832682292,0.8793623199065527,-1.0058828343947728,-6.747859557469686,1.688702522103796e+18,1.3987961832682292,2.105695386727651,-5.035346428553264,-8.142497777938843,1.6887025221037942e+18,1.39879423828125,0.06294966042041779,1.717019999027252,0.3120910465717316,1.6887025221037942e+18,1.39879423828125,0.06203336119651794,1.7216931462287903,0.3143817991018295,,,,,,,,,,,,1.6887025221086605e+18,1.4036604736328124,-13.377299785614014,26.175099563598632,41.93017921447754,1.6887025221086605e+18,1.4036604736328124,-267.91809997558596,121.64009704589844,-91.2816177368164,1.688702522103796e+18,1.3987961832682292,-0.6913618346055349,0.5387875338395437,0.32663694024085993,0.35272543629010517,1.328611433506012,0.5410243272781372,1.7706349889437358,1.688702522103796e+18,1.3987961832682292,0.8733802437782288,-0.9885348180929819,-6.810671091079712
1.5,1.6887025222076014e+18,1.5026014404296875,-2.7490444580713906,6.816470305124919,-0.23666501045227054,1.6887025222076014e+18,1.5026014404296875,-0.9902297705411911,1.6550356646378834,-8.340083599090576,1.6887025222076014e+18,1.5026014404296875,1.752968708674113,-5.143930196762085,-8.166106224060059,1.688702522198952e+18,1.4939519856770833,-0.020514894276857393,-0.2137264758348465,0.050625454634428024,1.688702522198952e+18,1.4939519856770833,-0.021482097605864215,-0.20904317498207092,0.052941657602787,,,,,,,,,,,,1.6887025222086548e+18,1.5036547363281252,-10.981219673156739,27.051059532165528,42.15343818664551,1.6887025222086548e+18,1.5036547363281252,-265.5220092773437,122.51605758666992,-91.05835800170898,1.6887025222076014e+18,1.5026014404296875,-0.6876243551572164,0.5477118094762167,0.3396008511384328,0.33436810473601025,1.3703895807266235,0.5540691812833151,1.7796527743339539,1.6887025222076014e+18,1.5026014404296875,-0.9962118119001389,1.6723836263020833,-8.402895291646322
1.6,1.6887025223114125e+18,1.6064123535156252,-0.38039815425872797,-0.5509209235509237,-2.8325583934783936,1.6887025223114125e+18,1.6064123535156252,2.314358031998078,-6.015556006381909,-10.446964104970297,1.6887025223114125e+18,1.6064123535156252,2.688910166422526,-5.447130521138509,-7.677093585332234,1.68870252230276e+18,1.5977599690755209,-1.7354172517855961,-0.2296598837710917,1.902183473110199,1.68870252230276e+18,1.5977599690755209,-1.7363590076565742,-0.2249511188517014,1.9044742186864216,,,,,,,,,,,,1.6887025223086597e+18,1.6036596923828124,-16.28577947616577,28.08805923461914,39.553618621826175,1.6887025223086597e+18,1.6036596923828124,-270.8265747070312,123.55305709838868,-93.6581787109375,1.6887025223114125e+18,1.6064123535156252,-0.7354768017927805,0.5122310370206833,0.32366323471069336,0.29963113864262897,1.242789347966512,0.5927334527174631,1.9368929664293926,1.6887025223114125e+18,1.6064123535156252,2.308375883847475,-5.99820817882816,-10.509775479634603
1.7000000000000002,1.6887025224065646e+18,1.7015647460937502,-3.373183250427246,-6.1089027404785154,-1.1436531066894529,1.6887025224065646e+18,1.7015647460937502,0.9267401963472366,-12.331291961669923,-7.3158159255981445,1.6887025224065646e+18,1.7015647460937502,4.294077444076538,-6.204884433746338,-6.234850311279297,1.68870252240657e+18,1.701570068359375,-1.1588113655646641,-1.6287449300289154,1.5859079857667286,1.68870252240657e+18,1.701570068359375,-1.159804031252861,-1.6241125091910362,1.5882241825262706,,,,,,,,,,,,1.688702522408656e+18,1.7036558105468749,-25.630979537963867,31.36131896972656,31.688279914855958,1.688702522408656e+18,1.7036558105468749,-280.17177429199216,126.826318359375,-101.52351913452148,1.6887025224065646e+18,1.7015647460937502,-0.8190125226974487,0.45884299874305723,0.27176046669483184,0.20900529921054836,0.9767228841781617,0.690877890586853,2.262992238998413,1.6887025224065646e+18,1.7015647460937502,0.9207581400871276,-12.313943672180176,-7.378627490997315
1.8,1.6887025225017219e+18,1.7967216796875,-3.832338333129883,1.126583417256673,2.288357694943746,1.6887025225017219e+18,1.7967216796875,1.9340985616048176,-5.041577657063802,-2.6416762272516885,1.6887025225017219e+18,1.7967216796875,5.76059087117513,-6.150656382242839,-4.992721319198608,1.688702522510378e+18,1.8053779296875,-0.2580396626144647,-2.1755965749422708,-0.21856249310076237,1.688702522510378e+18,1.8053779296875,-0.25895596233506996,-2.1709641814231873,-0.21627175652732453,,,,,,,,,,,,1.688702522508656e+18,1.8036561279296877,-33.83791961669922,31.172219276428223,24.17429962158203,1.688702522508656e+18,1.8036561279296877,-288.3787139892578,126.63721618652343,-109.0374984741211,1.6887025225017219e+18,1.7967216796875,-0.8552203973134359,0.4199380079905192,0.18046429753303525,0.24164007852474842,0.7217901150385538,0.6840417484442393,2.32412318388621,1.6887025225017219e+18,1.7967216796875,1.9281165798505147,-5.024229685465495,-2.7044878005981445
1.9000000000000001,1.688702522605534e+18,1.900533894856771,-2.5348394314448037,1.1316826343536377,-0.00449736913045243,1.688702522605534e+18,1.900533894856771,3.274976591269175,-5.717550118764241,-3.884747624397278,1.688702522605534e+18,1.900533894856771,5.803970019022624,-6.8317281405131025,-3.942937652269999,1.6887025226055337e+18,1.9005335449218748,-0.9581421375274658,0.19168951511383056,-1.4730709850788117,1.6887025226055337e+18,1.9005335449218748,-0.9591500639915467,0.19633209109306335,-1.4707497119903565,,,,,,,,,,,,1.6887025226086582e+18,1.903658251953125,-33.60245914459229,34.56625938415527,18.568399238586426,1.6887025226086582e+18,1.903658251953125,-288.14325561523435,130.03126068115233,-114.64339981079101,1.688702522605534e+18,1.900533894856771,-0.8561532199382782,0.44123684366544086,0.11129581804076825,0.24302404373884198,0.606330931186676,0.7782193124294281,2.332797129948934,1.688702522605534e+18,1.900533894856771,3.2689944903055825,-5.700201988220215,-3.9475590785344443
2.0,1.6887025227093384e+18,2.004338582356771,4.209153493245442,0.03909047444661462,-2.8017099301020303,1.6887025227093384e+18,2.004338582356771,8.664809624354044,-8.365307966868082,-5.082554777463277,1.6887025227093384e+18,2.004338582356771,4.449810028076172,-8.38689374923706,-2.343532303969065,1.6887025227006917e+18,1.9956918945312498,-2.444631814956665,-0.3439934899409612,-0.7792604478696982,1.6887025227006917e+18,1.9956918945312498,-2.445548117160797,-0.3392847528060277,-0.7769442473848661,,,,,,,,,,,,1.6887025227086623e+18,2.0036623779296874,-26.309299278259278,42.37303924560547,10.899479722976684,1.6887025227086623e+18,2.0036623779296874,-280.8500946044922,137.838037109375,-122.31231918334962,1.6887025227093384e+18,2.004338582356771,-0.833392451206843,0.5239170889059702,0.0400608232400069,0.16637548804283137,0.48935023446877796,1.0341030458609264,2.4667071104049683,1.6887025227093384e+18,2.004338582356771,8.658827543258667,-8.347960035006205,-5.145366271336873
2.1,1.6887025228045023e+18,2.099502392578125,-6.077325344085693,2.8492292404174804,-1.534135675430298,1.6887025228045023e+18,2.099502392578125,-1.9860427856445313,-5.724828004837036,-3.931407642364502,1.6887025228045023e+18,2.099502392578125,4.08543643951416,-8.556552696228028,-2.459959363937378,1.6887025228045015e+18,2.0995014648437498,-0.28575768570105237,2.7537296613057456,-0.9570222149292628,1.6887025228045015e+18,2.0995014648437498,-0.2866739680369695,2.758362054824829,-0.9547060132026672,,,,,,,,,,,,1.6887025228086584e+18,2.1036582275390625,-24.611059379577636,43.32585906982422,10.158939790725707,1.6887025228086584e+18,2.1036582275390625,-279.1518524169922,138.79085845947264,-123.05285720825195,1.6887025228045023e+18,2.099502392578125,-0.8338919758796692,0.5352774381637573,0.0911477111279964,0.09329584091901776,0.5549031078815461,1.0678078889846803,2.5834014892578123,1.6887025228045023e+18,2.099502392578125,-1.992024827003479,-5.707480335235596,-3.994219207763672
2.2,1.6887025228996557e+18,2.194655558268229,-8.125018835067749,-3.8656826814015712,2.503849466641744,1.6887025228996557e+18,2.194655558268229,-5.900202294190724,-13.279168725013733,1.068893772860368,1.6887025228996557e+18,2.194655558268229,2.2189703981081643,-9.395981629689535,-1.4976431330045064,1.6887025229083105e+18,2.203310343424479,-2.3927082431813083,0.96893410384655,-1.1079823200901349,1.6887025229083105e+18,2.203310343424479,-2.3936500065028667,0.9735919758677483,-1.1056915863106647,,,,,,,,,,,,1.688702522908655e+18,2.2036553222656248,-15.020639801025391,47.95697937011719,5.294799864292145,1.688702522908655e+18,2.2036553222656248,-269.5614349365234,143.4219772338867,-127.91699905395508,1.6887025228996557e+18,2.194655558268229,0.24620738625526428,-0.22354180614153543,-0.0294484682381153,0.039234862740461965,0.5664770404497782,1.2979793945948284,2.7451854149500527,1.6887025228996557e+18,2.194655558268229,-5.906184116999309,-13.261820753415426,1.0060822218656542
2.3000000000000003,1.6887025230034655e+18,2.298465372721354,-2.7503699958324432,-0.42815009752909344,0.6828715155522028,1.6887025230034655e+18,2.298465372721354,-1.0549356912573178,-10.089137196540833,0.14476577192544937,1.6887025230034655e+18,2.298465372721354,1.6895882089932759,-9.643482685089111,-0.6007931480805079,1.6887025230034693e+18,2.2984693359375,0.5157840646803379,-2.146946907043457,-0.5170363545417785,1.6887025230034693e+18,2.2984693359375,0.5148066788911819,-2.1422128200531008,-0.5147150538861751,,,,,,,,,,,,1.688702523008656e+18,2.3036558349609377,-12.572099781036377,48.89759864807129,1.1321599781513214,1.688702523008656e+18,2.3036558349609377,-267.11289367675784,144.36259918212892,-132.0796356201172,1.6887025230034655e+18,2.298465372721354,0.0037752886613210044,0.005846560001373291,-0.01888857176527382,0.024845468346029482,0.35274183253447217,1.3939192493756611,2.853651205698649,1.6887025230034655e+18,2.298465372721354,-1.060917725165685,-10.071789542833963,0.0819541675349076
2.4000000000000004,1.688702523107272e+18,2.402271931966146,1.0269874135653179,0.7257335980733236,-1.56862606604894,1.688702523107272e+18,2.402271931966146,0.6460621158281962,-9.036295215288797,-1.572184185187022,1.688702523107272e+18,2.402271931966146,-0.3867713088790576,-9.744524161020914,-0.06624547764658928,1.6887025230986232e+18,2.393623453776042,-0.8437576045592626,-0.11247558643420537,-3.107446034749349,1.6887025230986232e+18,2.393623453776042,-0.8447502801815668,-0.10779225826263428,-3.1051553090413413,,,,,,,,,,,,1.6887025231086559e+18,2.4036559326171876,-0.9393999993801116,49.78209915161133,-2.0447199396789073,1.6887025231086559e+18,2.4036559326171876,-255.48019561767578,145.24709777832032,-135.2565170288086,1.688702523107272e+18,2.402271931966146,-0.4746033449967702,0.466592937707901,-0.015563216526061267,0.031498680575168615,0.10549533367156982,1.4639362891515095,0.857994523520271,1.688702523107272e+18,2.402271931966146,0.6400800993045171,-9.01894736289978,-1.6349957982699077
2.5,1.6887025232110817e+18,2.5060816243489583,1.7514832019805906,-0.3665000597635905,-3.853630781173706,1.6887025232110817e+18,2.5060816243489583,-0.07427716255187988,-9.995717366536459,-3.0891340573628745,1.6887025232110817e+18,2.5060816243489583,-1.831606348355611,-9.61171261469523,0.7018092374006907,1.688702523202432e+18,2.4974320068359375,-0.31701361015439034,0.5446372668569287,-0.26829711347818375,1.688702523202432e+18,2.4974320068359375,-0.3179553610583146,0.5493460258003324,-0.26598089933395386,,,,,,,,,,,,1.6887025232086564e+18,2.503656201171875,7.252899932861328,49.189179229736325,-6.187839984893799,1.6887025232086564e+18,2.503656201171875,-247.28789520263672,144.6541763305664,-139.3996368408203,1.6887025232110817e+18,2.5060816243489583,0.6345919271310171,-0.7717450360457102,0.037991216406226117,0.015429835300892517,-2.7865391174952188,1.3622013727823894,-0.3871352771917979,1.6887025232110817e+18,2.5060816243489583,-0.08025926351547241,-9.978369553883871,-3.1519455711046853
2.6,1.6887025233062364e+18,2.6012365234375,3.456595230102539,-1.9521705627441406,-5.474949169158935,1.6887025233062364e+18,2.6012365234375,2.0986250400543214,-11.611410903930665,-4.35900502204895,1.6887025233062364e+18,2.6012365234375,-1.3638161957263946,-9.641735649108886,1.0532567381858826,1.688702523306242e+18,2.601241984049479,0.2966259851430853,1.9996419673164685,1.5362752079963684,1.688702523306242e+18,2.601241984049479,0.29563333621869486,2.0042997499307,1.5385659337043762,,,,,,,,,,,,1.688702523308656e+18,2.603656201171875,4.426159903407097,49.097679138183594,-7.764079856872558,1.688702523308656e+18,2.603656201171875,-250.11463775634766,144.56267700195312,-140.97587890625,1.6887025233062364e+18,2.6012365234375,0.6484272956848145,-0.7569022417068482,-0.0020969317294657,0.07438653036952017,-2.453166961669922,1.3835212469100953,-0.5797372758388519,1.6887025233062364e+18,2.6012365234375,2.0926430940628054,-11.594063186645508,-4.421816635131836
2.7,1.6887025234013955e+18,2.6963955078125,-2.142982840538025,-0.6866268316904703,-3.9389336903889975,1.6887025234013955e+18,2.6963955078125,-0.9414759874343872,-10.412965854008993,-3.6030924320220947,1.6887025234013955e+18,2.6963955078125,1.195660836994648,-9.708834330240885,0.2731538647785783,1.6887025234100503e+18,2.7050504150390626,1.100448300441106,0.02860884554684162,2.22701104482015,1.6887025234100503e+18,2.7050504150390626,1.0994301935036976,0.03326667658984661,2.2293272415796914,,,,,,,,,,,,1.6887025234086582e+18,2.7036581787109375,-10.062559628486634,49.101338958740236,-3.857639956474304,1.6887025234086582e+18,2.7036581787109375,-264.6033538818359,144.56633758544922,-137.06943969726564,1.6887025234013955e+18,2.6963955078125,0.7433951000372568,-0.6642805834611257,-0.03287278146793442,0.058992005263765614,-0.4359142001097401,1.4398517211278279,-2.57538769642512,1.6887025234013955e+18,2.6963955078125,-0.9474580685297648,-10.395618120829264,-3.665903925895691
2.8000000000000003,1.6887025235052055e+18,2.800205525716146,-0.8551019827524821,-10.979777495066324,0.2524675230185191,1.6887025235052055e+18,2.800205525716146,1.7643079161643982,-19.98615090052287,-2.2452652057011924,1.6887025235052055e+18,2.800205525716146,2.613563895225525,-8.988869349161783,-2.5604201555252075,1.688702523505212e+18,2.80021181640625,3.4867271423339843,4.997152519226074,1.306824055314064,1.688702523505212e+18,2.80021181640625,3.4857498168945313,5.001795029640197,1.3091147989034653,,,,,,,,,,,,1.6887025235086556e+18,2.8036554931640625,-19.112519645690917,44.832559204101564,12.264659691601992,1.6887025235086556e+18,2.8036554931640625,-273.6533172607422,140.29755706787108,-120.94713821411133,1.6887025235052055e+18,2.800205525716146,0.791686882575353,-0.5668205122152964,-0.20019309843579924,0.05307043964664137,0.7018634403745333,1.178219676017761,2.8094153801600137,1.6887025235052055e+18,2.800205525716146,1.7583258946736657,-19.96880292892456,-2.3080768485864005
2.9000000000000004,1.688702523609014e+18,2.904013916015625,-3.4975066979726157,-0.6473209857940674,3.2439387241999307,1.688702523609014e+18,2.904013916015625,-0.07806585232416789,-8.171589255332947,-1.9777675643563268,1.688702523609014e+18,2.904013916015625,3.4135948022206626,-7.506763617197673,-5.2843936284383135,1.6887025236003638e+18,2.8953638102213546,1.7310393660639722,-1.015970720599095,1.019864986340205,1.6887025236003638e+18,2.8953638102213546,1.7300721920716267,-1.0113637869556744,1.0221557368834813,,,,,,,,,,,,1.6887025236086572e+18,2.9036571777343747,-23.0860595703125,37.390559387207034,26.360539627075195,1.6887025236086572e+18,2.9036571777343747,-277.62685546875,132.85555725097657,-106.8512580871582,1.688702523609014e+18,2.904013916015625,-0.818014919757843,0.4874582638343175,0.30015974740187323,0.04694208673511938,1.0021001895268757,0.8786964019139608,2.5224842627843223,1.688702523609014e+18,2.904013916015625,-0.08404789368311565,-8.154241025447845,-2.040579174955686
3.0,1.6887025237041702e+18,2.999170361328125,-3.9116124629974367,8.301569843292237,4.097044181823731,1.6887025237041702e+18,2.999170361328125,0.20291137099266052,0.3284149136394262,0.2009971001651138,1.6887025237041702e+18,2.999170361328125,4.108677721023559,-7.955650520324707,-3.95873441696167,1.6887025237041723e+18,2.9991722819010413,-2.2332215309143066,-0.9456193993488947,-0.6838636472821236,1.6887025237041723e+18,2.9991722819010413,-2.234239677588145,-0.9408852010965347,-0.6815729141235352,,,,,,,,,,,,1.688702523708658e+18,3.0036577880859374,-27.179159545898436,39.386479187011716,19.376039600372316,1.688702523708658e+18,3.0036577880859374,-281.71994934082034,134.85148010253906,-113.83575668334962,1.6887025237041702e+18,2.999170361328125,-0.8401776790618897,0.4938788414001465,0.2191341549158096,0.03382634203881022,0.7645382285118103,0.9534900546073913,2.653195285797119,1.6887025237041702e+18,2.999170361328125,0.19692930877208709,0.3457628580858,0.1381855085492134
3.1,1.6887025237993267e+18,3.094326822916667,-3.328493595123291,8.547426382700602,2.2052014470100403,1.6887025237993267e+18,3.094326822916667,-0.015054853633046225,-0.38953160246213275,-0.0830508771662911,1.6887025237993267e+18,3.094326822916667,3.3075926701227822,-8.919453461964926,-2.3509397506713867,1.6887025238079846e+18,3.1029847005208335,-1.330133597056071,0.7499134515722593,-0.9563859005769094,1.6887025238079846e+18,3.1029847005208335,-1.3311008115609486,0.7545713037252426,-0.9540951550006866,,,,,,,,,,,,1.6887025238086566e+18,3.103656518554687,-22.837179756164552,44.888679122924806,10.668899726867675,1.6887025238086566e+18,3.103656518554687,-277.3779754638672,140.35367736816406,-122.54289855957032,1.6887025237993267e+18,3.094326822916667,0.8153674403826395,-0.5529510875542959,-0.16666748871405915,0.03136823958872501,0.6168878773848215,1.1498409708340962,2.8120741049448648,1.6887025237993267e+18,3.094326822916667,-0.02103689002494009,-0.3721836010615031,-0.1458624818672736
3.2,1.6887025239031378e+18,3.1981376953125,-8.171704610188803,-15.665005366007486,4.443352123101552,1.6887025239031378e+18,3.1981376953125,-5.706283807754517,-25.057040532430012,3.0777681271235147,1.6887025239031378e+18,3.1981376953125,2.4595746199289956,-9.374530474344889,-1.428271492322286,1.6887025239031378e+18,3.1981377929687502,-1.7788395881652832,0.7857865046709775,-0.11707232892513275,1.6887025239031378e+18,3.1981377929687502,-1.77981698513031,0.7904290705919266,-0.11478158235549926,,,,,,,,,,,,1.688702523908657e+18,3.2036568603515625,-19.02833957672119,46.98463935852051,7.178479886054992,1.688702523908657e+18,3.2036568603515625,-273.5691375732422,142.44963684082032,-126.03331756591797,1.6887025239031378e+18,3.1981376953125,0.7820055981477102,-0.5882792671521505,-0.17254805564880368,0.10797958821058268,0.507877824207147,1.2773671547571819,0.9431335926055908,1.6887025239031378e+18,3.1981376953125,-5.7122658888498945,-25.039692401885986,3.0149565239747367
3.3000000000000003,1.688702524006946e+18,3.3019462483723956,5.976098378499349,-5.27173646291097,-3.69443686803182,1.688702524006946e+18,3.3019462483723956,6.424030780792236,-14.898411591847738,-2.3918256064256034,1.688702524006946e+18,3.3019462483723956,0.4420865314702193,-9.60917043685913,1.2399238087236881,1.6887025239982968e+18,3.2932969156901044,-2.509001692136129,-2.4139612714449563,-3.4918330311775208,1.6887025239982968e+18,3.2932969156901044,-2.5099434852600098,-2.40925262371699,-3.489542305469513,,,,,,,,,,,,1.6887025240086582e+18,3.303658154296875,-9.300059878081083,48.77681884765625,-7.349279886484146,1.6887025240086582e+18,3.303658154296875,-263.84085235595705,144.24181518554687,-140.56107482910156,1.688702524006946e+18,3.3019462483723956,0.7102108895778656,-0.6881457070509592,-0.021625797729939233,0.1185365778704484,-1.1356099653833855,1.3733078241348267,-1.806114077568054,1.688702524006946e+18,3.3019462483723956,6.4180489381154375,-14.88106393814087,-2.4546372815966606
3.4000000000000004,1.688702524110752e+18,3.4057521565755207,0.2311213811238607,2.808631738026937,-7.462521076202393,1.688702524110752e+18,3.4057521565755207,0.1480557719866434,-6.392724712689717,-3.9788652459780374,1.688702524110752e+18,3.4057521565755207,-0.0889116007213791,-9.183851877848307,3.4209683736165366,1.688702524102102e+18,3.3971021321614585,-1.3593024412790935,1.3827698181072872,1.0757845863699913,1.688702524102102e+18,3.3971021321614585,-1.3602950672308605,1.387427697579066,1.0781008054812748,,,,,,,,,,,,1.6887025241086572e+18,3.4036570556640626,-5.471699929237365,46.87727813720703,-19.379699325561525,1.6887025241086572e+18,3.4036570556640626,-260.0124938964844,142.34227447509767,-152.59149627685548,1.688702524110752e+18,3.4057521565755207,0.6625111897786459,-0.7111712098121643,0.014755980034048316,0.233386551340421,-1.6139301657676697,1.2094964385032654,-1.2120161056518555,1.688702524110752e+18,3.4057521565755207,0.14207390944163004,-6.375376900037129,-4.041676918665568
3.5,1.6887025242059105e+18,3.50091064453125,-1.6181852340698242,7.649748420715332,-6.613131809234619,1.6887025242059105e+18,3.50091064453125,-0.8449056625366211,-1.4127225205302238,-2.836930513381958,1.6887025242059105e+18,3.50091064453125,0.7674335241317749,-9.044966506958009,3.7135138511657715,1.688702524205912e+18,3.5009121907552085,0.42131884892781574,-1.0169124801953633,1.2378675043582916,1.688702524205912e+18,3.5009121907552085,0.4203516437361638,-1.0122546404600143,1.2402091523011525,,,,,,,,,,,,1.688702524208655e+18,3.503655078125,-10.282159805297852,45.43645896911621,-21.35731945037842,1.688702524208655e+18,3.503655078125,-264.8229583740234,140.90145721435547,-154.5691177368164,1.6887025242059105e+18,3.50091064453125,0.6991697311401367,-0.6777850747108459,0.06076886430382724,0.2186766922473907,-1.3793543815612792,1.1710813522338868,-1.5338662385940551,1.6887025242059105e+18,3.50091064453125,-0.8508877754211428,-1.3953744739294052,-2.8997421264648438
3.6,1.6887025243010716e+18,3.5960716552734375,-1.1223750114440918,-21.192914326985676,-2.122612198193868,1.6887025243010716e+18,3.5960716552734375,0.6428717374801636,-30.493533929189045,-1.931107610464096,1.6887025243010716e+18,3.5960716552734375,1.759400725364685,-9.283114433288574,0.12881721059481302,1.6887025243097162e+18,3.6047164713541666,6.206976294517517,8.118246416250864,1.4464016755421956,1.6887025243097162e+18,3.6047164713541666,6.205958167711894,8.122853298981985,1.4486924012502034,,,,,,,,,,,,1.6887025243086584e+18,3.6036583496093746,-16.604199409484863,46.484439086914065,-1.0626200452446937,1.6887025243086584e+18,3.6036583496093746,-271.1449951171875,141.9494369506836,-134.2744171142578,1.6887025243010716e+18,3.5960716552734375,0.758682539065679,-0.6147717833518982,-0.07399889081716539,0.1059186036388079,-0.13381155331929526,1.2508172591527302,-0.6515111525853475,1.6887025243010716e+18,3.5960716552734375,0.6368897358576454,-30.476185480753582,-1.9939192558328311
3.7,1.6887025244048804e+18,3.6998805338541665,-1.1286146988471348,2.2770426273345947,7.400944153467814,1.6887025244048804e+18,3.6998805338541665,-1.100100214282672,-6.5542402267456055,3.2990044951438904,1.6887025244048804e+18,3.6998805338541665,0.02266850198308627,-8.813778559366861,-4.164627194404602,1.688702524404878e+18,3.6998779785156253,-1.1816271871328354,-4.1107566356658936,-0.9443976402282713,1.688702524404878e+18,3.6998779785156253,-1.1825740545988084,-4.106083536148072,-0.9421068668365479,,,,,,,,,,,,1.6887025244086592e+18,3.7036591064453126,-6.0316799454391,44.148139572143556,24.15721950531006,1.6887025244086592e+18,3.7036591064453126,-260.57247467041014,139.6131393432617,-109.05457763671875,1.6887025244048804e+18,3.6998805338541665,0.7009351352850596,-0.5937439997990926,-0.37515761454900104,0.08437384540836011,1.5408648451169331,1.121417760848999,2.2835589249928794,1.6887025244048804e+18,3.6998805338541665,-1.1060823003451032,-6.536892294883728,3.2361929217974343
3.8000000000000003,1.6887025245086881e+18,3.80368798828125,-2.801431894302368,10.351969242095947,2.2176717122395835,1.6887025245086881e+18,3.80368798828125,0.3820540135105451,1.1801600654919941,2.0591235955556235,1.6887025245086881e+18,3.80368798828125,3.177639881769816,-9.15430482228597,-0.22123557825883236,1.6887025245000328e+18,3.7950328776041666,-3.3845752477645874,-5.605503082275391,1.5998051762580872,1.6887025245000328e+18,3.7950328776041666,-3.3855170408884683,-5.600819826126099,1.602121392885844,,,,,,,,,,,,1.688702524508657e+18,3.803656787109375,-23.156819534301757,45.26565933227539,2.4351199328899384,1.688702524508657e+18,3.803656787109375,-277.69761657714844,140.73065643310548,-130.77667846679688,1.6887025245086881e+18,3.80368798828125,0.8122686147689819,-0.5725990732510885,-0.04299639017942051,0.040644361327091816,0.0981416329741478,1.2049633860588074,0.022214333216349358,1.6887025245086881e+18,3.80368798828125,0.3760719647010167,1.197508027156194,1.9963119824727376
3.9000000000000004,1.688702524603839e+18,3.8988391601562498,-4.237741136550904,5.472414875030518,0.6271852970123291,1.688702524603839e+18,3.8988391601562498,-0.6964310318231582,-3.4181472301483153,2.9105098247528076,1.688702524603839e+18,3.8988391601562498,3.535464143753052,-8.873057556152343,2.2206371307373045,1.688702524603846e+18,3.8988457845052085,0.1225548336903255,0.5345834294954935,-0.02318742498755455,1.688702524603846e+18,3.8988457845052085,0.12158764898777012,0.5392158478498459,-0.020871229469776143,,,,,,,,,,,,1.6887025246086548e+18,3.9036546875,-24.931919670104982,43.229478454589845,-12.348839664459229,1.6887025246086548e+18,3.9036546875,-279.47271423339845,138.69447479248046,-145.56063842773438,1.688702524603839e+18,3.8988391601562498,0.822686231136322,-0.5562975168228149,0.10317749977111809,0.05226186066865914,-0.5639015436172485,1.1306220769882203,-2.651539611816406,1.688702524603839e+18,3.8988391601562498,-0.7024131000041963,-3.400799059867859,2.8476982355117797
4.0,1.6887025246990006e+18,3.994000610351563,-10.801541010538736,-17.73669497172038,3.074549357096354,1.6887025246990006e+18,3.994000610351563,-7.913463274637858,-27.08864704767863,3.239084303379059,1.6887025246990006e+18,3.994000610351563,2.8822317322095237,-9.334447542826334,0.10184745614727336,1.6887025247076536e+18,4.002653483072916,0.2872339487075806,1.733508308728536,-2.1496602396170297,1.6887025247076536e+18,4.002653483072916,0.28629221518834425,1.738217035929362,-2.147344082593918,,,,,,,,,,,,1.6887025247086554e+18,4.00365537109375,-20.933979797363282,46.21969909667969,-0.37697998359799384,1.6887025247086554e+18,4.00365537109375,-275.4747772216797,141.68469696044923,-133.58877563476562,1.6887025246990006e+18,3.994000610351563,0.8031217257181803,-0.5910760859648386,-0.027738742685566333,0.04585008913030223,-0.019510394583145768,1.2646640141805012,-1.969739596048991,1.6887025246990006e+18,3.994000610351563,-7.919445514678955,-27.071298440297443,3.1762726306915283
4.1000000000000005,1.6887025248028088e+18,4.09780887858073,15.486094594001772,-1.5024505456288655,-5.625243624051412,1.6887025248028088e+18,4.09780887858073,14.852848569552103,-11.071391026178995,-3.9037903944651284,1.6887025248028088e+18,4.09780887858073,-0.6390925248463949,-9.551435947418213,1.6587657829125722,1.6887025248114647e+18,4.106464680989583,-1.9993110311528046,-2.4615579744180045,-1.4314863284428914,1.6887025248114647e+18,4.106464680989583,-2.000278245036801,-2.4569000403086343,-1.4291956027348836,,,,,,,,,,,,1.6887025248086564e+18,4.103656323242188,-1.4896198980510236,48.62187957763672,-10.024739837646484,1.6887025248086564e+18,4.103656323242188,-256.0304153442383,144.08687744140624,-143.23653717041014,1.6887025248028088e+18,4.09780887858073,0.6805600623289744,-0.7219894826412201,0.07181870549296336,0.05452188321699695,-1.705415556828181,1.3475388487180073,-1.4611629744370778,1.6887025248028088e+18,4.09780887858073,14.846865773200989,-11.054043213526407,-3.9666019678115845
4.2,1.688702524906618e+18,4.201618286132812,-4.208128253618876,7.8774270216623945,-4.126621166865031,1.688702524906618e+18,4.201618286132812,-3.363710343837738,-1.670688692169885,-2.0139590303103128,1.688702524906618e+18,4.201618286132812,0.8385718415180842,-9.530611197153727,2.0499747594197593,1.688702524906618e+18,4.201617919921874,0.826836633682251,-2.9495017528533936,3.212570905685425,1.688702524906618e+18,4.201617919921874,0.8258898258209229,-2.9448591470718384,3.2148616313934326,,,,,,,,,,,,1.6887025249086564e+18,4.20365634765625,-9.422059631347656,47.24449920654297,-13.212599658966065,1.6887025249086564e+18,4.20365634765625,-263.9628601074219,142.7094970703125,-146.42439727783204,1.688702524906618e+18,4.201618286132812,-0.2636695404847463,0.1926707923412323,-0.07294951876004535,0.045069941203109865,-1.1839748919010162,1.3286132017771404,-2.208479404449463,1.688702524906618e+18,4.201618286132812,-3.3696925044059753,-1.653340735162298,-2.076770623524984
4.3,1.6887025250104266e+18,4.305426472981771,0.5912083387374875,-16.949376821517944,-2.0778346061706543,1.6887025250104266e+18,4.305426472981771,3.460320862631003,-26.088546991348267,-2.0282162626584372,1.6887025250104266e+18,4.305426472981771,2.8632662693659463,-9.121665477752686,-0.013069068392117819,1.6887025250017759e+18,4.29677587890625,2.1711931973695755,8.268468379974365,1.8207856863737106,1.6887025250017759e+18,4.29677587890625,2.170226047436396,8.273126184940338,1.8231273243824642,,,,,,,,,,,,1.688702525008658e+18,4.3036577636718745,-21.074279880523683,44.283559036254886,-5.426559948921204,1.688702525008658e+18,4.3036577636718745,-275.6150787353516,139.7485565185547,-138.63835830688475,1.6887025250104266e+18,4.305426472981771,-0.5378964046637217,0.3742055992285411,-0.14190980792045593,0.0876195143597821,-0.04829505023856958,1.1906916499137878,0.9149008989334106,1.6887025250104266e+18,4.305426472981771,3.4543383618195853,-26.07119909922282,-2.091027836004893
4.4,1.688702525105583e+18,4.400583056640626,-1.4883744955062865,-2.387041473388672,3.32000789642334,1.688702525105583e+18,4.400583056640626,-1.546840214729309,-11.271391105651855,-0.7694121211767196,1.688702525105583e+18,4.400583056640626,-0.06431164890527723,-8.86684513092041,-4.152107381820679,1.6887025251055834e+18,4.40058349609375,-0.17231488227844227,-0.0419715940952301,-1.4587461650371552,1.6887025251055834e+18,4.40058349609375,-0.17328211665153503,-0.03723736604054769,-1.4564045270284016,,,,,,,,,,,,1.688702525108658e+18,4.403657885742187,-7.150419998168945,43.508859634399414,23.619199371337892,1.688702525108658e+18,4.403657885742187,-261.6912216186523,138.97385864257814,-109.59259719848633,1.688702525105583e+18,4.400583056640626,0.7047033905982971,-0.6136706352233887,-0.3482730746269226,0.05128146000206466,1.5660208940505982,1.1251964807510375,2.164271354675293,1.688702525105583e+18,4.400583056640626,-1.552822232246399,-11.254043102264404,-0.8322236835956573
4.5,1.6887025252007421e+18,4.495742106119791,-1.8117156624794006,9.723095019658405,3.4727067748705545,1.6887025252007421e+18,4.495742106119791,0.7315057963132858,0.43489552289247513,2.1589242219924927,1.6887025252007421e+18,4.495742106119791,2.5373754700024924,-9.270695050557455,-1.3764700119694073,1.6887025252093924e+18,4.504392374674479,-3.122488578160604,-5.060585856437683,0.8530987600485483,1.6887025252093924e+18,4.504392374674479,-3.1234813133875527,-5.055877168973287,0.8553895230094591,,,,,,,,,,,,1.6887025252086566e+18,4.50365673828125,-20.476479721069335,45.49623908996582,6.903979861736298,1.6887025252086566e+18,4.50365673828125,-275.01727600097655,140.96123657226562,-126.30781936645508,1.6887025252007421e+18,4.495742106119791,-0.7954622010389963,0.594575971364975,0.07180252453933157,0.024423813447356182,0.4580559271077315,1.2306157151858013,1.7047754923502605,1.6887025252007421e+18,4.495742106119791,0.7255237350861231,0.45224346220493317,2.096112608909607
4.6000000000000005,1.6887025253045514e+18,4.599551391601563,-3.9627354542414346,7.4058252175649,-0.07165684302647908,1.6887025253045514e+18,4.599551391601563,-1.026620626449585,-1.8216359168291092,1.6460625727971394,1.6887025253045514e+18,4.599551391601563,2.930268883705139,-9.209956804911295,1.6550320188204448,1.68870252530455e+18,4.599549755859375,-0.4607451319694519,-1.1659279584884643,0.035888336598873145,1.68870252530455e+18,4.599549755859375,-0.46169196367263793,-1.1612853795289992,0.038240166008472444,,,,,,,,,,,,1.688702525308656e+18,4.603656274414062,-22.90793972015381,44.89477882385254,-9.933239793777465,1.688702525308656e+18,4.603656274414062,-277.4487335205078,140.35977783203126,-143.1450393676758,1.6887025253045514e+18,4.599551391601563,-0.8084901769955953,0.5762866735458374,-0.1167131016651789,0.015650697052478735,-0.5037896583477656,1.2099197904268901,-2.8284082810084024,1.6887025253045514e+18,4.599551391601563,-1.0326026777426403,-1.804287999868393,1.5832509795824687
4.7,1.6887025254083597e+18,4.703359659830729,-11.062478065490723,-15.246228218078613,2.575843781232834,1.6887025254083597e+18,4.703359659830729,-8.88385264078776,-24.79702075322469,2.8757739812135696,1.6887025254083597e+18,4.703359659830729,2.1727794408798218,-9.533287843068441,0.23724288990100229,1.688702525399708e+18,4.694708089192709,1.3808354238669078,3.1355713307857513,-1.217327172557513,1.688702525399708e+18,4.694708089192709,1.3799190918604534,3.1402546167373657,-1.2150364468495052,,,,,,,,,,,,1.688702525408661e+18,4.703661108398437,-19.825,47.040758514404295,-1.993479996919632,1.688702525408661e+18,4.703661108398437,-274.3657928466797,142.50575408935546,-135.2052764892578,1.6887025254083597e+18,4.703359659830729,-0.2723633944988251,0.1903171936670939,-0.049456857474675986,0.023376878583803735,-0.056050016234318434,1.3253422180811565,0.0029445091883340733,1.6887025254083597e+18,4.703359659830729,-8.889834761619568,-24.779672304789226,2.8129624476035437
4.800000000000001,1.688702525503515e+18,4.798514892578125,16.680893659591675,-2.9060625076293944,-5.439007186889649,1.688702525503515e+18,4.798514892578125,16.47075562477112,-12.53312635421753,-4.208735752105713,1.688702525503515e+18,4.798514892578125,-0.21598504781723013,-9.609559631347656,1.1675840988755226,1.6887025255035177e+18,4.798517578125,-2.9989665349324546,-1.2231303652127583,-2.9263246059417725,1.6887025255035177e+18,4.798517578125,-2.9999592701594033,-1.2184471189975739,-2.9240336418151855,,,,,,,,,,,,1.6887025255086602e+18,4.8036601318359375,-7.02963997721672,48.98177947998047,-6.2036998808383945,1.6887025255086602e+18,4.8036601318359375,-261.57043609619143,144.4467758178711,-139.41549682617188,1.688702525503515e+18,4.798514892578125,0.7004156351089478,-0.705868124961853,0.03302077064290642,0.053981915861368135,-1.2562320098280906,1.3813607454299928,-1.8557349801063538,1.688702525503515e+18,4.798514892578125,16.46477313041687,-12.515778493881225,-4.271547269821167
4.9,1.6887025255986726e+18,4.893672526041667,-4.337348798910777,3.9403982957204184,-6.132129351298015,1.6887025255986726e+18,4.893672526041667,-3.9268213907877603,-5.418347487847011,-3.2557343244552612,1.6887025255986726e+18,4.893672526041667,0.40468143423398345,-9.341241200764975,2.8137076695760093,1.6887025256073208e+18,4.902320882161458,0.19272797306378686,-0.77528977394104,3.6770015160242715,1.6887025256073208e+18,4.902320882161458,0.19173533717791238,-0.7706065128246945,3.6792922814687095,,,,,,,,,,,,1.6887025256086577e+18,4.9036576171875,-10.989759600162506,46.76991920471191,-14.586319732666016,1.6887025256086577e+18,4.9036576171875,-265.5305603027344,142.23491821289062,-147.7981170654297,1.6887025255986726e+18,4.893672526041667,0.7193109194437662,-0.6769244074821472,0.11180213217933971,0.09156153164803975,-1.3919506967067719,1.2576164205869038,-1.7786792914072673,1.6887025255986726e+18,4.893672526041667,-3.932803397377332,-5.400999471545219,-3.3185458978017173
5.0,1.688702525702483e+18,4.99748291015625,1.728276014328003,-2.3352212905883785,-7.5395262241363525,1.688702525702483e+18,4.99748291015625,4.346562162041664,-11.516854469974836,-5.282554705937703,1.688702525702483e+18,4.99748291015625,2.6124401092529297,-9.16412878036499,2.194284051656723,1.6887025257111316e+18,5.006131754557292,2.235970417658488,2.131054257353147,1.376762996117274,1.6887025257111316e+18,5.006131754557292,2.2350286170840263,2.135712131857872,1.3790537615617116,,,,,,,,,,,,1.688702525708656e+18,5.003656250000001,-21.6562198638916,43.62475929260254,-13.232119846343995,1.688702525708656e+18,5.003656250000001,-276.1970184326172,139.08975677490236,-146.44391632080078,1.688702525702483e+18,4.99748291015625,-0.2784271438916524,0.17532086372375488,-0.051758766174316385,0.028820831871901886,-0.679334913690885,1.1914955774943035,-2.711584687232971,1.688702525702483e+18,4.99748291015625,4.340580277144909,-11.499506910641989,-5.3453664382298784
5.1000000000000005,1.688702525806287e+18,5.101287190755208,0.10971746842066447,-14.170902013778687,3.185108800729116,1.688702525806287e+18,5.101287190755208,0.25583256781101227,-23.32164518038432,0.23908291260401424,1.688702525806287e+18,5.101287190755208,0.1402689764897028,-9.133237997690836,-3.0087132255236306,1.6887025258062935e+18,5.10129345703125,2.2437996692955493,9.241933250427246,-3.0342897891998293,1.6887025258062935e+18,5.10129345703125,2.2427917435765266,9.246606254577635,-3.0319990634918215,,,,,,,,,,,,1.6887025258086564e+18,5.103656372070313,-8.710799825191497,43.501539611816405,18.164579540491104,1.6887025258086564e+18,5.103656372070313,-263.25159149169923,138.96653900146484,-115.047216796875,1.688702525806287e+18,5.101287190755208,0.4399782617886861,-0.4207041362921397,-0.2785022233923276,0.07690423121675845,1.3981563250223796,1.1879298090934753,2.294126570224762,1.688702525806287e+18,5.101287190755208,0.24985072513421377,-23.304298003514607,0.1762712597846985
5.2,1.6887025259100992e+18,5.205099161783854,0.2327105775475502,9.855865001678467,4.230705390373866,1.6887025259100992e+18,5.205099161783854,1.7773687317967415,0.4166502555211385,2.729612410068512,1.6887025259100992e+18,5.205099161783854,1.538812090953191,-9.421710332234701,-1.5637803375720978,1.6887025259014464e+18,5.196446248372395,-3.0113620162010193,-7.656686822573344,2.0310505628585815,1.6887025259014464e+18,5.196446248372395,-3.0123038093249,-7.652003486951192,2.0333667596181235,1.6887025258675151e+18,5.16251513671875,180.0,0.5877952575683594,3.2966487407684326,46.41999816894531,1.515839695930481,135.3850555419922,43.400001525878906,-122.7533534,49.1874985,1.6887025259086577e+18,5.203657592773437,-14.249599957466126,44.841099166870116,11.44481964111328,1.6887025259086577e+18,5.203657592773437,-268.79039459228517,140.30609893798828,-121.76697692871093,1.6887025259100992e+18,5.205099161783854,0.49972618619600934,-0.4167527159055074,-0.12213456848015386,0.0224901605494475,0.7043070842822393,1.2740794618924458,1.6108419100443523,1.6887025259100992e+18,5.205099161783854,1.7713866829872131,0.43399820725123095,2.666800796985626
5.300000000000001,1.6887025260052567e+18,5.3002568359375,-4.362761831283569,8.0424955368042,-1.6959163069725036,1.6887025260052567e+18,5.3002568359375,-2.037009930610657,-1.2437892615795136,0.4826323240995407,1.6887025260052567e+18,5.3002568359375,2.3199059009552,-9.268780326843261,2.1158612251281737,1.6887025260052544e+18,5.300254557291667,-1.928501586119334,-3.0019953846931458,0.15554156402746833,1.6887025260052544e+18,5.300254557291667,-1.929494212071101,-2.9972866773605347,0.15783230836192763,,,,,,,,,,,,1.6887025260086577e+18,5.303657690429687,-19.80547962188721,43.91145896911621,-10.407819867134094,1.6887025260086577e+18,5.303657690429687,-274.3462768554688,139.37645721435547,-143.61961822509767,1.6887025260052567e+18,5.3002568359375,0.7925789833068848,-0.5946337580680847,0.1255247980356216,0.01632839674130078,-0.6861762702465057,1.2206268548965453,-2.612723445892334,1.6887025260052567e+18,5.3002568359375,-2.0429919958114624,-1.226441204547882,0.4198207274079323
5.4,1.6887025261004127e+18,5.395412638346354,-8.834605892499289,-10.08728845914205,1.8595673441886902,1.6887025261004127e+18,5.395412638346354,-6.466603164871533,-19.461225430170696,3.328815152247747,1.6887025261004127e+18,5.395412638346354,2.362156709035238,-9.356431802113852,1.4065603936711948,1.6887025261090673e+18,5.404067260742187,2.019800434509913,3.77812522649765,0.28970284014940256,1.6887025261090673e+18,5.404067260742187,2.018807848294576,3.7828338742256165,0.2919935838629802,,,,,,,,,,,,1.6887025261086605e+18,5.4036605957031245,-20.669239616394044,44.13349952697754,-6.639239835739136,1.6887025261086605e+18,5.4036605957031245,-275.2100311279297,139.59849700927734,-139.85103454589844,1.6887025261004127e+18,5.395412638346354,0.5341067214806875,-0.3974025547504425,0.02791630414625008,0.00486165579059155,-0.4795386812960108,1.244210461775462,-2.7838464180628457,1.6887025261004127e+18,5.395412638346354,-6.472585345307986,-19.443877061208088,3.2660034596920013
5.5,1.6887025262042207e+18,5.499220825195312,-6.776365280151367,-6.688979466756185,0.6617386192083359,1.6887025262042207e+18,5.499220825195312,-6.185845295588176,-16.280665556589764,1.6390835543473559,1.6887025262042207e+18,5.499220825195312,0.5846740007400513,-9.5741818745931,0.9146573853989443,1.688702526204224e+18,5.499223828125,-2.837835597991943,-1.1519085288047788,-5.016242170333863,1.688702526204224e+18,5.499223828125,-2.838812971115112,-1.1472659826278686,-5.013890266418457,,,,,,,,,,,,1.6887025262086566e+18,5.503656616210938,-11.83155972957611,46.35755882263184,-2.816979991644621,1.6887025262086566e+18,5.503656616210938,-266.37235565185546,141.8225570678711,-136.02877655029297,1.6887025262042207e+18,5.499220825195312,0.7290107309818268,-0.6710302432378134,-0.010329577334535598,0.08190193772315975,-0.9260202000538508,1.3513235648473103,-2.0843648513158164,1.6887025262042207e+18,5.499220825195312,-6.1918273369471235,-16.263317902882893,1.5762719170500834
5.6000000000000005,1.6887025263080282e+18,5.603028198242188,18.68809413909912,1.1071475346883137,0.31290308634440117,1.6887025263080282e+18,5.603028198242188,16.515461365381878,-8.246863186359406,1.9424735916157563,1.6887025263080282e+18,5.603028198242188,-2.1784792939821878,-9.336506048838297,1.5668831864992778,1.6887025262993805e+18,5.594380533854166,-1.3719524145126343,-2.59011964003245,1.680821215113004,1.6887025262993805e+18,5.594380533854166,-1.3729705413182576,-2.58541069428126,1.6831374516089757,,,,,,,,,,,,1.6887025263086577e+18,5.603657690429687,5.459499931335449,46.34779930114746,-10.505419778823853,1.6887025263086577e+18,5.603657690429687,-249.0812973022461,141.81279754638672,-143.71721649169922,1.6887025263080282e+18,5.603028198242188,-0.626663327217102,0.7414571742216746,-0.21630874027808503,0.0644611495857437,-2.3394211729367576,1.2752570907274883,-1.2073759337266285,1.6887025263080282e+18,5.603028198242188,16.509479522705078,-8.229515194892883,1.8796617823342483
5.7,1.6887025264031872e+18,5.698186962890626,-4.75741229057312,4.736976528167725,-6.207835245132446,1.6887025264031872e+18,5.698186962890626,-3.5749966621398928,-4.765186512470246,-4.062893271446228,1.6887025264031872e+18,5.698186962890626,1.176569625735283,-9.4846586227417,2.082254505157471,1.6887025264031908e+18,5.698190714518229,0.061391962071259805,-2.897842893997828,4.033874114354451,1.6887025264031908e+18,5.698190714518229,0.06042475625872612,-2.8931850443283715,4.036164840062459,,,,,,,,,,,,1.688702526408659e+18,5.703658959960937,-12.853919744491577,44.5653793334961,-13.470019817352295,1.688702526408659e+18,5.703658959960937,-267.39471435546875,140.03037719726564,-146.68181762695312,1.6887025264031872e+18,5.698186962890626,-0.7492375254631043,0.6077593684196472,-0.23083266317844392,0.10292619541287415,-1.024601674079895,1.2916794061660766,-2.599816608428955,1.6887025264031872e+18,5.698186962890626,-3.5809786796569822,-4.7478385925292965,-4.12570481300354
5.800000000000001,1.688702526498347e+18,5.793346964518229,1.5715951124827068,-18.192310015360516,1.398812373479207,1.688702526498347e+18,5.793346964518229,3.0800612370173135,-27.333611647288006,-0.22861430794000656,1.688702526498347e+18,5.793346964518229,1.5026201903820038,-9.123797098795572,-1.6901143540938695,1.6887025265069926e+18,5.801992757161458,2.7442357490460076,13.008833646774292,-1.9221129367748897,1.6887025265069926e+18,5.801992757161458,2.7432176371415458,13.013516982396444,-1.919822206099828,,,,,,,,,,,,1.688702526508657e+18,5.803656762695312,-14.624139595031739,42.19247970581055,10.282159614562989,1.688702526508657e+18,5.803656762695312,-269.16493225097656,137.65747985839843,-122.9296371459961,1.688702526498347e+18,5.793346964518229,-0.04824031392733256,-0.031078656514485676,-0.21149532248576483,0.08632560322682059,0.7109993522365888,1.1679689486821492,1.5288999875386555,1.688702526498347e+18,5.793346964518229,3.074079155921936,-27.316264152526855,-0.2914257993300759
5.9,1.688702526602154e+18,5.897153971354167,-2.3859068552652993,7.059611161549886,4.9186287720998125,1.688702526602154e+18,5.897153971354167,-1.2253246208031972,-2.2817558447519937,2.66341100136439,1.688702526602154e+18,5.897153971354167,1.1547361761331558,-9.323862552642822,-2.317905162771543,1.6887025266108065e+18,5.905806518554687,-2.938236395517985,-8.621013879776001,1.0028625453511875,1.6887025266108065e+18,5.905806518554687,-2.9392035603523254,-8.616356134414673,1.0051787657042344,,,,,,,,,,,,1.6887025266086615e+18,5.903661401367187,-16.035679578781128,44.532439422607425,11.683939921855927,1.6887025266086615e+18,5.903661401367187,-270.57647705078125,139.9974380493164,-121.52785873413086,1.688702526602154e+18,5.897153971354167,-0.28248368700345355,0.19797994693120322,-0.052487471451361956,0.04564428624386583,0.9286207358042399,1.2336039543151855,2.3918139934539795,1.688702526602154e+18,5.897153971354167,-1.231306627392769,-2.2644077638785043,2.600599388281504
