seconds_elapsed_rounded,accelerometer_time,accelerometer_seconds_elapsed,accelerometer_z,accelerometer_y,accelerometer_x,accelerometeruncalibrated_time,accelerometeruncalibrated_seconds_elapsed,accelerometeruncalibrated_z,accelerometeruncalibrated_y,accelerometeruncalibrated_x,gravity_time,gravity_seconds_elapsed,gravity_z,gravity_y,gravity_x,gyroscope_time,gyroscope_seconds_elapsed,gyroscope_z,gyroscope_y,gyroscope_x,gyroscopeuncalibrated_time,gyroscopeuncalibrated_seconds_elapsed,gyroscopeuncalibrated_z,gyroscopeuncalibrated_y,gyroscopeuncalibrated_x,location_time,location_seconds_elapsed,location_bearingAccuracy,location_speedAccuracy,location_verticalAccuracy,location_horizontalAccuracy,location_speed,location_bearing,location_altitude,location_longitude,location_latitude,magnetometer_time,magnetometer_seconds_elapsed,magnetometer_z,magnetometer_y,magnetometer_x,magnetometeruncalibrated_time,magnetometeruncalibrated_seconds_elapsed,magnetometeruncalibrated_z,magnetometeruncalibrated_y,magnetometeruncalibrated_x,orientation_time,orientation_seconds_elapsed,orientation_qz,orientation_qy,orientation_qx,orientation_qw,orientation_roll,orientation_pitch,orientation_yaw
0.0,1.6887024169805197e+18,104.99551961263022,39.47965908050537,-9.777150313059488,-3.390925606091818,1.6887024169805197e+18,104.99551961263022,33.567115465799965,-17.138990720113117,-1.0376874208450315,1.6887024169805197e+18,104.99551961263022,-5.918389956156413,-7.34433635075887,2.290550788243612,1.6887024169891686e+18,105.00416853841146,-4.362799644470215,-8.309396505355835,-4.742197722196579,1.6887024169848392e+18,104.99983911132814,-5.28917670249939,-12.25433874130249,-7.432703018188477,,,,,,,,,,,,1.6887024169891154e+18,105.00411538085936,25.47603988647461,43.73699951171875,0.958919969201088,1.6887024169891154e+18,105.00411538085936,-229.06475524902345,139.20199279785157,-132.252880859375,1.6887024169805197e+18,104.99551961263022,0.3596283197402954,-0.8173946340878805,-0.3409976164499919,0.2751538753509521,-2.7986645698547363,0.9029599030812582,0.617927630742391
0.05,1.688702417032422e+18,105.04742211914063,14.210403760274252,-6.465327739715576,-3.4640378952026367,1.688702417032422e+18,105.04742211914063,8.027720133463541,-13.42672634124756,-0.4253242164850235,1.688702417032422e+18,105.04742211914063,-6.188530286153157,-6.943894068400065,2.9760262171427407,1.688702417041072e+18,105.05607202148438,0.3073670367399851,6.397846221923828,3.242523590723674,1.688702417028098e+18,105.04309806315104,-0.5896885792414347,5.508019208908081,2.7386107047398887,,,,,,,,,,,,1.6887024170391142e+18,105.05411430664064,24.724519348144533,44.14447937011719,-3.8674000084400175,1.6887024170391142e+18,105.05411430664064,-229.81627502441407,139.60947875976564,-137.07919921875,1.688702417032422e+18,105.04742211914063,0.3421424627304077,-0.8479133447011312,-0.2890824874242146,0.2778638849655787,-2.715566953023275,0.8369924426078796,0.4623438715934753
0.1,1.688702417084325e+18,105.0993251139323,-0.5781287352244059,4.5855692227681475,-4.661781628926595,1.688702417084325e+18,105.0993251139323,-4.720241546630859,-3.501696546872457,-0.9104690353075664,1.688702417084325e+18,105.0993251139323,-4.1479588349660235,-8.069761276245117,3.688625256220499,1.688702417084327e+18,105.09932714843752,1.822592854499817,2.1854467391967773,3.3059264421463013,1.6887024170800018e+18,105.09500170898438,1.6965254942576091,2.615623235702514,3.340567429860433,,,,,,,,,,,,1.6887024170891192e+18,105.10411923828124,15.28171977996826,47.77519912719727,-4.850719833374024,1.6887024170891192e+18,105.10411923828124,-239.2590759277344,143.24019775390624,-138.06251220703126,1.688702417084325e+18,105.0993251139323,0.3891205290953318,-0.7705665230751038,-0.3260702590147654,0.3842175801595052,-2.438518126805623,1.0177318851153057,0.3958370884259541
0.15,1.6887024171362335e+18,105.15123347981768,-2.929591337839762,5.276605129241943,-6.431005160013835,1.6887024171362335e+18,105.15123347981768,-5.7399827639261884,-3.6833515763282776,-3.517848173777262,1.6887024171362335e+18,105.15123347981768,-2.816237449645996,-8.942452112833658,2.8504695097605386,1.688702417127577e+18,105.1425771484375,1.7562884489695232,-1.0528771082560222,3.1165327231089273,1.6887024171319104e+18,105.14691048177085,1.692096749941508,-1.4327335556348164,3.142596165339152,,,,,,,,,,,,1.6887024171391214e+18,105.15412138671874,7.0686798095703125,49.719878387451175,-0.6148799628019332,1.6887024171391214e+18,105.15412138671874,-247.4721160888672,145.18487548828125,-133.82667846679686,1.6887024171362335e+18,105.15123347981768,0.4678892890612284,-0.7219536304473877,-0.3301228483517964,0.3872948288917541,-2.375025669733683,1.2002162138621013,0.3187616566816966
0.2,1.6887024171881352e+18,105.20313517252605,11.674233039220177,-14.917444864908854,-4.766538222630818,1.6887024171881352e+18,105.20313517252605,9.9196457862854,-24.44687048594157,-3.153341494500637,1.6887024171881352e+18,105.20313517252605,-1.760433514912923,-9.51192061106364,1.5505091746648152,1.688702417179481e+18,105.1944813639323,2.0351994037628174,-3.4049627780914307,2.9107728799184165,1.6887024171838065e+18,105.19880647786458,2.3187934954961142,-2.6082927783330283,2.498795211315155,,,,,,,,,,,,1.6887024171891192e+18,105.20411923828124,-1.810479974746704,49.73939895629883,4.321239900588989,1.6887024171891192e+18,105.20411923828124,-256.3512786865234,145.20439758300782,-128.89055786132812,1.6887024171881352e+18,105.20313517252605,0.5653417309125265,-0.696904460589091,-0.2944764594237009,0.327268232901891,-2.462890307108561,1.3775046666463215,0.2367258518934249
0.25,1.6887024172400404e+18,105.25504044596352,2.6360130310058594,-23.406625747680664,4.581594288349152,1.6887024172400404e+18,105.25504044596352,0.2017947832743332,-32.89193852742513,5.316054383913676,1.6887024172400404e+18,105.25504044596352,-2.440064231554667,-9.46780808766683,0.6717726786931356,1.688702417231389e+18,105.24638907877603,3.647985378901163,12.95069948832194,-3.369074503580729,1.6887024172357164e+18,105.25071638997396,3.449963331222534,13.66612466176351,-3.7077484130859375,,,,,,,,,,,,1.6887024172391183e+18,105.254118359375,6.334239792823792,47.51899948120117,12.546479606628418,1.6887024172391183e+18,105.254118359375,-248.2065551757813,142.98399658203124,-120.66531677246094,1.6887024172400404e+18,105.25504044596352,0.4703528682390849,-0.6078670819600424,-0.4916091064612071,0.3951709667841593,-3.0479546387990317,1.3319476048151653,1.2835578521092732
0.3,1.6887024172919455e+18,105.30694571940104,7.019627332687378,-0.3740957578023274,2.1668707927068076,1.6887024172919455e+18,105.30694571940104,2.3631116847197213,-8.895118554433187,3.615953922271729,1.6887024172919455e+18,105.30694571940104,-4.662361780802409,-8.503518104553223,1.3863956928253174,1.68870241728329e+18,105.29829020182292,0.8934922330081463,6.071644028027852,-5.873265743255615,1.6887024172876206e+18,105.30262068684895,0.6719008535146713,4.710687140623729,-5.303430179754893,,,,,,,,,,,,1.6887024172891215e+18,105.30412153320312,26.94979972839355,41.30187835693359,9.672159671783447,1.6887024172891215e+18,105.30412153320312,-227.59099426269532,136.76687927246093,-123.53963470458984,1.6887024172919455e+18,105.30694571940104,0.2771807014942169,-0.5443311134974161,-0.6675861477851868,0.4243901371955871,-2.9532875219980874,1.0539540847142537,1.663585344950358
0.35,1.688702417335194e+18,105.35019396972658,3.5793994665145874,5.587669610977173,1.3345773220062256,1.688702417335194e+18,105.35019396972658,-1.2194422483444214,-2.924627363681793,2.3688944578170776,1.688702417335194e+18,105.35019396972658,-4.804687738418579,-8.494792461395264,0.9716297686100008,1.6887024173351987e+18,105.35019881184895,-1.174744764963786,-5.80296532313029,1.86191721757253,1.6887024173395218e+18,105.35452148437498,-1.3135129809379578,-6.0850833257039385,2.0088303486506143,,,,,,,,,,,,1.6887024173391135e+18,105.35411357421876,28.713919830322265,40.53327941894531,11.058079719543455,1.6887024173391135e+18,105.35411357421876,-225.82687377929688,135.99827880859374,-122.15371856689453,1.688702417335194e+18,105.35019396972658,0.3149651736021042,-0.5772697329521179,-0.6425568759441376,0.3921687602996826,-3.0445836782455444,1.0521484017372131,1.6215486526489258
0.4,1.6887024173784453e+18,105.3934454752604,7.6315968831380205,10.524776776631674,0.6919382810592651,1.6887024173784453e+18,105.3934454752604,3.514657656351725,1.631107399861018,1.3800604542096455,1.6887024173784453e+18,105.3934454752604,-4.122785329818726,-8.876164754231771,0.6254347761472067,1.6887024173871002e+18,105.40210034179688,-2.3917919794718423,-4.533790985743205,1.8583029905954995,1.688702417391427e+18,105.40642724609374,-2.4276293913523355,-4.2259147961934405,1.7674367427825928,,,,,,,,,,,,1.6887024173891187e+18,105.40411855468749,20.383759689331058,44.259159088134766,13.986079788208007,1.6887024173891187e+18,105.40411855468749,-234.1570373535156,139.72415771484376,-119.22571716308592,1.6887024173784453e+18,105.3934454752604,0.4027959605058033,-0.6297599077224731,-0.5544870694478353,0.3635227282842,-3.1112060546875,1.1476933161417644,1.4233225584030151
0.45,1.688702417430358e+18,105.44535807291668,3.0917041301727295,10.763578097025553,-0.7398029168446859,1.688702417430358e+18,105.44535807291668,-0.4436691999435424,1.6666009823481245,0.428714061776797,1.688702417430358e+18,105.44535807291668,-3.5412193139394126,-9.079472541809082,1.1058295766512554,1.6887024174390075e+18,105.4540078125,-2.1264219284057617,-2.620306491851806,1.2551753520965576,1.6887024174346834e+18,105.44968347167968,-2.2269856929779053,-2.577775001525879,1.272126853466034,,,,,,,,,,,,1.6887024174391168e+18,105.45411674804686,13.737199592590333,47.15543899536133,11.170319747924804,1.6887024174391168e+18,105.45411674804686,-240.80359497070313,142.6204345703125,-122.04147644042968,1.688702417430358e+18,105.44535807291668,0.4491852919260661,-0.6735385656356812,-0.4651889006296794,0.3571320970853169,-2.956204891204834,1.2157562176386516,1.07897686958313
0.5,1.6887024174822612e+18,105.49726106770834,1.9162701765696208,8.54515266418457,-1.673642873764038,1.6887024174822612e+18,105.49726106770834,-1.3509477774302163,-0.6135595689217249,-0.2117648075024286,1.6887024174822612e+18,105.49726106770834,-3.2730639775594077,-9.141207695007324,1.399190624554952,1.6887024174909125e+18,105.5059123535156,-0.7096217920382818,-2.0732257763544717,0.9234755436579386,1.68870241747794e+18,105.49294010416668,-1.1518882115681963,-2.511216163635254,1.0320568283398943,1.688702417477946e+18,105.49294604492188,0.0,0.0,1.1487890481948853,7.302999973297119,2.7670512199401855,277.5030212402344,43.09526909465822,-122.7530219,49.1888203,1.6887024174891192e+18,105.50411928710938,9.960079956054688,48.614559173583984,8.718119812011718,1.6887024174891192e+18,105.50411928710938,-244.580712890625,144.07955932617188,-124.4936782836914,1.6887024174822612e+18,105.49726106770834,0.4812362194061279,-0.7032849987347921,-0.397125095129013,0.3402011791865031,-2.8351818720499673,1.245057185490926,0.8071640531222025
0.55,1.688702417534163e+18,105.5491630859375,0.3857504526774089,3.3269349733988443,1.7357131640116374,1.688702417534163e+18,105.5491630859375,-2.57368016988039,-5.942973852157593,3.1489546298980713,1.688702417534163e+18,105.5491630859375,-2.9652766386667886,-9.25240421295166,1.35055406888326,1.688702417534166e+18,105.549166015625,0.5669593065977097,1.870011270046234,0.5090798288583755,1.688702417529842e+18,105.5448419596354,0.4740823432803154,1.2616403500239055,0.5766567985216776,,,,,,,,,,,,1.6887024175391176e+18,105.5541173828125,8.09591989517212,48.82195892333984,8.796199798583984,1.6887024175391176e+18,105.5541173828125,-246.4448760986328,144.28695678710938,-124.41559753417968,1.688702417534163e+18,105.5491630859375,0.4968287547429402,-0.6971065998077393,-0.3873098293940225,0.3419077793757121,-2.8164164225260415,1.279334266980489,0.7714010079701742
0.6,1.6887024175860718e+18,105.60107177734376,-8.362976868947348,-26.43670908610026,9.247944513956703,1.6887024175860718e+18,105.60107177734376,-11.054242134094238,-35.80759366353353,10.523235003153482,1.6887024175860718e+18,105.60107177734376,-2.6971112887064614,-9.35338020324707,1.2126024961471558,1.688702417577421e+18,105.59242106119792,1.3869186242421467,2.8826730251312256,0.0446949787437916,1.6887024175817428e+18,105.59674251302084,1.289994716644287,2.7694085439046225,0.0038688123847047,,,,,,,,,,,,1.6887024175891256e+18,105.60412543945311,8.503399848937988,48.5877197265625,10.413919830322266,1.6887024175891256e+18,105.60412543945311,-246.0373992919922,144.05271911621094,-122.7978775024414,1.6887024175860718e+18,105.60107177734376,0.4807978570461273,-0.6564223965009054,-0.4410855869452159,0.3781391680240631,-2.862009048461914,1.3058913151423135,0.9689478476842244
0.65,1.688702417637979e+18,105.65297900390624,-0.7543428738911947,-8.528958002726236,1.2388067642847698,1.688702417637979e+18,105.65297900390624,-3.865405559539795,-17.632909138997395,3.2257242997487388,1.688702417637979e+18,105.65297900390624,-3.1169087092081704,-9.0864470799764,1.9242301384607952,1.6887024176293253e+18,105.64432535807292,-2.358754316965739,-0.0181732575098673,-1.4917838672796886,1.688702417633648e+18,105.64864803059896,-2.603863994280497,-0.3742058674494425,-1.7208582758903503,,,,,,,,,,,,1.6887024176391163e+18,105.65411611328123,11.50947971343994,48.543798828125,7.036960029602051,1.6887024176391163e+18,105.65411611328123,-243.03131713867188,144.00879821777343,-126.17483825683594,1.688702417637979e+18,105.65297900390624,0.4409793019294739,-0.6743114789326986,-0.4399326145648956,0.3956041435400645,-2.695481538772583,1.232492526372274,0.8397361437479655
0.7,1.6887024176898798e+18,105.7048800455729,1.5452909469604492,-2.032002131144205,1.3911055326461792,1.6887024176898798e+18,105.7048800455729,-3.848655899365743,-9.86720323562622,3.401995619138082,1.6887024176898798e+18,105.7048800455729,-5.399792830149333,-7.817696730295817,1.9482027689615888,1.6887024176812257e+18,105.69622526041668,-2.4682010412216187,-6.888014634450276,-5.224068482716878,1.6887024176855544e+18,105.7005546061198,-2.3110050757726035,-8.049931367238363,-5.89235504468282,,,,,,,,,,,,1.6887024176891167e+18,105.70411674804689,20.437439346313475,46.15015869140625,3.7307599544525143,1.6887024176891167e+18,105.70411674804689,-234.10335998535157,141.6151580810547,-129.4810348510742,1.6887024176898798e+18,105.7048800455729,0.3842963576316833,-0.7857648332913717,-0.3769515256086985,0.2893640100955962,-2.8245564301808677,0.9778720537821451,0.7155614693959554
0.75,1.688702417741778e+18,105.75677783203126,50.486253102620445,-5.106077829996745,11.708260536193848,1.688702417741778e+18,105.75677783203126,43.51667181650797,-11.831112066904703,10.253843386967976,1.688702417741778e+18,105.75677783203126,-6.975426355997722,-6.707529862721761,-1.5171048641204834,1.68870241773313e+18,105.7481298828125,-1.3521502216657002,-9.402336120605469,-1.3911946813265483,1.68870241773746e+18,105.75246004231772,-1.4253522555033369,-7.228113969167073,-0.0993164380391438,,,,,,,,,,,,1.6887024177391145e+18,105.754114453125,25.80299949645996,40.86267929077148,15.47935962677002,1.6887024177391145e+18,105.754114453125,-228.73779296875,136.3276794433594,-117.73243865966796,1.688702417741778e+18,105.75677783203126,0.1289592782656351,-0.29145614306132,-0.0962218244870503,0.0283154662077625,2.8879823684692383,0.799712061882019,0.6833683649698893
0.8,1.6887024177850296e+18,105.80002941894531,1.216367244720459,0.6142475605010986,0.9316199421882628,1.6887024177850296e+18,105.80002941894531,-4.988436937332153,-6.9684977531433105,1.404287815093994,1.6887024177850296e+18,105.80002941894531,-6.210650205612183,-7.5652406215667725,0.409980452619493,1.6887024177850378e+18,105.80003792317709,-0.819119373957316,7.262118498484294,2.990745306015014,1.6887024177893642e+18,105.8043642578125,-0.6464481341342131,7.020063559214274,3.058653195699056,,,,,,,,,,,,1.6887024177891151e+18,105.8041150878906,22.35283966064453,44.69347991943359,9.176839828491213,1.6887024177891151e+18,105.8041150878906,-232.18795776367188,140.15847473144532,-124.0349578857422,1.6887024177850296e+18,105.80002941894531,0.4216420501470566,-0.8483381271362305,-0.2812026441097259,0.1491466127336025,0.0279984474182128,0.927550971508026,0.6251603960990906
0.85,1.6887024178282924e+18,105.84329223632812,-2.7129966417948403,4.3716888427734375,-1.8998181819915771,1.6887024178282924e+18,105.84329223632812,-7.591229756673177,-4.003790458043416,-0.3367898066838582,1.6887024178282924e+18,105.84329223632812,-4.884079138437907,-8.357974688212076,1.5003410180409749,1.688702417836939e+18,105.85193896484374,0.954375147819519,1.6517796317736309,3.658624649047851,1.6887024178412657e+18,105.856265625,1.0678942600886028,1.0054841836293538,3.77229650815328,,,,,,,,,,,,1.6887024178391153e+18,105.85411523437502,14.96695957183838,47.45067901611328,5.577839946746826,1.6887024178391153e+18,105.85411523437502,-239.57383422851564,142.91567687988282,-127.63395690917967,1.6887024178282924e+18,105.84329223632812,0.4496419926484425,-0.7945635914802551,-0.3172220091025033,0.2548325657844543,-2.888230482737223,1.0696281989415486,0.6083310047785441
0.9,1.6887024178801969e+18,105.89519661458333,-3.846372604370117,-4.964574495951335,-3.483972708384196,1.6887024178801969e+18,105.89519661458333,-6.760721186796824,-14.289139111836752,-2.843271573384603,1.6887024178801969e+18,105.89519661458333,-2.920194784800211,-9.30706024169922,0.5780136634906133,1.6887024178888458e+18,105.90384594726562,1.8424713611602783,-3.8240164120992026,5.384879112243652,1.688702417884518e+18,105.89951782226564,1.991802453994751,-4.676020622253418,5.569716453552246,,,,,,,,,,,,1.6887024178891187e+18,105.90411875,2.239919972419739,48.8390396118164,9.818559741973877,1.6887024178891187e+18,105.90411875,-252.3008728027344,144.30403747558594,-123.3932373046875,1.6887024178801969e+18,105.89519661458333,0.5571913719177246,-0.7342218557993571,-0.297922134399414,0.2427590191364288,-0.9924655755360922,1.3055951595306396,0.7385931611061096
0.95,1.6887024179321014e+18,105.94710123697917,15.376737038294474,-26.44275156656901,4.851329425970714,1.6887024179321014e+18,105.94710123697917,13.844672600428265,-36.139797846476235,4.69411983092626,1.6887024179321014e+18,105.94710123697917,-1.5379105011622112,-9.67954190572103,-0.2198972279826799,1.688702417940747e+18,105.95574690755208,1.7490599155426023,14.3678560256958,-2.295631647109986,1.688702417927773e+18,105.94277311197916,1.7105754613876345,9.625403861204784,0.3812818229198456,,,,,,,,,,,,1.6887024179391132e+18,105.95411303710937,-2.8791998744010927,47.43115921020508,15.203639602661132,1.6887024179391132e+18,105.95411303710937,-257.41998901367185,142.89615783691406,-118.0081573486328,1.6887024179321014e+18,105.94710123697917,0.5946928262710571,-0.65001912911733,-0.3633384704589844,0.2834262003501255,2.646899859110514,1.4328418572743733,1.453498164812724
1.0,1.6887024179840028e+18,105.99900260416668,0.3709053198496501,-6.159417470296224,0.1613231499989827,1.6887024179840028e+18,105.99900260416668,-3.294517974058787,-15.240086555480955,0.7028917074203491,1.6887024179840028e+18,105.99900260416668,-3.671269337336222,-9.063165028889976,0.4788810809453328,1.6887024179926538e+18,106.00765380859372,1.749467134475708,4.746371905008952,-3.816329816977183,1.68870241797968e+18,105.99468001302084,1.7514524459838867,9.494983832041422,-5.0644800662994385,1.68870241799698e+18,106.01197998046877,0.0,0.0,1.1285518407821655,7.359000205993652,2.7567920684814453,276.8507385253906,43.300641567690974,-122.7530398,49.1888212,1.6887024179891192e+18,106.00411928710938,19.31747932434082,43.38319854736328,15.41835994720459,1.6887024179891192e+18,106.00411928710938,-235.2233154296875,138.84819946289062,-117.79343872070312,1.6887024179840028e+18,105.99900260416668,0.384558230638504,-0.5647476116816202,-0.6042744716008505,0.4060810108979543,1.0345661640167236,1.1893107493718464,1.6462556918462117
1.05,1.68870241803591e+18,106.05091015625,0.7395273049672445,5.076443195343018,2.023592706769705,1.68870241803591e+18,106.05091015625,-3.254238724708557,-3.881557067235311,1.7230317170421283,1.68870241803591e+18,106.05091015625,-3.9996120929718018,-8.940495808919271,-0.3632484041154384,1.6887024180359035e+18,106.0509033203125,0.218613401055336,-5.729992389678955,1.5632041692733765,1.6887024180315802e+18,106.0465799967448,0.4598287940025329,-4.890688975652059,1.150106563853721,,,,,,,,,,,,1.6887024180391173e+18,106.05411733398437,22.206439590454103,41.36043853759766,18.863639450073244,1.6887024180391173e+18,106.05411733398437,-232.33435668945313,136.8254364013672,-114.34815826416016,1.68870241803591e+18,106.05091015625,0.4064225753148396,-0.5649453202883402,-0.6172305345535278,0.3644830783208211,2.918839613596598,1.145029028256734,1.8043516476949055
1.1,1.6887024180878124e+18,106.10281249999998,2.749636729558309,10.11649735768636,2.7159298261006675,1.6887024180878124e+18,106.10281249999998,-0.1310070405403773,0.7637092222770056,1.969492475191752,1.6887024180878124e+18,106.10281249999998,-2.8864897886912027,-9.335283279418944,-0.8091247081756592,1.6887024180791634e+18,106.09416341145834,-1.5678874651590984,-5.739791552225749,1.963117281595866,1.6887024180834867e+18,106.09848673502604,-1.6640478372573853,-5.6097283363342285,1.9239710569381712,,,,,,,,,,,,1.6887024180891192e+18,106.10411923828124,11.42651958465576,44.049319458007815,21.650119400024415,1.6887024180891192e+18,106.10411923828124,-243.1142761230469,139.51432189941406,-111.56167755126953,1.6887024180878124e+18,106.10281249999998,0.5107000470161438,-0.6082480947176615,-0.5143107970555624,0.3209545612335204,2.6798792680104575,1.2632561922073364,1.7444032430648804
1.15,1.6887024181397184e+18,106.15471818033856,-0.5687382618586222,11.84842046101888,2.3540452321370444,1.6887024181397184e+18,106.15471818033856,-2.580459793408712,2.24267299969991,2.000200311342875,1.6887024181397184e+18,106.15471818033856,-2.0175675551096597,-9.588243166605633,-0.4165322681268056,1.6887024181310646e+18,106.1460643717448,-2.090686241785685,-5.4611860911051435,1.4169528484344482,1.6887024181353943e+18,106.1503943684896,-2.0719531774520874,-5.54507843653361,1.409469723701477,,,,,,,,,,,,1.688702418139117e+18,106.15411708984377,0.8003199100494385,46.73331985473633,18.346359634399413,1.688702418139117e+18,106.15411708984377,-253.740478515625,142.1983154296875,-114.86543579101564,1.6887024181397184e+18,106.15471818033856,0.5796471834182739,-0.6522522966066996,-0.3955597579479217,0.2831639349460602,2.6560048262278237,1.38101593653361,1.492858608563741
1.2,1.6887024181916252e+18,106.20662532552085,2.1779074668884277,10.95478598276774,1.0586399932702382,1.6887024181916252e+18,106.20662532552085,1.0055837333202362,1.2031909823417664,1.1996017297108967,1.6887024181916252e+18,106.20662532552085,-1.1781697670618694,-9.734090169270834,0.0782743394374847,1.6887024181829714e+18,106.19797159830728,-1.6838500499725342,-5.228904565175374,1.6749924818674724,1.6887024181872975e+18,106.20229760742188,-1.6679166555404663,-5.060458501180013,1.6851735909779866,,,,,,,,,,,,1.6887024181891213e+18,106.2041213378906,-8.171559810638428,48.15095901489258,12.165839767456054,1.6887024181891213e+18,106.2041213378906,-262.71234741210935,143.61595764160157,-121.04595947265624,1.6887024181916252e+18,106.20662532552085,0.6420321464538574,-0.6796137094497681,-0.2662898302078246,0.2315174688895543,2.846438487370809,1.4972410599390666,1.015643318494161
1.25,1.6887024182348813e+18,106.24988134765628,2.669492244720459,8.054947853088379,-0.4275248050689696,1.6887024182348813e+18,106.24988134765628,2.0787646770477295,-1.7407785058021543,0.146560400724411,1.6887024182348813e+18,106.24988134765628,-0.5965735912322998,-9.77822208404541,0.5113977789878845,1.6887024182348772e+18,106.2498771158854,-0.8381071289380392,-1.9601139028867085,0.7585927993059158,1.688702418239203e+18,106.25420304361978,-0.7073310563961664,-1.5266540795564651,0.6136141198997697,,,,,,,,,,,,1.6887024182391148e+18,106.25411494140626,-12.990559768676755,48.265638732910155,7.585959815979004,1.6887024182391148e+18,106.25411494140626,-267.53135375976564,143.7306365966797,-125.62583618164062,1.6887024182348813e+18,106.24988134765628,0.6735146641731262,-0.6829176843166351,-0.1913712546229362,0.2081186622381209,-1.8317509293556211,1.542792022228241,-0.7370095998048782
1.3,1.6887024182781317e+18,106.29313142903644,0.7043700615564982,3.6066306432088218,3.591088851292928,1.6887024182781317e+18,106.29313142903644,0.0669990181922912,-6.180461486180623,4.255834539731343,1.6887024182781317e+18,106.29313142903644,-0.6432170271873474,-9.769587516784668,0.6020583907763163,1.688702418286777e+18,106.3017771809896,0.2051998178164163,3.851861794789632,-1.5214617351690929,1.6887024182911045e+18,106.30610457356772,0.195833209902048,4.492863019307454,-1.868789474169413,,,,,,,,,,,,1.6887024182891172e+18,106.3041171875,-11.419199752807618,48.63651885986328,8.127639865875244,1.6887024182891172e+18,106.3041171875,-265.9599914550781,144.101513671875,-125.0841567993164,1.6887024182781317e+18,106.29313142903644,0.6656904220581055,-0.6816865007082621,-0.2039441019296645,0.2235632886489232,-1.910757025082906,1.5323750972747805,-0.6163519894083341
1.35,1.688702418330035e+18,106.34503458658854,-2.8053829272588096,-28.694348017374676,21.14325014750163,1.688702418330035e+18,106.34503458658854,-4.890929341316223,-38.17529169718424,22.493131001790363,1.688702418330035e+18,106.34503458658854,-2.091392517089844,-9.463438034057615,1.287193755308787,1.6887024183386816e+18,106.35368155924478,-1.3984233140945437,9.043045202891031,-5.702376047770183,1.688702418334362e+18,106.34936181640626,-1.255251705646515,9.76032829284668,-5.889275550842285,,,,,,,,,,,,1.6887024183391204e+18,106.35412021484376,2.125239896774292,49.161119079589845,7.727479934692383,1.6887024183391204e+18,106.35412021484376,-252.41555786132812,144.62611694335936,-125.48431854248048,1.688702418330035e+18,106.34503458658854,0.5502180258433024,-0.6896990935007731,-0.3317350447177886,0.3239853779474894,-2.6963245073954263,1.3726312319437664,0.5282275279362997
1.4,1.6887024183819354e+18,106.39693530273438,-4.064088662465413,-5.7022097905476885,1.2779816786448162,1.6887024183819354e+18,106.39693530273438,-7.877371311187744,-14.156736056009928,4.519244233767192,1.6887024183819354e+18,106.39693530273438,-3.8191285133361816,-8.437021891276041,3.178575038909912,1.6887024183905882e+18,106.40558813476564,-2.5317819118499756,2.162666497131189,-3.1778738101323447,1.688702418377612e+18,106.39261206054688,-2.4038565158843994,4.0450988213221235,-4.125173012415568,,,,,,,,,,,,1.6887024183891177e+18,106.40411762695312,16.516359710693358,47.11396026611328,0.3123199924826622,1.6887024183891177e+18,106.40411762695312,-238.0244384765625,142.5789581298828,-132.89947814941405,1.6887024183819354e+18,106.39693530273438,0.3751907447973887,-0.7115390102068583,-0.4241695205370585,0.4144490559895833,-2.515114704767863,1.0900351603825886,0.6882641315460205
1.45,1.6887024184338422e+18,106.4488420410156,16.97622267405192,-6.583482424418132,-5.017352898915608,1.6887024184338422e+18,106.4488420410156,11.217552661895752,-13.518251419067385,-1.3423735698064168,1.6887024184338422e+18,106.4488420410156,-5.764517307281494,-6.917264620463054,3.612292130788167,1.688702418442491e+18,106.45749096679688,-5.5743489265441895,-10.612052917480469,-2.4500787258148193,1.68870241842952e+18,106.44452026367188,-5.219792604446411,-8.831991245349249,-4.096564133961995,,,,,,,,,,,,1.6887024184391153e+18,106.45411528320312,25.45407943725586,42.90251922607422,-4.17239990234375,1.6887024184391153e+18,106.45411528320312,-229.0867156982422,138.36752014160157,-137.38419494628906,1.6887024184338422e+18,106.4488420410156,0.3029580116271972,-0.8063904841740926,-0.3588567276795705,0.343189333875974,-2.6050542195638022,0.8407883246739706,0.5878610213597616
1.5,1.68870241848575e+18,106.50075,27.164783000946045,-7.895838578542073,-3.5952698787053428,1.68870241848575e+18,106.50075,20.619751453399655,-14.46880022684733,-0.4177469412485758,1.68870241848575e+18,106.50075,-6.550877094268799,-6.555457433064778,3.114835500717163,1.6887024184857503e+18,106.50075024414062,-1.3114513456821442,4.895703077316284,2.5756369829177856,1.688702418481421e+18,106.4964208170573,-1.9995146294434865,1.2891292572021484,2.7957774798075357,,,,,,,,,,,,1.6887024184891195e+18,106.50411962890624,26.583799362182617,42.59019927978515,-4.111399900913239,1.6887024184891195e+18,106.50411962890624,-227.95699768066407,138.0551971435547,-137.3231964111328,1.68870241848575e+18,106.50075,0.3341028491655985,-0.87274698416392,-0.2400800685087839,0.2588979552189508,-2.712470610936483,0.7866838574409485,0.3545669317245483
1.55,1.6887024185376543e+18,106.552654296875,-0.8005908330281576,2.9043045043945312,-5.733749071756999,1.6887024185376543e+18,106.552654296875,-5.670590877532959,-4.582853635152181,-1.6189439296722412,1.6887024185376543e+18,106.552654296875,-4.875846068064372,-7.469653447469075,4.052117586135864,1.6887024185290015e+18,106.5440018717448,0.9355910420417786,2.6134851376215615,2.908074935277303,1.6887024185333256e+18,106.54832543945314,1.0571532249450684,2.2493585546811423,2.9699250062306723,,,,,,,,,,,,1.6887024185391158e+18,106.55411572265623,18.229239654541015,45.86467819213867,-7.42491979598999,1.6887024185391158e+18,106.55411572265623,-236.31155395507812,141.32967834472657,-140.6367156982422,1.6887024185376543e+18,106.552654296875,0.3733926912148793,-0.8155006965001425,-0.2633560995260874,0.3542805314064026,-2.457920948664347,0.9207013448079427,0.2744501034418742
1.6,1.6887024185895583e+18,106.60455834960938,-2.0276688734690347,3.527019659678141,-7.056630611419678,1.6887024185895583e+18,106.60455834960938,-5.49372132619222,-4.968297402064006,-3.5236307779947915,1.6887024185895583e+18,106.60455834960938,-3.4718984762827554,-8.47781244913737,3.470312515894572,1.6887024185809042e+18,106.5959043782552,1.1604403456052144,-0.9630290617545446,3.8001417318979898,1.6887024185852334e+18,106.60023331705727,1.10765141248703,-1.2331842531760533,3.9030725955963135,,,,,,,,,,,,1.6887024185891192e+18,106.6041193359375,9.764879894256593,48.751197814941406,-5.133759880065918,1.6887024185891192e+18,106.6041193359375,-244.77591552734376,144.21619567871093,-138.345556640625,1.6887024185895583e+18,106.60455834960938,0.4578502277533213,-0.7708594997723898,-0.2563097874323526,0.3597259918848673,-2.3524208863576255,1.0995434919993083,0.1405163407325744
1.65,1.6887024186414646e+18,106.65646484375,12.532669623692833,-15.981231371561686,-3.317406177520752,1.6887024186414646e+18,106.65646484375,10.555538336435951,-25.299513816833496,-0.914058287938436,1.6887024186414646e+18,106.65646484375,-1.982977509498596,-9.300777753194174,2.3406604528427124,1.6887024186328082e+18,106.64780802408856,2.2905410528182983,-0.6864597797393799,3.495370785395304,1.6887024186371382e+18,106.65213834635416,2.6865853865941367,0.5642867883046468,2.9308805763721466,,,,,,,,,,,,1.6887024186391196e+18,106.65411953125,-1.0077200174331664,49.885799407958984,-1.107759994268417,1.6887024186391196e+18,106.65411953125,-255.5485107421875,145.35079956054688,-134.3195556640625,1.6887024186414646e+18,106.65646484375,0.5563301841417948,-0.7227700153986613,-0.2407771597305933,0.3294370969136556,-2.237648884455363,1.3028249740600586,-0.0653709645072619
1.7,1.6887024186847168e+18,106.699716796875,-5.393784761428833,-25.846948623657227,5.605968952178955,1.6887024186847168e+18,106.699716796875,-7.369893908500671,-35.34199142456055,7.234699249267578,1.6887024186847168e+18,106.699716796875,-1.9819551706314087,-9.477537631988524,1.5660427808761597,1.6887024186847127e+18,106.6997127278646,3.4862587451934814,14.508711179097494,-4.745761156082153,1.6887024186890424e+18,106.70404239908856,3.1728340784708657,14.059165636698404,-5.442707538604736,,,,,,,,,,,,1.688702418689123e+18,106.7041232421875,3.4062398850917814,48.78779983520508,8.181319904327392,1.688702418689123e+18,106.7041232421875,-251.13456115722656,144.25279846191407,-125.03047943115234,1.6887024186847168e+18,106.699716796875,0.4752528965473175,-0.6273656189441681,-0.4423548728227615,0.4241697937250137,-2.58295214176178,1.3522859811782837,0.7736673951148987
1.75,1.6887024187279706e+18,106.74297045898436,9.976458549499512,-5.349654356638591,3.123806158701578,1.6887024187279706e+18,106.74297045898436,5.862215876579284,-14.035699367523192,5.042076110839844,1.6887024187279706e+18,106.74297045898436,-4.1200887362162275,-8.668540636698404,1.855582594871521,1.6887024187366175e+18,106.75161726888022,0.7843509564797083,1.996104081471761,-5.1161491473515825,1.6887024187409428e+18,106.75594278971356,0.6253732840220133,0.9088656902313232,-4.187684714794159,,,,,,,,,,,,1.6887024187391176e+18,106.75411762695312,24.53907928466797,42.82687835693359,8.347239875793457,1.6887024187391176e+18,106.75411762695312,-230.00171508789063,138.29187927246093,-124.86455841064452,1.6887024187279706e+18,106.74297045898436,0.3072865605354308,-0.5827219088872274,-0.6091294089953104,0.4383631745974223,-2.8169535795847573,1.1069389979044597,1.408904989560445
1.8,1.688702418779875e+18,106.79487483723956,3.6833791732788086,6.620114008585612,2.091045300165812,1.688702418779875e+18,106.79487483723956,-0.8241280019283295,-2.0135602752367654,3.345963637034098,1.688702418779875e+18,106.79487483723956,-4.51335334777832,-8.616169929504395,1.1922309199968977,1.688702418788525e+18,106.80352522786455,-1.0658580164114635,-6.928128083546956,3.092607100804647,1.688702418784201e+18,106.79920104980468,-0.9078984558582306,-7.131928205490112,3.0569987297058105,,,,,,,,,,,,1.6887024187891174e+18,106.80411728515624,22.10395965576172,43.202639770507815,12.644079780578611,1.6887024187891174e+18,106.80411728515624,-232.43683166503905,138.66763916015626,-120.56771850585938,1.688702418779875e+18,106.79487483723956,0.3465733329455058,-0.6151718298594157,-0.5903463761011759,0.3872542877991994,-2.995884339014689,1.0898251136144002,1.4419658581415813
1.85,1.688702418831779e+18,106.84677937825522,3.3553946812947593,10.874258041381836,1.0238858262697856,1.688702418831779e+18,106.84677937825522,0.1008973543842633,1.6416757504145305,1.826122482617696,1.688702418831779e+18,106.84677937825522,-3.260343392690023,-9.21507771809896,0.7395492792129517,1.6887024188404247e+18,106.85542496744792,-2.371480703353882,-6.041508197784424,3.1030936241149902,1.6887024188274547e+18,106.84245475260416,-2.1836905082066855,-6.251696904500325,3.345759868621826,,,,,,,,,,,,1.6887024188391153e+18,106.85411538085938,9.51599988937378,47.284759521484375,13.695719909667968,1.6887024188391153e+18,106.85411538085938,-245.02479553222656,142.7497589111328,-119.51607818603516,1.688702418831779e+18,106.84677937825522,0.4754236340522766,-0.6648727258046468,-0.4586413204669952,0.3449634810288747,-3.057553847630819,1.2560339371363325,1.1440570553143818
1.9,1.6887024188836792e+18,106.89867928059896,1.756673773129781,11.377837181091309,0.2361548741658528,1.6887024188836792e+18,106.89867928059896,-0.5509474215408167,1.8995023965835571,1.453240950902303,1.6887024188836792e+18,106.89867928059896,-2.313467184702555,-9.460830052693684,1.1543986797332764,1.6887024188923348e+18,106.90733479817708,-2.175342003504435,-5.7400461832682295,1.8769852717717488,1.6887024188793536e+18,106.894353515625,-2.393420934677124,-5.901925404866536,2.1981986363728843,,,,,,,,,,,,1.6887024188891177e+18,106.9041177246094,-0.1122399926185608,49.53443908691406,8.966999816894532,1.6887024188891177e+18,106.9041177246094,-254.6530334472656,144.9994384765625,-124.2447982788086,1.6887024188836792e+18,106.89867928059896,0.558530867099762,-0.7050087054570516,-0.3132902383804321,0.3010992904504139,-2.7622110843658447,1.3600046634674072,0.5258474151293436
1.95,1.6887024189355868e+18,106.95058699544272,13.04583328962326,5.1840189297993975,-0.3462677796681722,1.6887024189355868e+18,106.95058699544272,11.727422992388409,-4.420939127604167,1.2434701522191365,1.6887024189355868e+18,106.95058699544272,-1.3242561221122742,-9.587453524271648,1.527050534884135,1.6887024189355894e+18,106.95058947753908,0.1928043514490127,5.58002495765686,2.3883304595947266,1.6887024189312602e+18,106.94626000976564,-0.2036726648608843,3.067917982737223,2.048129359881083,,,,,,,,,,,,1.6887024189391183e+18,106.95411831054687,-6.002399921417236,49.280679321289064,6.875919818878174,1.6887024189391183e+18,106.95411831054687,-260.5431884765625,144.7456787109375,-126.33587646484376,1.6887024189355868e+18,106.95058699544272,0.5969854791959127,-0.6895108620325724,-0.2610897372166315,0.3120298981666565,-2.1851704518000283,1.4182804028193157,-0.1183151354392369
2.0,1.688702418987493e+18,107.0024931640625,-4.395699739456177,2.387732982635498,6.818382104237874,1.688702418987493e+18,107.0024931640625,-4.640680154164632,-7.364509741465251,8.048258781433105,1.688702418987493e+18,107.0024931640625,-0.2508265326420466,-9.734738032023111,1.1671889821688337,1.6887024189788378e+18,106.99383772786456,1.6632333596547444,8.343095938364664,0.3853032787640889,1.6887024189831685e+18,106.99816829427084,1.6788613398869832,8.15693442026774,0.1006909509499867,,,,,,,,,,,,1.688702418989121e+18,107.0041211425781,-5.555879926681518,48.68531951904297,12.292719841003418,1.688702418989121e+18,107.0041211425781,-260.0966735839844,144.1503173828125,-120.91907806396485,1.688702418987493e+18,107.0024931640625,0.5597226619720459,-0.5843174457550049,-0.3947180112202961,0.4316063622633616,-1.565587878227234,1.5076178312301636,-0.3250012720624605
2.05,1.6887024190393976e+18,107.0543974609375,-6.253154118855794,-26.673051834106445,16.974242210388184,1.6887024190393976e+18,107.0543974609375,-7.84526777267456,-36.21437454223633,18.539390563964844,1.6887024190393976e+18,107.0543974609375,-1.5979596376419067,-9.523817698160808,1.5024614532788594,1.688702419030746e+18,107.04574609375,-1.966986099878947,0.2733623087406158,-4.048356691996257,1.6887024190350671e+18,107.05006713867188,-2.3451117165386677,-0.5842926104863487,-4.289750337600708,1.688702419035073e+18,107.05007299804689,0.0,0.0,1.1285518407821655,7.392000198364258,2.6283981800079346,270.8153381347656,43.300641567690974,-122.7530758,49.18882,1.6887024190391155e+18,107.0541154296875,3.7649199247360223,48.48279800415039,12.178039741516113,1.6887024190391155e+18,107.0541154296875,-250.77587280273437,143.9477966308594,-121.03375701904297,1.6887024190393976e+18,107.0543974609375,0.4775709112485249,-0.5988452434539795,-0.4610289235909779,0.4456203877925873,-2.5691120624542236,1.3975303570429485,0.8273667295773824
2.1,1.688702419091299e+18,107.106298828125,0.510092576344808,-3.719740867614746,1.971028208732605,1.688702419091299e+18,107.106298828125,-3.3603206475575766,-12.431112289428713,4.342773715655009,1.688702419091299e+18,107.106298828125,-3.8762592474619546,-8.693867047627768,2.3090580304463706,1.688702419082651e+18,107.09765079752604,-2.568841060002645,-4.239099423090617,-3.4184019565582275,1.6887024190869737e+18,107.10197371419272,-2.5020531018575034,-4.319224675496419,-3.221092462539673,,,,,,,,,,,,1.6887024190891185e+18,107.10411826171875,13.644479560852051,48.08995895385742,6.480639934539795,1.6887024190891185e+18,107.10411826171875,-240.8963165283203,143.5549560546875,-126.73115692138671,1.688702419091299e+18,107.106298828125,0.4228140612443288,-0.717925230662028,-0.4101849993069966,0.3685890833536783,-2.682469050089518,1.1459993521372478,0.7385455965995789
2.15,1.688702419134556e+18,107.14955590820313,2.7548383474349976,-2.0437204837799072,-1.2434698343276978,1.688702419134556e+18,107.14955590820313,-2.4729822874069214,-10.048658847808838,1.043868899345398,1.688702419134556e+18,107.14955590820313,-5.233666658401489,-7.987433671951294,2.224651336669922,1.6887024191345518e+18,107.14955183919272,-3.0514756043752036,-7.006980737050374,-3.0258700847625732,1.6887024191388762e+18,107.1538760579427,-3.104468027750651,-7.964970111846924,-3.7402769724527993,,,,,,,,,,,,1.6887024191391194e+18,107.15411928710937,18.47079963684082,46.738198852539064,3.9161999225616455,1.6887024191391194e+18,107.15411928710937,-236.0699951171875,142.2031982421875,-129.29559631347655,1.688702419134556e+18,107.14955590820313,0.4087183773517608,-0.7976073324680328,-0.3364367187023163,0.2874311953783035,-2.7900712490081787,1.009058117866516,0.6028235852718353
2.2,1.6887024191777984e+18,107.19279817708332,49.75597127278646,-13.586875915527344,7.281541188557942,1.6887024191777984e+18,107.19279817708332,42.52883338928223,-20.166908899943035,7.596613486607869,1.6887024191777984e+18,107.19279817708332,-7.232982476552327,-6.562528769175212,0.252384642759959,1.6887024191864563e+18,107.20145629882812,-1.3652328650156658,-4.868086655934651,-1.83519184589386,1.6887024191907845e+18,107.20578426106772,-1.194292465845744,-2.5611542463302612,-0.3898338476816813,,,,,,,,,,,,1.6887024191891154e+18,107.2041154296875,26.788759613037108,42.32179946899414,8.437519836425782,1.6887024191891154e+18,107.2041154296875,-227.75203552246097,137.78679809570312,-124.77427825927734,1.6887024191777984e+18,107.19279817708332,0.3718962073326111,-0.892760177453359,-0.2263770500818888,0.0968193958202997,1.0553984642028809,0.7912805875142416,0.4912478725115458
2.25,1.6887024192297157e+18,107.24471565755208,2.6099557876586914,-1.7045567830403645,-0.7228360772132874,1.6887024192297157e+18,107.24471565755208,-3.621936003367106,-9.007182439168295,1.1359925270080566,1.6887024192297157e+18,107.24471565755208,-6.237737655639648,-7.285120964050293,1.7961412072181702,1.6887024192383644e+18,107.25336458333334,-0.3074179192384084,7.700465361277263,3.6469673315684,1.6887024192426906e+18,107.25769067382812,-0.155872439344724,7.337611675262451,3.7432294686635337,,,,,,,,,,,,1.6887024192391178e+18,107.25411782226564,21.64035949707031,45.44499893188477,2.28384001404047,1.6887024192391178e+18,107.25411782226564,-232.9004333496094,140.90999450683594,-130.9279586791992,1.6887024192297157e+18,107.24471565755208,0.395260880390803,-0.860872725645701,-0.2404815951983133,0.2019628336032231,-2.880268176396688,0.8947173754374186,0.4150713682174682
2.3,1.6887024192816187e+18,107.29661865234374,-4.082087914148967,4.473626295725505,-3.874960422515869,1.6887024192816187e+18,107.29661865234374,-8.002595742543539,-3.9557345708211265,-0.714257538318634,1.6887024192816187e+18,107.29661865234374,-3.926353931427002,-8.411856333414713,3.098015387852987,1.6887024192902656e+18,107.30526546223956,1.3737341165542605,1.762244462966919,4.494899272918701,1.6887024192859392e+18,107.30093933105468,1.304426372051239,2.5031731128692627,4.385707139968872,,,,,,,,,,,,1.688702419289118e+18,107.30411806640625,11.304519844055177,48.54867935180664,-1.07603999376297,1.688702419289118e+18,107.30411806640625,-243.2362762451172,144.01367797851563,-134.28783569335937,1.6887024192816187e+18,107.29661865234374,0.4466221928596496,-0.7760805686314901,-0.2827728688716888,0.3419420917828877,-2.4843599796295166,1.0918056170145671,0.287241185704867
2.35,1.6887024193335196e+18,107.3485196940104,-5.385817011197408,-1.1878342628479004,-4.5759663581848145,1.6887024193335196e+18,107.3485196940104,-7.196812788645427,-10.582258065541586,-2.413161595662435,1.6887024193335196e+18,107.3485196940104,-1.8168418804804485,-9.37691911061605,2.100117325782776,1.6887024193421688e+18,107.3571688639323,2.503478527069092,-4.600375254948934,5.297168890635173,1.6887024193291983e+18,107.34419848632812,2.194533387819926,-3.8697804609934487,5.418985525767009,,,,,,,,,,,,1.688702419339119e+18,107.35411918945312,-2.769399976730347,49.62959976196289,2.8962799429893495,1.688702419339119e+18,107.35411918945312,-257.31018981933596,145.09459838867187,-130.31551513671874,1.6887024193335196e+18,107.3485196940104,0.566532830397288,-0.7107087771097819,-0.2545783172051112,0.3256202340126037,-2.206134080886841,1.3404932419459026,-0.0823543096582094
2.4,1.6887024193854277e+18,107.4004276529948,15.99248949686686,-24.312029202779133,1.1296645800272624,1.6887024193854277e+18,107.4004276529948,15.283556779225668,-34.083564122517906,1.7830517292022705,1.6887024193854277e+18,107.4004276529948,-0.714779277642568,-9.754030227661133,0.5906997919082642,1.6887024193854234e+18,107.40042321777344,2.8170814514160156,6.045351415872574,-1.336191475391388,1.6887024193810993e+18,107.39609920247396,2.767372210820516,4.2221988042195635,-0.3664173682530721,,,,,,,,,,,,1.6887024193891172e+18,107.40411713867188,-10.399279737472536,47.94111862182617,11.1141996383667,1.6887024193891172e+18,107.40411713867188,-264.94008178710936,143.40611572265624,-122.09759826660157,1.6887024193854277e+18,107.4004276529948,0.63667231798172,-0.6591663161913554,-0.275192896525065,0.2822964092095693,0.0793853998184204,1.510701100031535,-0.3139480948448181
2.45,1.6887024194373325e+18,107.45233260091148,6.998269399007161,-11.766741116841636,4.443241039911906,1.6887024194373325e+18,107.45233260091148,3.765704631805419,-20.94238249460856,5.60299363732338,1.6887024194373325e+18,107.45233260091148,-3.238410790761312,-9.158137003580729,1.0970650911331177,1.68870241942868e+18,107.44368017578124,1.2963069677352903,14.331153551737469,-7.191360155741374,1.6887024194330002e+18,107.44800016276042,1.337031324704488,13.391693433125814,-6.932048161824544,,,,,,,,,,,,1.6887024194391163e+18,107.45411625976564,15.345159769058228,45.29859924316406,13.478559875488282,1.6887024194391163e+18,107.45411625976564,-239.1956329345703,140.7635986328125,-119.73323669433594,1.6887024194373325e+18,107.45233260091148,0.4130257467428843,-0.6067682107289633,-0.5359325210253397,0.4051375091075897,-2.985532283782959,1.2382393678029378,1.3356919288635254
2.5,1.6887024194892326e+18,107.50423258463542,0.4925024509429931,4.483501434326172,1.1401766935984294,1.6887024194892326e+18,107.50423258463542,-3.535594940185547,-4.447659095128377,1.7306090493996935,1.6887024194892326e+18,107.50423258463542,-4.03394341468811,-8.913655916849772,0.5277449752514561,1.6887024194805862e+18,107.49558634440103,1.137991060813268,-3.9359575112660727,0.2521854837735494,1.688702419484912e+18,107.49991186523438,0.9405288721124332,-4.878624399503072,0.7669922510782877,,,,,,,,,,,,1.6887024194891205e+18,107.50412036132812,21.206039810180663,42.57068023681641,16.304079818725587,1.6887024194891205e+18,107.50412036132812,-233.3347595214844,138.03567504882812,-116.9077163696289,1.6887024194892326e+18,107.50423258463542,0.3881024519602458,-0.5946682095527649,-0.5897165934244791,0.3815025885899861,1.0337848663330078,1.152092456817627,1.5726269880930583
2.55,1.6887024195411382e+18,107.55613810221357,2.718389908472697,10.148804346720375,2.510751247406006,1.6887024195411382e+18,107.55613810221357,-0.1128614619374275,0.7557331522305807,2.2378873427708945,1.6887024195411382e+18,107.55613810221357,-2.8370973269144693,-9.375566800435385,-0.335551251967748,1.6887024195324823e+18,107.54748209635416,-1.1500556468963623,-6.8081440925598145,2.7997990449269614,1.6887024195368164e+18,107.55181656901044,-1.272177755832672,-6.642904917399089,2.7971010208129883,1.6887024195541184e+18,107.56911840820312,0.0,0.0,1.1439526081085205,7.400000095367432,2.583173990249634,268.9437255859375,43.20335924797861,-122.7531004,49.1888174,1.688702419539114e+18,107.55411396484374,8.991399765014648,44.95699920654297,20.247119903564453,1.688702419539114e+18,107.55411396484374,-245.54939880371097,140.4220001220703,-112.9646774291992,1.6887024195411382e+18,107.55613810221357,0.5177157123883566,-0.6347428361574808,-0.4754103521505992,0.3172478079795837,2.808356761932373,1.2915436029434204,1.5384950637817385
2.6,1.6887024195843953e+18,107.59939501953124,-0.1276086568832397,12.081371307373049,1.544943630695343,1.6887024195843953e+18,107.59939501953124,-1.950150489807129,2.428116798400879,1.4883356690406797,1.6887024195843953e+18,107.59939501953124,-1.8283878564834597,-9.63575029373169,-0.1192953372374177,1.6887024195843945e+18,107.59939453125,-1.977370778719584,-5.506746610005696,2.029650688171387,1.6887024195887173e+18,107.60371728515626,-1.992082436879476,-5.5202873547871905,1.9652553002039592,,,,,,,,,,,,1.6887024195891205e+18,107.60412045898438,-2.039840005338192,47.113958740234374,17.267879676818847,1.6887024195891205e+18,107.60412045898438,-256.5806396484375,142.578955078125,-115.94391784667968,1.6887024195843953e+18,107.59939501953124,0.5901969969272614,-0.6608183979988098,-0.3666255176067352,0.2826655060052871,2.755329728126526,1.4152995347976685,1.3437833786010742
2.65,1.6887024196276485e+18,107.64264819335938,0.3346135020256042,11.471702257792154,0.9901084303855896,1.6887024196276485e+18,107.64264819335938,-0.8059824307759603,1.7232311169306438,1.4329019784927368,1.6887024196276485e+18,107.64264819335938,-1.1464419762293498,-9.730966885884603,0.3801061709721883,1.688702419636299e+18,107.65129915364582,-1.7582738002141316,-5.064938227335612,1.9192876815795896,1.6887024196406254e+18,107.65562556966148,-1.6993252833684285,-4.846350351969401,1.9228001832962036,,,,,,,,,,,,1.6887024196391173e+18,107.6541173828125,-10.91167984008789,47.90451889038086,10.857999801635742,1.6887024196391173e+18,107.6541173828125,-265.4524719238281,143.36951599121093,-122.35379943847656,1.6887024196276485e+18,107.64264819335938,0.6414018670717875,-0.6817209323247274,-0.253849521279335,0.2400986601909001,-0.8437369664510092,1.5042972962061565,0.5111651668945948
2.7,1.6887024196795525e+18,107.69455240885416,2.239354928334554,8.440542856852213,-1.09889817237854,1.6887024196795525e+18,107.69455240885416,1.9130616982777913,-1.3403794765472412,-0.1579263011614481,1.6887024196795525e+18,107.69455240885416,-0.3321392039457957,-9.763417879740397,0.8782844742139181,1.688702419688202e+18,107.70320198567708,-0.4831944157679875,-1.0993029475212095,0.9797260264555612,1.688702419692529e+18,107.7075290527344,-0.3966042697429657,-0.6786712606747946,0.8265006790558497,,,,,,,,,,,,1.6887024196891192e+18,107.7041193359375,-16.377279853820802,47.64587936401367,6.1975998878479,1.6887024196891192e+18,107.7041193359375,-270.91807861328124,143.11087646484376,-127.01419677734376,1.6887024196795525e+18,107.69455240885416,0.6850932041803995,-0.679192324479421,-0.1597753067811329,0.2088428785403568,-1.2230851650238037,1.4996170202891033,-1.3907322486241658
2.75,1.6887024197314542e+18,107.74645418294271,0.2945468028386434,1.4236051241556804,4.172125856081645,1.6887024197314542e+18,107.74645418294271,0.0448654095331827,-8.34756135940552,5.231308619181315,1.6887024197314542e+18,107.74645418294271,-0.2555274193485577,-9.753662109375,0.9964950879414876,1.688702419740108e+18,107.75510815429688,0.0114028193056583,4.9789590040842695,-2.679916709661484,1.6887024197357798e+18,107.75077966308592,0.0968221388757228,4.207792401313782,-1.768149435520172,,,,,,,,,,,,1.688702419739118e+18,107.75411787109374,-15.67455940246582,47.8849983215332,6.709999847412109,1.688702419739118e+18,107.75411787109374,-270.21535034179686,143.3499969482422,-126.50179901123047,1.6887024197314542e+18,107.74645418294271,0.6779706875483195,-0.6727921962738037,-0.1783690998951593,0.2340053468942642,-1.2152211268742878,1.4882082144419353,-1.3337753613789876
2.8,1.6887024197833613e+18,107.79836100260415,-6.559672991434733,-31.90286127726237,23.594776153564453,1.6887024197833613e+18,107.79836100260415,-9.124032020568848,-41.178284327189125,25.363920211791992,1.6887024197833613e+18,107.79836100260415,-2.570205052693685,-9.25791835784912,1.7064568599065144,1.6887024197920115e+18,107.8070116373698,-0.7096727192401886,8.415788491566977,-7.601199626922607,1.6887024197790374e+18,107.79403743489584,-0.4578944146633148,8.936754862467447,-7.603490670522054,,,,,,,,,,,,1.688702419789117e+18,107.80411674804688,1.881240081787109,48.92199859619141,7.607919788360595,1.688702419789117e+18,107.80411674804688,-252.65955505371093,144.38699951171876,-125.60387878417968,1.6887024197833613e+18,107.79836100260415,0.5225655833880106,-0.7061141530672709,-0.3329426348209381,0.3317643801371256,-2.591336965560913,1.3078702290852864,0.4424562652905782
2.85,1.6887024198352684e+18,107.85026831054688,-5.128373781840007,0.7453625996907552,-5.997925360997518,1.6887024198352684e+18,107.85026831054688,-9.732606728871664,-7.255038420359294,-2.6400810877482095,1.6887024198352684e+18,107.85026831054688,-4.6100789705912275,-7.982896486918132,3.2951573530832925,1.688702419835256e+18,107.85025598144532,-2.2098050117492676,2.6063328981399536,-3.75292694568634,1.6887024198309376e+18,107.84593766276042,-2.110844810803731,3.121623277664185,-4.2596142292022705,,,,,,,,,,,,1.6887024198391186e+18,107.85411855468752,19.210119438171382,46.013519287109375,2.200879991054535,1.6887024198391186e+18,107.85411855468752,-235.33067626953124,141.478515625,-131.01092224121095,1.6887024198352684e+18,107.85026831054688,0.3467024167378743,-0.7390055656433105,-0.4243911206722259,0.3903947869936625,-2.5857113202412925,1.0061044096946716,0.7318748831748962
2.9,1.6887024198871703e+18,107.90217032877604,30.15857187906901,-8.136529286702475,7.424681742986043,1.6887024198871703e+18,107.90217032877604,23.173091252644856,-14.764114697774252,8.162117232879003,1.6887024198871703e+18,107.90217032877604,-6.991325378417969,-6.610081036885579,0.6747479538122813,1.6887024198785208e+18,107.89352099609374,-4.584034601847331,-18.05386765797933,-2.1194477876027427,1.688702419882846e+18,107.89784594726564,-4.398484388987224,-18.289813995361328,-1.7297667264938354,,,,,,,,,,,,1.6887024198891177e+18,107.90411767578124,26.454479598999026,42.3803596496582,5.826719927787781,1.6887024198891177e+18,107.90411767578124,-228.08631591796876,137.8453582763672,-127.38507690429688,1.6887024198871703e+18,107.90217032877604,0.3570508062839508,-0.8727648854255676,-0.2660090923309326,0.1334233426411325,-0.9839173158009848,0.7956189115842184,0.5646870831648508
2.95,1.688702419939075e+18,107.95407503255208,16.84642267227173,-0.8033308982849121,2.8407960335413613,1.688702419939075e+18,107.95407503255208,10.05703337987264,-7.845865885416667,2.9341986974080405,1.688702419939075e+18,107.95407503255208,-6.795236587524414,-7.025030295054118,0.0307152376820643,1.6887024199304246e+18,107.94542472330733,-1.2628620862960815,3.9883391857147217,1.195819636185964,1.6887024199347515e+18,107.94975179036456,-1.0726284583409629,5.288005858659744,1.1940888563791912,,,,,,,,,,,,1.6887024199391176e+18,107.95411767578123,22.099079895019532,44.41775970458984,9.725839710235595,1.6887024199391176e+18,107.95411767578123,-232.44171752929688,139.88275756835938,-123.48595581054688,1.688702419939075e+18,107.95407503255208,0.4064030051231384,-0.8884492913881937,-0.1897196918725966,0.0792815405875444,1.0282917817433674,0.8546046217282613,0.4281984070936839
3.0,1.6887024199909786e+18,108.0059785970052,0.632321834564209,4.037360668182373,-1.4499204556147258,1.6887024199909786e+18,108.0059785970052,-5.014957427978516,-3.684149265289306,0.758724202712377,1.6887024199909786e+18,108.0059785970052,-5.653125286102295,-7.704005400339763,2.145957271258036,1.6887024199823286e+18,107.99732836914065,0.433307076493899,5.697031021118164,2.3888394435246787,1.6887024199866522e+18,108.0016522623698,0.5441791241367658,5.352808475494385,2.5109616120656333,,,,,,,,,,,,1.6887024199891154e+18,108.00411518554688,19.071039390563964,46.301439666748045,2.845039987564087,1.6887024199891154e+18,108.00411518554688,-235.46975402832032,141.7664367675781,-130.36675720214845,1.6887024199909786e+18,108.0059785970052,0.4151984453201294,-0.8393810391426086,-0.254159058133761,0.2386970569690068,-2.8017170429229736,0.9606051246325176,0.4083661437034607
3.05,1.6887024200342328e+18,108.04923278808592,-2.031770348548889,6.286480188369751,-3.3020083904266357,1.6887024200342328e+18,108.04923278808592,-6.2760748863220215,-2.230409801006317,-0.8291130363941194,1.6887024200342328e+18,108.04923278808592,-4.250150561332703,-8.499385356903076,2.4102078676223755,1.6887024200342344e+18,108.0492345377604,1.278133710225423,1.2000956734021504,3.892891407012939,1.68870242003856e+18,108.05356005859376,1.323032299677531,0.7657704750696818,4.050443808237712,,,,,,,,,,,,1.6887024200391194e+18,108.05411953125,9.8990797996521,49.05863952636719,2.9523999214172365,1.6887024200391194e+18,108.05411953125,-244.64171447753907,144.5236358642578,-130.2593994140625,1.6887024200342328e+18,108.04923278808592,0.461829200387001,-0.7863849103450775,-0.2812298238277435,0.2981535494327545,-2.6539108753204346,1.1069197058677671,0.3814489394426346
3.1,1.688702420077489e+18,108.09248885091148,-2.0736935138702393,-7.946264108022054,-3.9453275203704834,1.688702420077489e+18,108.09248885091148,-4.559324185053508,-17.28415568669637,-2.287538448969523,1.688702420077489e+18,108.09248885091148,-2.4914767742156982,-9.32038720448812,1.5951017538706462,1.6887024200861294e+18,108.10112947591146,1.7255924940109253,-1.6491834719975789,4.940474351247151,1.6887024200904645e+18,108.1054647623698,1.8053104480107625,-0.5561927954355875,4.356385509173076,1.6887024200731635e+18,108.08816357421875,0.0,0.0,1.1588523387908936,7.392000198364258,2.6029036045074463,269.7204895019531,43.300641567690974,-122.7531142,49.1888173,1.6887024200891205e+18,108.10412041015624,-3.4965198636054993,49.33923873901367,6.912519931793213,1.6887024200891205e+18,108.10412041015624,-258.0373107910156,144.80423583984376,-126.29927825927734,1.688702420077489e+18,108.09248885091148,0.5599433382352194,-0.7326990365982056,-0.2587706098953883,0.2837635676066081,-2.581289211908976,1.322736342748006,0.2346817751725514
3.15,1.688702420129393e+18,108.14439290364582,13.715081254641214,-28.925928433736164,5.071324427922566,1.688702420129393e+18,108.14439290364582,11.830114960670471,-38.497924168904625,6.157729625701904,1.688702420129393e+18,108.14439290364582,-1.8908127546310425,-9.55449072519938,1.023717761039734,1.6887024201380431e+18,108.15304313151042,2.099594751993815,13.391897201538086,-5.714338938395183,1.688702420142375e+18,108.1573749186198,2.0313305854797363,13.495489438374838,-6.320266405741374,,,,,,,,,,,,1.6887024201391194e+18,108.15411943359376,3.1500399112701416,47.74835891723633,12.382999801635744,1.6887024201391194e+18,108.15411943359376,-251.39075622558593,143.2133544921875,-120.82879791259764,1.688702420129393e+18,108.14439290364582,0.5446406404177347,-0.6605817675590515,-0.3699697653452555,0.3440702358881632,-2.7367125352223716,1.397732694943746,0.665409172574679
3.2,1.688702420181293e+18,108.19629296875,2.6013118426005044,-2.2098212242126465,-0.9066823720932008,1.688702420181293e+18,108.19629296875,-1.6271193822224934,-10.904491583506266,0.8059824556112289,1.688702420181293e+18,108.19629296875,-4.234277327855428,-8.677165667215982,1.649977445602417,1.688702420189947e+18,108.20494694010416,1.2965614795684814,2.394948005676269,-3.5369606415430703,1.688702420185623e+18,108.20062316894531,1.4004085659980774,3.982001557946205,-4.588361501693726,,,,,,,,,,,,1.6887024201891172e+18,108.20411713867188,25.1295597076416,42.5511589050293,11.128839492797852,1.6887024201891172e+18,108.20411713867188,-229.4112335205078,138.0161560058594,-122.082958984375,1.688702420181293e+18,108.19629296875,0.3337622086207072,-0.6057001352310181,-0.5893230040868124,0.4151486853758494,-2.8863436381022134,1.1092617114384968,1.3828401565551758
3.25,1.688702420233205e+18,108.2482052408854,2.1102073192596436,5.777522246042888,2.523697853088379,1.688702420233205e+18,108.2482052408854,-2.2321048180262246,-3.0013972918192544,3.1509485244750977,1.688702420233205e+18,108.2482052408854,-4.348158200581868,-8.761415163675943,0.5645632793505987,1.6887024202418516e+18,108.2568514811198,-0.5193372567494711,-6.949406464894612,2.6706010500590005,1.6887024202288776e+18,108.24387760416666,0.0801760728160539,-6.475426038106282,2.150500218073527,,,,,,,,,,,,1.688702420239119e+18,108.25411918945312,21.08403949737549,42.441358947753905,17.031199836730956,1.688702420239119e+18,108.25411918945312,-233.45675354003907,137.90635681152344,-116.18059844970703,1.688702420233205e+18,108.2482052408854,0.3915934960047404,-0.6232955654462179,-0.5716146230697632,0.3587097028891244,1.042999029159546,1.1215994358062744,1.4885351260503132
