seconds_elapsed_rounded,accelerometer_time,accelerometer_seconds_elapsed,accelerometer_z,accelerometer_y,accelerometer_x,accelerometeruncalibrated_time,accelerometeruncalibrated_seconds_elapsed,accelerometeruncalibrated_z,accelerometeruncalibrated_y,accelerometeruncalibrated_x,gravity_time,gravity_seconds_elapsed,gravity_z,gravity_y,gravity_x,gyroscope_time,gyroscope_seconds_elapsed,gyroscope_z,gyroscope_y,gyroscope_x,gyroscopeuncalibrated_time,gyroscopeuncalibrated_seconds_elapsed,gyroscopeuncalibrated_z,gyroscopeuncalibrated_y,gyroscopeuncalibrated_x,location_time,location_seconds_elapsed,location_bearingAccuracy,location_speedAccuracy,location_verticalAccuracy,location_horizontalAccuracy,location_speed,location_bearing,location_altitude,location_longitude,location_latitude,magnetometer_time,magnetometer_seconds_elapsed,magnetometer_z,magnetometer_y,magnetometer_x,magnetometeruncalibrated_time,magnetometeruncalibrated_seconds_elapsed,magnetometeruncalibrated_z,magnetometeruncalibrated_y,magnetometeruncalibrated_x,orientation_time,orientation_seconds_elapsed,orientation_qz,orientation_qy,orientation_qx,orientation_qw,orientation_roll,orientation_pitch,orientation_yaw
0.0,1.6888761646709896e+18,14.999989583333331,-11.110317548116049,8.170194784800211,3.2383552392323813,1.6888761646709888e+18,14.999988891601562,-4.146163582801819,1.8604196310043335,4.37856650352478,1.6888761646709888e+18,14.999988891601562,4.48010778427124,-8.500104427337646,1.9128224849700928,1.688876164675315e+18,15.004314860026042,2.96692156791687,3.969962179660797,-2.4222334822018943,1.6888761646709888e+18,14.999988891601562,3.5101081132888794,4.02850353717804,-1.6797266900539398,,,,,,,,,,,,1.6888761646700337e+18,14.999033740234376,-36.44627990722656,35.211639404296875,-11.284999752044678,1.6888761646700337e+18,14.999033740234376,-292.0728698730469,130.06663818359374,-144.4114013671875,1.6888761646709888e+18,14.999988891601562,0.8557757437229156,-0.5065529495477676,0.099871840327978,0.0145527371205389,-0.3757715672254562,1.0438108444213867,-2.891063928604126
0.05,1.6888761647228918e+18,15.051891682942708,-5.692964871724446,-5.972757180531819,14.61356004079183,1.6888761647142382e+18,15.04323828125,-2.87477699915568,-11.081959247589111,14.21137237548828,1.6888761647142382e+18,15.04323828125,2.772151152292887,-9.335014661153158,0.7666845122973124,1.688876164727214e+18,15.056214192708332,-2.413528601328532,3.423237959543864,-6.957958857218425,1.6888761647142382e+18,15.04323828125,-1.0586294333140056,4.622722784678142,-6.3290731112162275,,,,,,,,,,,,1.688876164720038e+18,15.04903798828125,-28.78711929321289,42.40963973999023,-1.7763200044631955,1.688876164720038e+18,15.04903798828125,-284.41371459960936,137.26463623046874,-134.90271606445313,1.6888761647142382e+18,15.04323828125,0.7998640338579813,-0.5944700837135315,-0.0029751312298078,0.0579243618994951,-0.2613173921902974,1.2653439044952393,-2.793426195780436
0.1,1.6888761647747878e+18,15.103787760416669,-9.464904626210531,-20.890061060587566,2.545323053995768,1.6888761647661425e+18,15.095142578125,-9.6697948773702,-29.219554901123047,9.460423191388449,1.6888761647661425e+18,15.095142578125,-0.2778871854146321,-9.605609258015951,1.8734906514485676,1.6888761647704684e+18,15.099468383789064,-2.0032562017440796,-1.0207558274269104,-3.758959174156189,1.6888761647661425e+18,15.095142578125,-2.384207089742025,-0.656069298585256,-4.390695770581563,,,,,,,,,,,,1.688876164770032e+18,15.09903212890625,-13.527359771728516,48.80487976074219,-4.916599893569947,1.688876164770032e+18,15.09903212890625,-269.15394897460936,143.65987548828124,-138.04299926757812,1.6888761647661425e+18,15.095142578125,0.6864025990168253,-0.7143406669298807,-0.0066156890243291,0.1323184420665104,-1.6433968544006348,1.3802534739176433,-1.3004884719848633
0.15,1.6888761648266977e+18,15.15569783528646,17.202721277872723,-8.555733998616537,-13.552095890045166,1.6888761648180485e+18,15.147048421223955,12.32662550608317,-20.2552433013916,-10.821540514628092,1.6888761648180485e+18,15.147048421223955,-2.3397425413131714,-9.166006088256836,2.4240469932556152,1.6888761648137172e+18,15.142717041015624,-1.3379475871721904,-2.1219931741555533,-4.938540101051331,1.6888761648180485e+18,15.147048421223955,-1.369254469871521,-1.5448273022969563,-5.212564150492351,,,,,,,,,,,,1.6888761648200364e+18,15.14903642578125,-3.6258399069309233,49.4124397277832,-8.73275966644287,1.6888761648200364e+18,15.14903642578125,-259.25243225097654,144.26744079589844,-141.85915832519532,1.6888761648180485e+18,15.147048421223955,0.6073961853981018,-0.7829074462254842,0.0439806512246528,0.1177345514297484,-2.308178742726644,1.2267077763875325,-0.7275156776110331
0.2,1.6888761648786012e+18,15.207601155598958,11.219528039296469,3.214142163594564,-3.9859423637390137,1.6888761648699507e+18,15.19895068359375,9.268797715504965,-7.772286653518677,-0.6241279045740763,1.6888761648699507e+18,15.19895068359375,-3.565833806991577,-8.587393760681152,3.1230204105377197,1.688876164865626e+18,15.194626302083334,-0.355879900821795,2.617659330368042,-1.099099338054657,1.6888761648699507e+18,15.19895068359375,-0.1686497218906879,2.4447335799535117,-0.6780604521433512,1.6888761648959383e+18,15.224938232421875,0.0,0.0,1.2402942180633545,21.718000411987305,0.505122721195221,180.00070190429688,22.899999618530273,-122.7500944,49.192775,1.6888761648700342e+18,15.19903427734375,7.132119846343994,48.8024398803711,-12.019439888000488,1.6888761648700342e+18,15.19903427734375,-248.49447326660157,143.65743713378907,-145.14584045410157,1.6888761648699507e+18,15.19895068359375,0.5408709645271301,-0.8237593770027161,0.0320043781151373,0.166075587272644,-2.432697614034017,1.077355980873108,-0.5130406419436137
0.25,1.6888761649218583e+18,15.250858276367186,7.347543716430664,7.018662691116333,-6.242337703704834,1.688876164921852e+18,15.25085205078125,3.040679375330607,-1.5477574666341145,-2.002593159675598,1.688876164921852e+18,15.25085205078125,-2.805113156636556,-8.787988662719727,3.314908822377523,1.6888761649175258e+18,15.246525797526042,0.2631302128235499,1.467705527941386,1.6134986877441406,1.688876164921852e+18,15.25085205078125,0.3426953951517741,1.5188655654589336,1.8118263284365337,,,,,,,,,,,,1.688876164920038e+18,15.249038037109376,4.440799808502197,49.173318481445314,-12.109719848632812,1.688876164920038e+18,15.249038037109376,-251.1857940673828,144.0283203125,-145.23611755371093,1.688876164921852e+18,15.25085205078125,0.564641018708547,-0.8009885549545288,0.0100565724739377,0.1976327598094939,-2.280919392903646,1.1213624874750774,-0.587736705938975
0.3,1.688876164965107e+18,15.294107177734375,2.581614375114441,8.276396751403809,-8.004258155822754,1.6888761649737572e+18,15.302757242838544,0.5439683596293131,-1.8462620576222737,-4.4227339426676435,1.6888761649737572e+18,15.302757242838544,-1.2589120268821716,-9.243377367655436,2.9896947542826333,1.688876164969429e+18,15.298428873697915,1.0286461512247722,1.0279334783554075,3.148552179336548,1.6888761649737572e+18,15.302757242838544,1.0125091274579363,0.7984517727357646,3.2312734921773276,,,,,,,,,,,,1.6888761649700352e+18,15.29903515625,-3.264719916880131,49.25627899169922,-10.121119689941406,1.6888761649700352e+18,15.29903515625,-258.89130859375,144.111279296875,-143.24751892089844,1.6888761649737572e+18,15.302757242838544,0.6254804730415344,-0.7501612305641174,-0.0189883749311168,0.2120451678832371,-1.9651593764623003,1.2417169014612834,-0.843664308389028
0.35,1.6888761650170092e+18,15.34600919596354,-3.353633006413778,-7.44775390625,-3.893167853355408,1.6888761650256527e+18,15.354652750651042,-1.2821541627248128,-19.4428809483846,0.4093721161286036,1.6888761650256527e+18,15.354652750651042,0.4668612157305082,-9.482381184895834,2.4152490297953286,1.6888761650213356e+18,15.350335693359376,1.3362168073654177,-2.1789562702178955,4.097633123397827,1.6888761650256527e+18,15.354652750651042,1.4247413873672483,-2.317673643430074,4.153629223505656,,,,,,,,,,,,1.6888761650200358e+18,15.349035888671876,-13.049119758605958,47.919159698486325,-8.1300799369812,1.6888761650200358e+18,15.349035888671876,-268.67571411132815,142.77415771484374,-141.25647888183593,1.6888761650256527e+18,15.354652750651042,0.7033581137657166,-0.6887690822283427,-0.0016520433515931,0.1719168325265248,-1.352616310119629,1.3215929667154949,-1.540874441464742
0.4,1.6888761650689088e+18,15.397908772786458,-1.1392653783162434,-29.82444699605306,11.334723949432371,1.68887616507756e+18,15.406559895833334,0.5507478713989258,-39.52045822143555,14.283157348632812,1.68887616507756e+18,15.406559895833334,2.337618907292684,-9.25079345703125,2.2183265686035156,1.6888761650732378e+18,15.40223771158854,-0.3881030815343061,0.2123774886131286,3.720882018407186,1.68887616507756e+18,15.406559895833334,-0.2963714798291524,0.2601267496744793,3.6678384939829503,,,,,,,,,,,,1.6888761650700385e+18,15.399038134765624,-22.362599182128907,44.83743896484375,-7.851919841766358,1.6888761650700385e+18,15.399038134765624,-277.98919677734375,139.69244079589845,-140.9783172607422,1.68887616507756e+18,15.406559895833334,0.7740956346193949,-0.6148573756217957,0.023441773528854,0.1463243116935093,-0.7381229599316915,1.2393191655476887,-2.2269200483957925
0.45,1.688876165120816e+18,15.449815755208334,-2.6646529038747153,-10.730060895284018,2.436594804128011,1.688876165120816e+18,15.449816284179686,3.2703903317451477,-17.98684787750244,4.5577287673950195,1.688876165120816e+18,15.449816284179686,3.8521361351013184,-8.80488395690918,1.9283331632614136,1.6888761651251397e+18,15.454139567057291,1.224224825700124,-1.127606342236201,4.3871833483378095,1.688876165120816e+18,15.449816284179686,1.223868489265442,-0.5396231021732092,4.6496007442474365,,,,,,,,,,,,1.6888761651200353e+18,15.449035302734371,-30.704958724975587,40.313680267333986,-6.9979198455810545,1.6888761651200353e+18,15.449035302734371,-286.33155517578126,135.1686798095703,-140.12431640625,1.688876165120816e+18,15.449816284179686,0.8254778385162354,-0.5482249557971954,0.0263456758111715,0.1299677491188049,-0.4417575299739837,1.1161938309669497,-2.549294114112854
0.5,1.6888761651727186e+18,15.501718668619793,-10.84745995203654,5.470189571380615,-1.4939241806666057,1.6888761651640689e+18,15.493068684895832,-6.464210430781047,-5.981458425521851,2.5718855287414044,1.6888761651640689e+18,15.493068684895832,5.024821599324544,-8.112429936726889,2.241407593091329,1.688876165177045e+18,15.506044840494791,0.4289801170428594,-3.793829520543417,3.236720403035482,1.6888761651640689e+18,15.493068684895832,0.5173519452412924,-3.4834081331888833,3.560784419377645,,,,,,,,,,,,1.6888761651700332e+18,15.499033251953126,-37.47351989746094,33.735439682006835,-9.384239673614502,1.6888761651700332e+18,15.499033251953126,-293.10011596679686,128.59044036865234,-142.51063842773436,1.6888761651640689e+18,15.493068684895832,0.8663942019144694,-0.484059472878774,0.0753948787848154,0.0898059904575347,-0.3981642027695973,0.9727447430292764,-2.7224695682525635
0.55,1.6888761652246223e+18,15.553622395833337,-6.993910630544026,21.17940330505371,-2.213754177093506,1.688876165215972e+18,15.544971923828124,-0.5808576146761576,13.15234915415446,0.9609177112579346,1.688876165215972e+18,15.544971923828124,5.542944272359212,-7.525810718536377,2.97642191251119,1.6888761652202929e+18,15.549292846679688,-0.1886046417057514,-0.9363037049770356,-0.0139735639095306,1.688876165215972e+18,15.544971923828124,-0.1426370392243067,-1.6073391636212666,0.584750751654307,,,,,,,,,,,,1.6888761652200348e+18,15.549034765625,-39.57435913085938,29.977839279174805,-14.435039710998534,1.6888761652200348e+18,15.549034765625,-295.2009582519531,124.8328353881836,-147.56143798828126,1.688876165215972e+18,15.544971923828124,0.8853936195373535,-0.4397164285182953,0.1432023843129475,0.0465313357611497,-0.4752987126509349,0.8715627590815226,-2.8119490146636963
0.6,1.6888761652765253e+18,15.605525065104167,-9.459450562795004,11.961058298746744,-4.5080610911051435,1.6888761652678697e+18,15.596869710286455,-6.239683787027995,5.922435442606608,-0.8237292170524597,1.6888761652678697e+18,15.596869710286455,4.766088644663493,-7.91972287495931,3.257381518681844,1.6888761652635502e+18,15.59255021158854,0.1932370364665985,-0.6260350743929545,-2.5153903563817344,1.6888761652678697e+18,15.596869710286455,0.3236567775408427,-0.5128213812907537,-2.685821811358134,,,,,,,,,,,,1.6888761652700385e+18,15.599038525390624,-36.890359497070314,32.329999160766604,-16.05519962310791,1.6888761652700385e+18,15.599038525390624,-292.51695556640624,127.18499908447264,-149.1815948486328,1.6888761652678697e+18,15.596869710286455,0.8627899487813314,-0.4762560327847798,0.161474789182345,0.0469805846611658,-0.5817505121231079,0.9388498862584432,-2.730431159337362
0.65,1.688876165328424e+18,15.657423828125,11.720557769139608,-5.746303876241048,-2.5003747940063477,1.6888761653197732e+18,15.648773111979168,11.634102940559387,-10.668399850527445,0.5976074536641439,1.6888761653197732e+18,15.648773111979168,3.8524054686228433,-8.636763254801432,2.5875209172566733,1.6888761653154532e+18,15.644453206380208,1.2956451574961343,1.8074484467506409,-1.5097534656524658,1.6888761653197732e+18,15.648773111979168,1.2659164071083069,1.6680693825085957,-1.0254900058110554,,,,,,,,,,,,1.688876165320037e+18,15.6490373046875,-32.72527885437012,37.329559326171875,-13.737199592590333,1.688876165320037e+18,15.6490373046875,-288.35186767578125,132.18455810546874,-146.86359558105468,1.6888761653197732e+18,15.648773111979168,0.8353673219680786,-0.533376415570577,0.122814044356346,0.046428250769774,-0.5655684073766073,1.07574725151062,-2.687595208485922
0.7,1.6888761653716764e+18,15.70067639160156,-12.937484502792358,-10.061765670776367,-4.496212720870972,1.6888761653716685e+18,15.70066837565104,-6.348757108052571,-19.524436314900715,0.9421738783518472,1.6888761653716685e+18,15.70066837565104,4.2821652094523115,-8.53240966796875,2.254471699396769,1.6888761653673477e+18,15.69634765625,0.5349143346150717,-1.3830497885743778,1.0478884379069011,1.6888761653716685e+18,15.70066837565104,0.5392922063668569,-1.4846570988496144,0.7334455450375875,,,,,,,,,,,,1.6888761653700337e+18,15.699033691406251,-34.41375961303711,36.82203979492188,-11.272799682617189,1.6888761653700337e+18,15.699033691406251,-290.0403564453125,131.67703552246093,-144.39919738769532,1.6888761653716685e+18,15.70066837565104,0.8490858872731527,-0.5150207082430521,0.1132340480883915,0.0278076548129319,-0.4621772468090057,1.0521377722422285,-2.804484605789185
0.75,1.6888761654149235e+18,15.743923583984374,-11.855079809824623,0.4706082344055176,7.2929762204488116,1.688876165423574e+18,15.752574055989584,-6.119843403498332,-5.495516061782837,7.712665716807048,1.688876165423574e+18,15.752574055989584,3.821314732233683,-8.903758684794107,1.4130521217981975,1.6888761654192504e+18,15.74825040690104,2.022269368171692,3.3254996091127396,-1.745038390159607,1.688876165423574e+18,15.752574055989584,1.938020884990692,3.842240571975708,-2.0259345372517905,1.6888761654322266e+18,15.7612265625,0.0,0.0,1.2402942180633545,21.382999420166016,0.4883749783039093,180.00006103515625,22.899999618530273,-122.7500956,49.1927585,1.6888761654200305e+18,15.749030419921874,-33.7378791809082,37.96884002685547,-9.850279617309573,1.6888761654200305e+18,15.749030419921874,-289.3644714355469,132.82383728027344,-142.97667541503907,1.688876165423574e+18,15.752574055989584,0.8357138236363729,-0.5424468119939169,0.0741837552438179,0.0094841666674862,-0.318136379122734,1.134768843650818,-2.917583624521891
0.8,1.688876165466827e+18,15.795826985677085,-4.823257923126221,-3.842258771260579,11.840756257375082,1.6888761654754785e+18,15.804478352864583,-1.7974085609118144,-16.799609184265137,15.015560150146484,1.6888761654754785e+18,15.804478352864583,1.68289581934611,-9.538296699523926,1.2926735480626423,1.688876165471153e+18,15.800152750651042,-2.3952534993489585,3.334306081136068,-6.01432450612386,1.6888761654754785e+18,15.804478352864583,-2.5537221431732178,3.324074109395345,-6.113386631011963,,,,,,,,,,,,1.6888761654700324e+18,15.799032324218752,-25.451639556884764,44.049319458007815,-3.354999876022339,1.6888761654700324e+18,15.799032324218752,-281.07822875976564,138.90431518554686,-136.481396484375,1.6888761654754785e+18,15.804478352864583,0.7612072229385376,-0.6401145060857137,0.0040141618810593,0.0880245603621005,-0.6675383349259695,1.3401246865590413,-2.3544541200002036
0.85,1.6888761655187305e+18,15.84773046875,-10.959538459777832,-19.08705043792725,1.4470098813374836,1.6888761655273807e+18,15.856380777994792,-11.898709297180176,-29.72942606608073,0.1623131036758422,1.6888761655273807e+18,15.856380777994792,-0.6710177138447762,-9.503635724385578,2.279857635498047,1.6888761655230556e+18,15.852055582682292,-1.770185669263204,-0.8861618439356486,-3.651294231414795,1.6888761655273807e+18,15.856380777994792,-1.595223704973857,-1.6441948016484578,-3.580332040786743,,,,,,,,,,,,1.688876165520031e+18,15.849031005859375,-12.234159660339357,48.86343841552734,-6.71487979888916,1.688876165520031e+18,15.849031005859375,-267.8607543945312,143.71843872070312,-139.84127807617188,1.6888761655273807e+18,15.856380777994792,0.6680774887402853,-0.7283974091211954,0.0042361293453723,0.1489124099413553,-1.8208812077840169,1.3341801563898723,-1.1143086552619934
0.9,1.6888761655706348e+18,15.899634765625,19.490664800008137,-6.858714739481608,-11.62308915456136,1.6888761655706322e+18,15.899632080078124,20.5663104057312,-13.695021152496338,-9.952945947647097,1.6888761655706322e+18,15.899632080078124,-2.916483759880066,-9.030298709869385,2.4264525175094604,1.6888761655749614e+18,15.90396150716146,-1.0417797764142354,-0.8292495409647623,-4.980282624562581,1.6888761655706322e+18,15.899632080078124,-1.1485793888568878,-1.9754617512226105,-6.053980112075806,,,,,,,,,,,,1.6888761655700283e+18,15.8990283203125,0.7344399690628052,49.61007843017578,-9.860039901733398,1.6888761655700283e+18,15.8990283203125,-254.89214782714845,144.46507568359374,-142.98643798828124,1.6888761655706322e+18,15.899632080078124,0.5849549174308777,-0.8013942539691925,0.0539948828518389,0.1090843304991721,-2.4477027654647827,1.1841892004013062,-0.6144651174545288
0.95,1.6888761656225324e+18,15.951532307942708,14.192492485046388,5.051266034444173,-4.004249016443889,1.688876165613881e+18,15.942881184895834,11.993026415506998,-5.144967476526896,-0.2981058160463969,1.688876165613881e+18,15.942881184895834,-3.379189729690552,-8.715691566467285,2.9700213273366294,1.6888761656268595e+18,15.955859456380209,0.0551305909951527,0.6982190071915587,0.6869179606437683,1.688876165613881e+18,15.942881184895834,-0.1246165173749129,1.5650876363118489,0.0287615656852721,,,,,,,,,,,,1.688876165620027e+18,15.949027001953125,5.582719802856445,49.08791885375977,-12.202439498901366,1.688876165620027e+18,15.949027001953125,-250.04387512207032,143.9429168701172,-145.3288360595703,1.688876165613881e+18,15.942881184895834,0.5535741249720255,-0.8176433642705282,0.0390943537155786,0.1528327216704686,-2.429798444112142,1.1048087279001872,-0.5462995767593384
1.0,1.688876165674439e+18,16.003438720703127,-0.1247453689575201,5.269848346710205,-6.458691279093425,1.6888761656657892e+18,15.994789225260416,0.9036896228790288,-4.074976921081543,-2.9296125570933023,1.6888761656657892e+18,15.994789225260416,-2.5474042097727456,-8.94104035695394,3.1004024346669516,1.6888761656701153e+18,15.999115234375,0.4433354483917355,3.2197179794311523,2.271044373512268,1.6888761656657892e+18,15.994789225260416,0.3383175283670425,2.384512464205424,1.839417000611623,,,,,,,,,,,,1.68887616567003e+18,15.999030175781252,1.7201999962329864,49.18551864624023,-11.748599815368651,1.68887616567003e+18,15.999030175781252,-253.906396484375,144.04051513671874,-144.8749969482422,1.6888761656657892e+18,15.994789225260416,0.5828150709470113,-0.7921760082244873,0.021986877080053,0.1775834262371063,-2.263162056605021,1.1578291654586792,-0.6531778375307719
1.05,1.688876165726342e+18,16.05534212239583,1.9628125826517744,11.096118291219076,-3.1943785349527993,1.6888761657176922e+18,16.046692057291665,-0.7986046473185221,2.1623140573501587,-0.4687938094139098,1.6888761657176922e+18,16.046692057291665,-1.2986114819844563,-9.33660920461019,2.6798175970713296,1.6888761657133683e+18,16.042368489583335,1.3695598443349202,0.366926372051239,2.570062756538391,1.6888761657176922e+18,16.046692057291665,1.298444946606954,0.2137010296185811,2.7968974510828652,,,,,,,,,,,,1.6888761657200305e+18,16.049030517578124,-5.1825599193573,49.86627960205078,-8.88647985458374,1.6888761657200305e+18,16.049030517578124,-260.80914916992185,144.72127990722657,-142.01287841796875,1.6888761657176922e+18,16.046692057291665,0.6332192222277323,-0.7511545221010844,-0.0116801463688412,0.1847507208585738,-2.0165205796559653,1.271843393643697,-0.8431587417920431
1.1,1.6888761657782464e+18,16.10724609375,0.9209089676539104,-12.276917775472006,-1.916899601618449,1.6888761657695956e+18,16.098595703125,-0.6057828913132349,-15.714463790257772,0.0398803651332855,1.6888761657695956e+18,16.098595703125,0.7294033281505108,-9.493510564168297,2.2961732546488443,1.6888761657652705e+18,16.09427010091146,0.6623815596103668,-0.5879578107657532,4.580522219340007,1.6888761657695956e+18,16.098595703125,0.7524841825167338,-0.7749843696753184,4.539288838704427,,,,,,,,,,,,1.6888761657700303e+18,16.099030224609372,-15.71359977722168,47.71907958984375,-7.190679931640625,1.6888761657700303e+18,16.099030224609372,-271.34019165039064,142.57407836914064,-140.31707763671875,1.6888761657695956e+18,16.098595703125,0.7146722674369812,-0.6784210999806722,-0.002813821658492,0.1673320184151331,-1.240817368030548,1.324812889099121,-1.6577198505401611
1.15,1.6888761658215e+18,16.15049975585937,3.990738868713379,-32.37576484680176,10.03623867034912,1.6888761658215089e+18,16.150509033203125,4.591826438903809,-39.51168314615885,11.12024466196696,1.6888761658215089e+18,16.150509033203125,2.6902194023132324,-9.242830912272137,1.8261743386586504,1.688876165817181e+18,16.14618074544271,0.4032728622357051,1.1217013200124104,3.6581665674845376,1.6888761658215089e+18,16.150509033203125,0.343204453587532,1.2418890396753948,3.5754961172739663,,,,,,,,,,,,1.688876165820039e+18,16.149038720703125,-25.927439498901368,43.95659866333008,-5.470479965209961,1.688876165820039e+18,16.149038720703125,-281.5540344238281,138.8115966796875,-138.5968780517578,1.6888761658215089e+18,16.150509033203125,0.7853692372639974,-0.6001243988672892,-0.0017155659928297,0.1492243508497873,-0.5725985566775004,1.2332781950632732,-2.3518613974253335
1.2,1.688876165864757e+18,16.193756754557292,-5.942777713139852,-14.23158359527588,4.5697712898254395,1.6888761658734103e+18,16.202410481770833,0.9555338670810064,-19.977277755737305,5.129214684168498,1.6888761658734103e+18,16.202410481770833,4.431149005889893,-8.577179590861002,1.6648000081380208,1.6888761658690867e+18,16.19808650716146,1.2062552372614543,-1.6743816137313845,4.230699936548869,1.6888761658734103e+18,16.202410481770833,1.2249375184377034,-1.810451865196228,4.221231460571289,,,,,,,,,,,,1.6888761658700396e+18,16.199039599609375,-33.95015907287598,38.57639999389649,-4.335879898071289,1.6888761658700396e+18,16.199039599609375,-289.5767517089844,133.4313995361328,-137.4622772216797,1.6888761658734103e+18,16.202410481770833,0.8427569270133972,-0.5204229553540548,0.0117643149181579,0.1331785370906193,-0.3393220702807109,1.064623196919759,-2.624809424082438
1.25,1.688876165916663e+18,16.24566324869792,-11.204668045043944,-0.934310754140218,0.3205416997273763,1.6888761659253115e+18,16.254311848958334,-5.620740305011471,-4.823531786600748,1.844467480977376,1.6888761659253115e+18,16.254311848958334,5.568571249643962,-7.790864626566569,2.083266814549764,1.68887616592099e+18,16.24998974609375,0.4577416827281316,-3.793473243713379,3.0661872227986655,1.6888761659253115e+18,16.254311848958334,0.3352632075548172,-4.022394895553589,2.9969557921091714,,,,,,,,,,,,1.688876165920041e+18,16.24904091796875,-39.86227951049805,32.25191993713379,-6.519679927825928,1.688876165920041e+18,16.24904091796875,-295.48887329101564,127.10691986083984,-139.6460754394531,1.6888761659253115e+18,16.254311848958334,0.8835276563962301,-0.4541953504085541,0.0734000802040099,0.0797099495927492,-0.3375356793403625,0.914297342300415,-2.7950405279795327
1.3,1.6888761659685663e+18,16.297566569010417,-5.644493818283081,22.26403554280599,-1.310240586598714,1.68887616597721e+18,16.306210286458334,-1.1453643639882405,15.752948443094889,2.9661031365394592,1.68887616597721e+18,16.306210286458334,5.745376110076904,-7.320209980010986,3.100311676661174,1.6888761659728916e+18,16.301891845703125,-0.1223766654729843,-2.1026999751726785,0.2632320225238801,1.68887616597721e+18,16.306210286458334,-0.1207985980436205,-1.7200947403907776,-0.1365793198347091,1.6888761659512655e+18,16.280265625,0.0,0.0,1.1922942399978638,20.54400062561035,0.4918339550495147,179.9995574951172,22.899999618530273,-122.7500828,49.1927261,1.6888761659700337e+18,16.299033691406247,-41.458039093017575,27.652519607543944,-13.715239715576171,1.6888761659700337e+18,16.299033691406247,-297.0846313476562,122.5075180053711,-146.84163513183594,1.68887616597721e+18,16.306210286458334,0.8916023373603821,-0.4242064356803894,0.1521184593439102,0.0431986550490061,-0.4785606463750203,0.8379957477251688,-2.8282015323638916
1.35,1.6888761660204728e+18,16.349472900390627,-8.698680718739828,14.112321853637695,-1.9194270372390747,1.6888761660204646e+18,16.349464721679688,-4.045365810394287,6.345765590667725,1.792523205280304,1.6888761660204646e+18,16.349464721679688,5.011205196380615,-7.759436130523682,3.2936171293258667,1.6888761660247898e+18,16.35378971354167,0.1323541402816772,0.5421937902768453,-3.18525497118632,1.6888761660204646e+18,16.349464721679688,0.0300851166248321,0.3323106914758682,-3.1517592668533325,,,,,,,,,,,,1.688876166020035e+18,16.34903515625,-39.584119415283205,29.877799224853515,-16.113759422302245,1.688876166020035e+18,16.34903515625,-295.21071166992186,124.73279724121092,-149.2401580810547,1.6888761660204646e+18,16.349464721679688,0.8699614405632019,-0.4630462676286697,0.1609812676906585,0.0511979293078183,-0.5635705590248108,0.9096388518810272,-2.742408990859986
1.4,1.6888761660723732e+18,16.401373372395835,3.560546557108561,1.8733604749043784,-4.5343062082926435,1.6888761660637225e+18,16.39272273763021,4.544767836729686,-3.701696594556173,-0.9363912642002106,1.6888761660637225e+18,16.39272273763021,4.031435330708821,-8.479011535644531,2.8159522215525308,1.6888761660767007e+18,16.40570068359375,0.5023348480463028,2.1352794567743936,-2.3613505164782205,1.6888761660637225e+18,16.39272273763021,0.5954409042994181,2.0698659817377725,-3.149163007736206,,,,,,,,,,,,1.688876166070036e+18,16.3990359375,-34.32591934204102,36.11199951171875,-12.802679824829102,1.688876166070036e+18,16.3990359375,-289.9525207519531,130.9669982910156,-145.9290740966797,1.6888761660637225e+18,16.39272273763021,0.8391646345456442,-0.5247077147165934,0.1215606331825256,0.0703381275137264,-0.5864689747492472,1.043587505817413,-2.630410591761271
1.45,1.688876166124275e+18,16.453275065104165,-8.989482243855795,-19.63609059651693,0.3863980770111084,1.688876166115617e+18,16.444617024739586,1.7762718200683594,-29.41995366414388,0.6843472719192505,1.688876166115617e+18,16.444617024739586,4.0435348351796465,-8.649634997049967,2.2321151892344155,1.6888761661286031e+18,16.45760302734375,-0.0661770701408386,-0.6289366881052653,0.7867435614267985,1.688876166115617e+18,16.444617024739586,0.1423824826876322,0.3619885444641113,0.7962628453969955,,,,,,,,,,,,1.688876166120038e+18,16.449038134765622,-34.27711944580078,37.21731948852539,-9.120719909667969,1.688876166120038e+18,16.449038134765622,-289.9037231445312,132.07231750488282,-142.247119140625,1.688876166115617e+18,16.444617024739586,0.8376028339068095,-0.5337398846944174,0.0746340019007523,0.0875262742241223,-0.4822104871273041,1.0782678127288818,-2.6405537923177085
1.5,1.688876166176181e+18,16.50518082682292,-8.768718242645264,9.00373919804891,2.2823007106781006,1.688876166167526e+18,16.496526041666666,-7.114061276117961,-2.74257344007492,5.866004625956218,1.688876166167526e+18,16.496526041666666,3.913693110148112,-8.762246449788412,1.9533000389734905,1.6888761661718536e+18,16.500853515625,2.6345854997634888,4.3088144063949585,-0.9130908511579036,1.688876166167526e+18,16.496526041666666,1.7514015858372052,2.7159578800201416,-1.026100864013036,,,,,,,,,,,,1.688876166170036e+18,16.499035986328124,-33.833039093017575,37.76143951416016,-7.122359848022461,1.688876166170036e+18,16.499035986328124,-289.4596374511719,132.61643981933594,-140.2487579345703,1.688876166167526e+18,16.496526041666666,0.8348344564437866,-0.5400346120198568,0.0629423304150501,0.0783714950084686,-0.4305108984311421,1.1024469534556072,-2.6888252894083657
1.55,1.688876166228082e+18,16.55708203125,-4.4452924728393555,-9.538854598999023,13.689418156941732,1.688876166219432e+18,16.548431884765623,-2.2586251298586526,-13.499507586161297,13.959328651428224,1.688876166219432e+18,16.548431884765623,2.126059412956238,-9.426066398620604,1.422594706217448,1.6888761662151078e+18,16.54410799153646,-1.8289814690748851,2.4875450134277344,-5.913073698679606,1.688876166219432e+18,16.548431884765623,-2.1575251718362174,2.305609107017517,-6.138330300649007,,,,,,,,,,,,1.688876166220041e+18,16.54904091796875,-25.761519622802737,43.927320098876955,-2.779159927368164,1.688876166220041e+18,16.54904091796875,-281.3881103515625,138.78231811523438,-135.9055603027344,1.688876166219432e+18,16.548431884765623,0.7708379228909811,-0.6220728953679403,-0.0152605970700581,0.1254781633615493,-0.5989340742429098,1.2952270507812502,-2.3414202133814492
1.6,1.6888761662713344e+18,16.60033459472656,-10.074578762054443,-19.636672973632812,0.9682618379592896,1.6888761662713316e+18,16.600331787109372,-7.638288825750351,-28.93600527445475,4.071786403656006,1.6888761662713316e+18,16.600331787109372,-0.5939011151591936,-9.484244028727211,2.3606530825297036,1.6888761662670057e+18,16.59600577799479,-1.7801122665405271,-3.125186542669932,-3.8764999310175576,1.6888761662713316e+18,16.600331787109372,-1.757713794708252,-3.750712528824806,-3.6121479670206704,,,,,,,,,,,,1.6888761662700337e+18,16.599033691406248,-12.180479621887208,48.56575927734375,-6.858839988708496,1.6888761662700337e+18,16.599033691406248,-267.807080078125,143.4207550048828,-139.98523559570313,1.6888761662713316e+18,16.600331787109372,0.6708907882372538,-0.724887490272522,0.0113598212289313,0.1496980637311935,-1.7721681992212932,1.3258841037750244,-1.1719892024993896
1.65,1.688876166314585e+18,16.643585611979166,18.95912742614746,-9.806723594665527,-10.047684033711752,1.688876166323237e+18,16.652237386067707,17.054643630981445,-15.502300580342611,-6.371089776357015,1.688876166323237e+18,16.652237386067707,-2.878054062525431,-8.962923367818197,2.710235595703125,1.6888761663189133e+18,16.647913330078126,-0.6224716777602831,-1.1912381649017334,-4.350582281748454,1.688876166323237e+18,16.652237386067707,-0.431729016204675,-0.4698061943054199,-4.2671481768290205,,,,,,,,,,,,1.688876166320039e+18,16.649038623046874,0.1464000225067138,48.81463851928711,-11.389919662475586,1.688876166320039e+18,16.649038623046874,-255.48019409179688,143.66963806152344,-144.51631774902344,1.688876166323237e+18,16.652237386067707,0.5869084993998209,-0.797734538714091,0.0804378887017567,0.1083937436342239,-2.3812766075134277,1.1661183834075928,-0.7198560833930969
1.7,1.6888761663664868e+18,16.695486816406248,10.51793130238851,5.552075068155925,-1.9212539990743,1.6888761663751424e+18,16.704142415364583,6.03669269879659,-1.3820545574029286,1.7680965264638264,1.6888761663751424e+18,16.704142415364583,-3.352354685465494,-8.749131202697754,2.9046619733174643,1.688876166370819e+18,16.699819091796876,0.3383684357007344,1.4795665616790454,-0.3709988271196683,1.6888761663751424e+18,16.704142415364583,0.2431243658065796,1.0811296502749126,-0.1080213487148284,,,,,,,,,,,,1.688876166370038e+18,16.699037939453127,5.4314398765563965,48.70971908569336,-11.643679809570312,1.688876166370038e+18,16.699037939453127,-250.19515686035157,143.5647186279297,-144.77007751464845,1.6888761663751424e+18,16.704142415364583,0.5568566719690958,-0.8164504170417786,0.0437113605439662,0.1460065046946207,-2.4359548091888428,1.1119978030522664,-0.5569449265797933
1.75,1.688876166418393e+18,16.747393310546872,11.74393900235494,5.01342789332072,-7.0192711353302,1.6888761664270426e+18,16.75604248046875,6.914459864298503,-4.652644236882527,-4.1042890548706055,1.6888761664270426e+18,16.75604248046875,-2.487858215967814,-8.960349718729654,3.0826989809672036,1.6888761664227195e+18,16.751719563802084,-0.0642935608824094,1.9972747564315796,2.068949739138285,1.6888761664270426e+18,16.75604248046875,0.0527380233009656,2.4705427487691245,2.2085832357406616,,,,,,,,,,,,1.6888761664200325e+18,16.749032421875,2.7132799357175825,48.65359954833984,-11.848639678955076,1.6888761664200325e+18,16.749032421875,-252.91331787109377,143.50859375,-144.97503662109375,1.6888761664270426e+18,16.75604248046875,0.5892191727956136,-0.7892995874087015,0.038702859232823,0.1650500843922296,-2.250314633051554,1.1625992854436238,-0.7086145877838135
1.8,1.6888761664702917e+18,16.79929150390625,-5.043877760569255,8.239456335703531,-6.287801424662272,1.6888761664702984e+18,16.79929833984375,-6.350850582122803,0.0978066325187683,-2.781357169151306,1.6888761664702984e+18,16.79929833984375,-1.2381231188774109,-9.250321865081789,3.016952157020569,1.6888761664746263e+18,16.80362638346354,0.7981463472048441,-0.0352774361769358,2.575967788696289,1.6888761664702984e+18,16.79929833984375,0.899040937423706,0.3992004096508026,2.3453407287597656,1.688876166470295e+18,16.799294921875,0.0,0.0,1.1922942399978638,20.075000762939453,0.5059884190559387,179.98873901367188,22.899999618530273,-122.7500638,49.1926962,1.6888761664700385e+18,16.799038232421875,-4.919040012359619,48.824398803710935,-10.186999893188476,1.6888761664700385e+18,16.799038232421875,-260.54563598632814,143.6794006347656,-143.31339416503906,1.6888761664702984e+18,16.79929833984375,0.6325120031833649,-0.7491988241672516,0.0029328451491891,0.1962548643350601,-1.9599791169166565,1.2426064610481262,-0.9035805761814116
1.85,1.688876166522196e+18,16.851196126302085,-2.881856679916382,-8.393046061197916,-3.8359262148539224,1.68887616651355e+18,16.842549886067708,-4.859025080998738,-13.131611426671348,-2.0909282167752585,1.68887616651355e+18,16.842549886067708,-0.1861373484134674,-9.428330739339192,2.65962560971578,1.6888761665265196e+18,16.855519612630207,0.8165231843789419,-2.940247138341268,4.9545243581136065,1.68887616651355e+18,16.842549886067708,0.6000224053859711,-2.9576567808787027,4.262821276982625,,,,,,,,,,,,1.688876166520037e+18,16.84903720703125,-12.622119903564451,47.11639938354492,-9.872239685058592,1.688876166520037e+18,16.84903720703125,-268.24871826171875,141.97139587402344,-142.9986358642578,1.68887616651355e+18,16.842549886067708,0.6858622431755066,-0.7104979753494263,0.0362216432889302,0.1481574599941571,-1.614357312520345,1.3010223706563313,-1.3672101497650146
1.9,1.6888761665741025e+18,16.90310221354167,3.4062232971191406,-27.46044158935547,14.593217213948568,1.6888761665654487e+18,16.89444873046875,8.33739161491394,-36.874593098958336,16.152150948842365,1.6888761665654487e+18,16.89444873046875,1.9903455177942913,-9.269831975301107,2.4524195988972983,1.68887616657843e+18,16.90743009440104,-0.2368121271332104,0.8972592353820801,3.511100689570109,1.6888761665654487e+18,16.89444873046875,-0.2621121207873026,0.06419175863266,4.402913173039754,,,,,,,,,,,,1.688876166570041e+18,16.89904130859375,-23.097039413452148,43.20507888793945,-10.748199653625488,1.688876166570041e+18,16.89904130859375,-278.7236389160156,138.06007690429686,-143.87459716796874,1.6888761665654487e+18,16.89444873046875,0.7711778481801351,-0.6234794855117798,0.0765468478202819,0.0988247245550155,-0.870568851629893,1.2428487141927085,-2.2390595277150473
1.95,1.6888761666260037e+18,16.95500382486979,-6.2446220715840655,-11.532626469930014,0.0741541385650634,1.688876166617356e+18,16.946355957031248,-2.744368314743042,-22.15594228108724,4.702494740486144,1.688876166617356e+18,16.946355957031248,3.5747224489847818,-8.852806409200033,2.2048493226369223,1.6888761666216814e+18,16.95068151855469,1.3978887796401978,-1.0038806796073914,3.771558403968811,1.688876166617356e+18,16.946355957031248,1.4182254473368328,-0.3972151279449463,3.4564282099405923,,,,,,,,,,,,1.6888761666200397e+18,16.94903955078125,-30.863558959960937,39.069278717041016,-9.662399864196775,1.6888761666200397e+18,16.94903955078125,-286.4901489257812,133.92427673339844,-142.7887939453125,1.688876166617356e+18,16.946355957031248,0.8228071729342142,-0.5559406479199728,0.0693378547827402,0.0909563601016997,-0.5321905314922333,1.1250056028366089,-2.5781376361846924
2.0,1.6888761666779087e+18,17.006909016927082,-11.06235122680664,4.737401485443115,-0.966433842976888,1.6888761666692588e+18,16.998258707682293,-6.608975966771443,-7.371090094248454,2.094716787338257,1.6888761666692588e+18,16.998258707682293,4.901029109954834,-8.245755831400553,2.0342122316360474,1.68887616666493e+18,16.993930013020833,1.0928888320922852,-2.436945120493571,3.1239139238993325,1.6888761666692588e+18,16.998258707682293,1.0080803632736206,-2.765896002451578,3.0227139790852866,,,,,,,,,,,,1.688876166670036e+18,16.9990359375,-36.78543930053711,33.73055992126465,-9.786839866638184,1.688876166670036e+18,16.9990359375,-292.4120361328125,128.58555908203124,-142.91323852539062,1.6888761666692588e+18,16.998258707682293,0.8673281073570251,-0.4864269196987152,0.0950188438097635,0.0346677886943022,-0.3738787074883778,0.9935827056566874,-2.857051213582357
2.05,1.6888761667211617e+18,17.05016149902344,-4.558968544006348,20.907605171203613,0.3270051479339598,1.6888761667211622e+18,17.050162190755206,-0.3218346238136291,12.933804194132486,2.8217361892263093,1.6888761667211622e+18,17.050162190755206,5.326050758361816,-7.746140162150065,2.798384428024292,1.688876166716837e+18,17.045837158203128,-0.0722857216993967,-2.626771410306295,1.1607966621716816,1.6888761667211622e+18,17.050162190755206,-0.1385136942068735,-2.320982495943705,0.8326601982116699,,,,,,,,,,,,1.6888761667200338e+18,17.049033886718753,-38.74963989257813,29.375159454345702,-15.520839500427249,1.6888761667200338e+18,17.049033886718753,-294.37623291015626,124.23015747070312,-148.6472381591797,1.6888761667211622e+18,17.050162190755206,-0.8807666897773743,0.443311740954717,-0.1652630666891733,0.0141625305016835,-0.4671349426110585,0.9039220809936525,-2.9438817501068115
2.1,1.6888761667644068e+18,17.093406819661457,-9.006214141845703,18.617305119832356,-1.2956676085789998,1.688876166773064e+18,17.102063883463543,-4.436293204625447,8.081359624862671,1.90189524491628,1.688876166773064e+18,17.102063883463543,4.555431524912517,-8.050260384877523,3.2383387088775635,1.6888761667687404e+18,17.097740234375,-0.3682499279578526,-0.5193372766176859,-2.689028739929199,1.688876166773064e+18,17.102063883463543,-0.3173953940471013,-0.4096869590381781,-2.872441132863363,,,,,,,,,,,,1.68887616677004e+18,17.09904013671875,-35.375119018554685,31.48087959289551,-18.0560001373291,1.68887616677004e+18,17.09904013671875,-291.00172119140626,126.33587646484376,-151.1823974609375,1.688876166773064e+18,17.102063883463543,-0.8582623799641927,0.4748061696688334,-0.1932273010412851,0.0085483875591307,-0.6018541057904562,0.9584933121999104,-2.8402010599772134
2.15,1.6888761668163172e+18,17.145317057291667,3.3813867568969727,4.203672091166179,-3.2643511295318604,1.6888761668249654e+18,17.153965576171874,9.431111017862955,-7.916254838307698,-0.8745766604940096,1.6888761668249654e+18,17.153965576171874,3.63266921043396,-8.689564069112143,2.7230456670125327,1.6888761668206436e+18,17.1496435546875,1.00253168741862,2.6818002462387085,-1.87754521270593,1.6888761668249654e+18,17.153965576171874,1.0013099312782288,2.779284119606018,-1.4612405896186829,,,,,,,,,,,,1.688876166820034e+18,17.149034228515625,-31.197839736938477,36.62195892333985,-15.852679252624512,1.688876166820034e+18,17.149034228515625,-286.8244384765625,131.47695617675782,-148.9790771484375,1.6888761668249654e+18,17.153965576171874,0.8302922447522482,-0.5343865553538004,0.1554723655184109,0.0114327943883836,-0.6175413330396017,1.085268219312032,-2.7344917456309
2.2,1.6888761668682202e+18,17.19722021484375,-1.4598153432210286,-7.7348276774088545,-5.359285950660706,1.688876166876871e+18,17.205870930989583,-3.721437454223633,-17.573288281758625,1.2171491781870518,1.688876166876871e+18,17.205870930989583,3.798917293548584,-8.728212674458822,2.349062522252401,1.6888761668725463e+18,17.201546305338542,-0.3647374361753463,-0.5639813741048177,-0.3643810997406642,1.688876166876871e+18,17.205870930989583,-0.448425993323326,-0.8437575896581014,-0.6837109724680582,,,,,,,,,,,,1.6888761668700406e+18,17.199040478515624,-33.408478546142575,36.80739898681641,-11.926719665527344,1.6888761668700406e+18,17.199040478515624,-289.0350708007812,131.6623992919922,-145.05311584472656,1.688876166876871e+18,17.205870930989583,0.8349241614341736,-0.5354825258255005,0.1236094186703364,0.0239496535311142,-0.5321872333685557,1.0934877395629885,-2.754561106363932
2.25,1.6888761669201196e+18,17.24911971028646,-13.898517926534018,-4.775937557220459,9.066623290379844,1.688876166920124e+18,17.2491240234375,-8.703892469406128,-13.978271961212158,11.957233428955078,1.688876166920124e+18,17.2491240234375,3.1348462104797363,-9.013972759246826,2.2529053688049316,1.688876166924446e+18,17.253445963541665,1.148426627119382,3.0869056979815164,-2.256179928779602,1.688876166920124e+18,17.2491240234375,1.4569899141788485,3.289051115512848,-1.598557949066162,,,,,,,,,,,,1.688876166920037e+18,17.249037255859374,-30.6585994720459,39.21079940795899,-12.666039657592773,1.688876166920037e+18,17.249037255859374,-286.2851867675781,134.0657989501953,-145.7924346923828,1.688876166920124e+18,17.2491240234375,0.8144062459468842,-0.5675108730792999,0.1153973452746867,0.0299159986898302,-0.5920875668525696,1.1625806093215942,-2.673141360282898
2.3,1.688876166972027e+18,17.301026692708334,-7.98878812789917,-2.7627862294514975,6.068450689315796,1.688876166963375e+18,17.292375244140626,-6.070790449778239,-8.418548305829367,7.133203665415446,1.688876166963375e+18,17.292375244140626,1.7752039829889934,-9.444292704264322,1.841434876124064,1.6888761669763525e+18,17.3053525390625,-2.0715968211491904,2.242791732152303,-4.8125998973846436,1.688876166963375e+18,17.292375244140626,-1.3480777939160664,2.92655348777771,-4.926526387532552,1.6888761669893394e+18,17.31833935546875,0.0,0.0,1.1922942399978638,19.981000900268555,0.5027692317962646,179.9737548828125,22.899999618530273,-122.7500568,49.1926821,1.6888761669700357e+18,17.299035888671874,-24.3463191986084,44.27623901367187,-7.632319831848145,1.6888761669700357e+18,17.299035888671874,-279.97291259765626,139.13123779296876,-140.75871887207032,1.688876166963375e+18,17.292375244140626,0.7661397258440653,-0.6341666777928671,0.0490477395554383,0.0804925722380478,-0.784895141919454,1.2992233037948608,-2.3118953704833984
2.35,1.68887616702393e+18,17.352930013020835,-6.664786974589031,-23.089928309122723,-4.239618539810181,1.6888761670152804e+18,17.344280192057294,-9.408379236857096,-31.73600705464681,1.257428149382274,1.6888761670152804e+18,17.344280192057294,-0.1359647251665592,-9.411790211995443,2.7074012756347656,1.6888761670282578e+18,17.357257893880206,-0.995761255423228,-4.1150428255399065,-3.8736492395401,1.6888761670152804e+18,17.344280192057294,-1.454419235388438,-1.9420932531356812,-3.2505157788594565,,,,,,,,,,,,1.6888761670200392e+18,17.34903916015625,-14.86203956604004,47.02123947143555,-11.126399803161622,1.6888761670200392e+18,17.34903916015625,-270.48863525390624,141.87623596191406,-144.25279846191407,1.6888761670152804e+18,17.344280192057294,0.692331333955129,-0.7062411109606425,0.0588839501142501,0.1319963584343592,-1.5796308517456057,1.2949657042821248,-1.457551916440328
2.4,1.6888761670758318e+18,17.40483203125,23.618123372395832,-3.164424260457357,-1.3783877690633135,1.6888761670671823e+18,17.396182617187502,16.253646850585938,-15.867803891499838,0.0610170364379882,1.6888761670671823e+18,17.396182617187502,-2.842891216278076,-9.007761001586914,2.591647466023763,1.6888761670715028e+18,17.400502807617187,0.6210972219705582,-0.5943718552589417,-3.991546154022217,1.6888761670671823e+18,17.396182617187502,0.498109703262647,-1.9722294012705488,-4.339739402135213,,,,,,,,,,,,1.6888761670700372e+18,17.39903720703125,-0.595359981060028,48.3949592590332,-13.776239967346193,1.6888761670700372e+18,17.39903720703125,-256.2219573974609,143.2499572753906,-146.90263671875,1.6888761670671823e+18,17.396182617187502,0.5944855809211731,-0.7913857698440552,0.1183294306198755,0.0735578412810961,-2.391225496927897,1.1768142779668171,-0.814965824286143
2.45,1.6888761671277356e+18,17.456735514322915,11.619905153910318,8.89143435160319,-1.2465769449869792,1.6888761671190843e+18,17.448084391276044,7.6723863283793134,-0.6366901993751526,3.3425737619400024,1.6888761671190843e+18,17.448084391276044,-3.3954504330952964,-8.860141118367514,2.490182797114054,1.6888761671147574e+18,17.44375740559896,0.585310717423757,1.4494305352369945,-0.5874996383984884,1.6888761671190843e+18,17.448084391276044,0.4092288265625636,1.0691159963607788,-0.3633630126714706,,,,,,,,,,,,1.6888761671200364e+18,17.44903623046875,4.3261199474334715,49.11963958740235,-12.029199600219728,1.6888761671200364e+18,17.44903623046875,-251.30047607421875,143.97463989257812,-145.1555969238281,1.6888761671190843e+18,17.448084391276044,0.5664219458897909,-0.8146618803342184,0.0779383654395738,0.0967233180999755,-2.51482621828715,1.1381540298461914,-0.5995656847953796
2.5,1.688876167170986e+18,17.499986206054686,8.410797357559204,4.468156814575195,-8.644775390625,1.6888761671709888e+18,17.49998885091146,5.358327468236287,-3.669991691907247,-4.893322229385376,1.6888761671709888e+18,17.49998885091146,-2.711652199427286,-9.021059354146322,2.7065751552581787,1.688876167166664e+18,17.495663899739583,-0.2736167187492052,1.8287778695424397,1.724574367205302,1.6888761671709888e+18,17.49998885091146,-0.2156354387601216,2.214132010936737,1.8629862864812217,,,,,,,,,,,,1.688876167170036e+18,17.499035888671877,2.2887199759483337,49.21723861694336,-11.894999885559082,1.688876167170036e+18,17.499035888671877,-253.33787536621097,144.07223510742188,-145.02139892578126,1.6888761671709888e+18,17.49998885091146,0.592358390490214,-0.7936221957206726,0.0720744170248508,0.1153034692009289,-2.3569029172261557,1.178222139676412,-0.7224157452583313
2.55,1.6888761672142395e+18,17.54323974609375,-2.168649554252625,6.768945376078288,-4.6683290004730225,1.6888761672228913e+18,17.55189127604167,-2.8775686224301658,-3.0033912658691406,-1.0823534230391183,1.6888761672228913e+18,17.55189127604167,-1.3171921571095784,-9.33190377553304,2.6909712155659995,1.6888761672185572e+18,17.547557291666667,0.6885469555854797,0.4295909752448399,2.886643727620443,1.6888761672228913e+18,17.55189127604167,0.7242316603660583,0.1049669981002808,3.0778445402781167,,,,,,,,,,,,1.6888761672200328e+18,17.549032666015627,-5.084959959983825,49.04399871826172,-11.114199829101562,1.6888761672200328e+18,17.549032666015627,-260.71156005859376,143.8989990234375,-144.2405975341797,1.6888761672228913e+18,17.55189127604167,0.6451511979103088,-0.7496813337008158,0.0443059901396432,0.1388061592976252,-2.010904550552368,1.2695916891098022,-0.9953701893488566
2.6,1.6888761672661445e+18,17.59514453125,1.6654796799023943,-4.893161137898763,-1.4180727005004885,1.6888761672747917e+18,17.603791422526044,3.6151562531789145,-18.126229604085285,2.384048958619436,1.6888761672747917e+18,17.603791422526044,0.6674394110838572,-9.494255065917969,2.299088478088379,1.6888761672704704e+18,17.59947013346354,0.6512841681639353,-1.439707597096761,4.805575052897136,1.6888761672747917e+18,17.603791422526044,0.5989533563454946,-1.3640112082163494,4.770704905192058,,,,,,,,,,,,1.688876167270038e+18,17.599037841796875,-14.815679931640624,47.509239196777344,-10.218719863891602,1.688876167270038e+18,17.599037841796875,-270.44227905273436,142.3642364501953,-143.34512023925782,1.6888761672747917e+18,17.603791422526044,0.726265033086141,-0.6765410304069519,0.0645511311789353,0.0970460971196492,-1.2621103723843892,1.3226638634999592,-1.8331816991170249
2.65,1.6888761673180434e+18,17.64704313151042,0.1453924179077154,-32.31287384033203,8.220183690388998,1.6888761673266957e+18,17.655695882161456,-0.5692925453186035,-41.55335934956869,10.305488189061483,1.6888761673266957e+18,17.655695882161456,2.601141452789306,-9.18550936381022,2.2136152585347495,1.688876167322374e+18,17.651373779296875,-0.1021671891212464,1.7863227526346843,3.131193478902181,1.6888761673266957e+18,17.655695882161456,0.0669915477434794,1.6759087642033894,3.0867021083831787,,,,,,,,,,,,1.6888761673200358e+18,17.649035986328123,-25.90303955078125,43.02207870483399,-9.520879745483398,1.6888761673200358e+18,17.649035986328123,-281.5296264648438,137.8770782470703,-142.64728088378905,1.6888761673266957e+18,17.655695882161456,0.7903996109962463,-0.600218673547109,0.0580852528413136,0.104727379977703,-0.6811826825141907,1.2134531339009602,-2.3932839234670005
2.7,1.68887616736995e+18,17.698949869791665,-3.2020742495854697,-10.879687309265137,0.532789389292399,1.688876167378598e+18,17.70759814453125,0.4995017349720001,-17.002201716105144,2.8145576318105063,1.688876167378598e+18,17.70759814453125,4.29186224937439,-8.62143071492513,1.7889037529627485,1.6888761673742733e+18,17.703273193359376,1.4343115886052449,-1.8059721787770588,4.3860123952229815,1.688876167378598e+18,17.70759814453125,1.3391184210777285,-1.9894863367080688,4.38743797938029,,,,,,,,,,,,1.6888761673700398e+18,17.69903984375,-34.03311882019043,37.77363891601563,-7.790919780731201,1.6888761673700398e+18,17.69903984375,-289.659716796875,132.6286376953125,-140.9173156738281,1.688876167378598e+18,17.70759814453125,0.8469749291737875,-0.5227103432019552,0.061133112758398,0.0663289539515972,-0.3771324157714844,1.0717792113622029,-2.7571354707082114
2.75,1.6888761674218514e+18,17.75085123697917,-9.622847239176432,6.026028474171956,-1.152250051498413,1.6888761674218532e+18,17.750853149414063,-9.073583602905272,-2.386840581893921,1.283450223505497,1.6888761674218532e+18,17.750853149414063,5.316805839538574,-7.888446569442749,2.3722695112228394,1.6888761674261747e+18,17.75517472330729,-0.1479821155468622,-4.4093780517578125,3.377931992212931,1.6888761674218532e+18,17.750853149414063,0.0057268589735031,-5.052008390426636,3.5717291831970215,,,,,,,,,,,,1.6888761674200374e+18,17.74903740234375,-39.72807922363281,31.205158996582032,-12.168279647827148,1.6888761674200374e+18,17.74903740234375,-295.35467529296875,126.0601593017578,-145.294677734375,1.6888761674218532e+18,17.750853149414063,-0.0037059187889099,-0.0130348205566405,-0.0215279273688793,0.012041468755342,-0.4021487981081009,0.928538590669632,-2.9198726415634155
2.8,1.6888761674737554e+18,17.802755615234375,-8.495694478352865,20.498140970865887,0.4131017525990804,1.6888761674651034e+18,17.794103271484374,-1.2652049064636228,12.2781712214152,3.8773698012034097,1.6888761674651034e+18,17.794103271484374,5.695067087809245,-7.30575434366862,3.2268220583597818,1.6888761674780787e+18,17.80707902018229,-0.2063197319706281,-0.6356562003493309,-0.24617866675059,1.6888761674651034e+18,17.794103271484374,-0.3285436903436978,-1.4010703365008037,0.8797986706097921,,,,,,,,,,,,1.688876167470036e+18,17.799035986328125,-41.4702392578125,26.93515968322754,-18.17067947387695,1.688876167470036e+18,17.799035986328125,-297.0968322753906,121.79015655517578,-151.29707946777344,1.6888761674651034e+18,17.794103271484374,-0.8912275234858195,0.4118442138036092,-0.1890476544698079,0.0170813814426461,-0.5012735625108083,0.83396448691686,-2.954115311304728
2.85,1.6888761675256584e+18,17.85465828450521,-8.378275394439697,11.983474731445312,-2.890892823537191,1.6888761675170056e+18,17.846005533854168,-4.832704067230225,6.194619099299113,1.4285151461760204,1.6888761675170056e+18,17.846005533854168,5.089404106140137,-7.664457321166992,3.3814164797465005,1.6888761675213335e+18,17.85033349609375,0.2172389551997185,0.4060726612806319,-3.0138564109802246,1.6888761675170056e+18,17.846005533854168,0.168395181496938,0.3645847383886575,-2.7349963982899985,1.688876167508358e+18,17.83735791015625,0.0,0.0,1.207620620727539,19.368999481201172,0.4828301668167114,179.93296813964844,22.899999618530273,-122.7500422,49.1926518,1.6888761675200333e+18,17.84903330078125,-38.87895889282227,29.602079391479492,-18.74651947021484,1.6888761675200333e+18,17.84903330078125,-294.50555419921875,124.4570770263672,-151.87291870117187,1.6888761675170056e+18,17.846005533854168,-0.8738866249720255,0.4437086184819539,-0.1972531179587046,0.0071553487796336,-0.5715399781862894,0.8923630118370056,-2.877959966659546
2.9,1.6888761675775593e+18,17.906559326171877,20.329627990722656,-9.791573206583658,-7.304429054260254,1.6888761675689083e+18,17.897908528645832,20.864217440287273,-10.269197463989256,-3.2664021650950112,1.6888761675689083e+18,17.897908528645832,4.321614583333333,-8.457359631856283,2.41351052125295,1.6888761675645852e+18,17.893585205078125,1.697696328163147,2.719164808591207,-1.5359697341918943,1.6888761675689083e+18,17.897908528645832,1.754252274831136,2.901558995246887,-0.6765332619349161,,,,,,,,,,,,1.688876167570038e+18,17.899038085937498,-35.162838745117185,35.12623901367188,-13.861639595031738,1.688876167570038e+18,17.899038085937498,-290.7894348144531,129.98123626708986,-146.988037109375,1.6888761675689083e+18,17.897908528645832,-0.2800354758898417,0.1684549152851104,-0.0694070160388946,0.0023396317847072,-0.4879423479239146,1.034896969795227,-2.862818956375122
2.95,1.6888761676208133e+18,17.949813110351563,-30.80472469329834,-4.669034004211426,3.324389934539796,1.6888761676208156e+18,17.94981551106771,-17.74238109588623,-18.08894157409668,4.313860416412353,1.6888761676208156e+18,17.94981551106771,4.254113833109538,-8.578831990559896,2.029639561971029,1.688876167616482e+18,17.94548201497396,0.0198022127151489,-1.9442313710848491,-1.186707576115926,1.6888761676208156e+18,17.94981551106771,-0.0285070240497589,-2.1020891529818377,-1.803477744261424,,,,,,,,,,,,1.688876167620036e+18,17.949036083984375,-35.71915969848633,35.72159957885742,-11.153239631652832,1.688876167620036e+18,17.949036083984375,-291.345751953125,130.57659912109375,-144.27963562011718,1.6888761676208156e+18,17.94981551106771,-0.8488713701566061,0.5111899673938751,-0.1286845331390698,0.0169365685433148,-0.4327560166517893,1.060104568799337,-2.9219592412312827
3.0,1.6888761676640684e+18,17.993068196614583,-7.708879868189494,5.3925215403238935,7.969936688741048,1.688876167672718e+18,18.00171809895833,-4.967499891916911,-4.609174768129985,10.598011016845703,1.688876167672718e+18,18.00171809895833,3.336540699005127,-9.127514521280924,1.200081725915273,1.6888761676683935e+18,17.99739363606771,0.7479535738627114,6.535138130187988,-2.8739683628082275,1.688876167672718e+18,18.00171809895833,0.3398956060409546,6.610427538553874,-3.336800475915273,,,,,,,,,,,,1.6888761676700352e+18,17.99903515625,-32.681359100341794,39.54020004272461,-7.0418397903442385,1.6888761676700352e+18,17.99903515625,-288.3079528808594,134.39519653320312,-140.1682373046875,1.688876167672718e+18,18.00171809895833,0.2633367776870727,-0.2063000400861104,-0.019077509175986,0.0321892371090749,-0.3130478362242381,1.1943068901697795,-2.8607722918192544
3.05,1.688876167715973e+18,18.04497314453125,-7.399605592091878,-13.545347849527994,12.603456179300943,1.6888761677246257e+18,18.053625732421875,-8.105088313420614,-27.01556650797526,13.255240122477211,1.6888761677246257e+18,18.053625732421875,0.5958063503106434,-9.542783419291178,1.9820129871368408,1.6888761677202967e+18,18.049296712239585,-3.1831678549448648,0.9536624550819396,-6.364044984181722,1.6888761677246257e+18,18.053625732421875,-3.0255137284596763,0.3939571380615235,-6.072611490885417,,,,,,,,,,,,1.6888761677200369e+18,18.04903701171875,-21.91851959228516,46.30631866455078,-4.814119958877564,1.6888761677200369e+18,18.04903701171875,-277.5451171875,141.16131591796875,-137.94051818847657,1.6888761677246257e+18,18.053625732421875,0.7182435592015585,-0.6818706194559733,0.0116192395798861,0.1289351905385652,-1.2211490273475647,1.3432581424713137,-1.753256916999817
3.1,1.688876167767869e+18,18.09686857096354,-1.0377318064371746,-18.015215237935383,-10.014466285705566,1.6888761677765235e+18,18.10552376302083,5.032504898806412,-22.654446919759113,-10.784053087234495,1.6888761677765235e+18,18.10552376302083,-1.640601098537445,-9.34405994415283,2.386347452799479,1.688876167772196e+18,18.10119612630208,-0.3764457106590271,-3.210453192392985,-3.664071599642435,1.6888761677765235e+18,18.10552376302083,-0.4509203533331553,-2.928691585858663,-4.117282708485921,,,,,,,,,,,,1.6888761677700406e+18,18.099040576171877,-10.313879680633544,49.42707977294922,-9.11095962524414,1.6888761677700406e+18,18.099040576171877,-265.9404724121094,144.28207397460938,-142.23735656738282,1.6888761677765235e+18,18.10552376302083,0.6388295292854309,-0.7587082982063293,0.0596509203314781,0.1055037130912144,-2.1399430433909097,1.2753254175186155,-0.9361494183540344
3.15,1.6888761678197765e+18,18.14877644856771,20.09961160024007,-0.7163847287495931,-7.512455622355144,1.6888761678284306e+18,18.157430419921873,10.95513947804769,-8.527222156524658,-1.9742780725161235,1.6888761678284306e+18,18.157430419921873,-3.242171843846639,-8.757746696472168,2.998239437739054,1.688876167824103e+18,18.153102864583335,-0.4165592094262441,2.984025796254476,-2.1269310315450034,1.6888761678284306e+18,18.157430419921873,-0.1497128506501515,3.049235582351685,-1.4374167968829472,,,,,,,,,,,,1.6888761678200417e+18,18.149041601562494,2.8645599126815795,49.38803939819336,-11.86571979522705,1.6888761678200417e+18,18.149041601562494,-252.76203308105468,144.2430389404297,-144.9921142578125,1.6888761678284306e+18,18.157430419921873,0.5611452658971151,-0.8123462796211243,0.0483748962481816,0.1497284720341364,-2.400049845377604,1.1143752733866374,-0.5942498842875162
3.2,1.6888761678716744e+18,18.20067415364583,10.475847562154136,8.730429649353027,-3.185806830724081,1.6888761678716795e+18,18.200679687500003,7.545467257499695,1.2278170883655548,2.095514476299286,1.6888761678716795e+18,18.200679687500003,-2.885324478149414,-8.907809734344482,2.9256837368011475,1.688876167876006e+18,18.205005777994792,0.2251038448885083,0.5367469191551208,0.9055059254169464,1.6888761678716795e+18,18.200679687500003,0.2548835203051567,-0.2695442959666252,0.5494732856750488,,,,,,,,,,,,1.68887616787004e+18,18.1990400390625,2.7401199340820312,49.74916000366211,-11.128839874267578,1.68887616787004e+18,18.1990400390625,-252.886474609375,144.60415954589843,-144.25523681640624,1.6888761678716795e+18,18.200679687500003,0.5733104050159454,-0.8025645315647125,0.0243307333439588,0.1630514487624167,-2.3557809591293335,1.1489239931106567,-0.5848398208618164
