seconds_elapsed_rounded ,accelerometer_time     ,accelerometer_seconds_elapsed ,accelerometer_z        ,accelerometer_y      ,accelerometer_x       ,accelerometeruncalibrated_time ,accelerometeruncalibrated_seconds_elapsed ,accelerometeruncalibrated_z ,accelerometeruncalibrated_y ,accelerometeruncalibrated_x ,gravity_time           ,gravity_seconds_elapsed ,gravity_z            ,gravity_y           ,gravity_x              ,gyroscope_time         ,gyroscope_seconds_elapsed ,gyroscope_z            ,gyroscope_y           ,gyroscope_x            ,gyroscopeuncalibrated_time ,gyroscopeuncalibrated_seconds_elapsed ,gyroscopeuncalibrated_z ,gyroscopeuncalibrated_y ,gyroscopeuncalibrated_x ,location_time          ,location_seconds_elapsed ,location_bearingAccuracy ,location_speedAccuracy ,location_verticalAccuracy ,location_horizontalAccuracy ,location_speed     ,location_bearing     ,location_altitude  ,location_longitude ,location_latitude ,magnetometer_time      ,magnetometer_seconds_elapsed ,magnetometer_z        ,magnetometer_y      ,magnetometer_x         ,magnetometeruncalibrated_time ,magnetometeruncalibrated_seconds_elapsed ,magnetometeruncalibrated_z ,magnetometeruncalibrated_y ,magnetometeruncalibrated_x ,orientation_time       ,orientation_seconds_elapsed ,orientation_qz         ,orientation_qy         ,orientation_qx         ,orientation_qw        ,orientation_roll       ,orientation_pitch     ,orientation_yaw       ,totalacceleration_time ,totalacceleration_seconds_elapsed ,totalacceleration_z   ,totalacceleration_y    ,totalacceleration_x
-0.2                    ,                       ,                              ,                       ,                     ,                      ,                               ,                                          ,                            ,                            ,                            ,                       ,                        ,                     ,                    ,                       ,                       ,                          ,                       ,                      ,                       ,                           ,                                      ,                        ,                        ,                        ,1.6887023118049108e+18 ,-0.180089111328125       ,       0.0               ,    0.0                ,       1.0633745193481443 ,        11.362000465393066  ,5.409421920776367  ,145.30799865722656   ,43.5               ,-122.753978        ,       49.1883572 ,                       ,                             ,                      ,                    ,                       ,                              ,                                         ,                           ,                           ,                           ,                       ,                            ,                       ,                       ,                       ,                      ,                       ,                      ,                      ,                       ,                                  ,                      ,                       ,
-0.1                    ,                       ,                              ,                       ,                     ,                      ,                               ,                                          ,                            ,                            ,                            ,                       ,                        ,                     ,                    ,                       ,                       ,                          ,                       ,                      ,                       ,                           ,                                      ,                        ,                        ,                        ,                       ,                         ,                         ,                       ,                          ,                            ,                   ,                     ,                   ,                   ,                  ,                       ,                             ,                      ,                    ,                       ,                              ,                                         ,                           ,                           ,                           ,                       ,                            ,                       ,                       ,                       ,                      ,                       ,                      ,                      ,1.6887023118910546e+18 ,-0.093945458984375                ,9.17874813079834      ,4.633940315246582      ,-0.2536391900852323
-0.0                    ,                       ,                              ,                       ,                     ,                      ,                               ,                                          ,                            ,                            ,                            ,                       ,                        ,                     ,                    ,                       ,                       ,                          ,                       ,                      ,                       ,                           ,                                      ,                        ,                        ,                        ,                       ,                         ,                         ,                       ,                          ,                            ,                   ,                     ,                   ,                   ,                  ,                       ,                             ,                      ,                    ,                       ,                              ,                                         ,                           ,                           ,                           ,                       ,                            ,                       ,                       ,                       ,                      ,                       ,                      ,                      ,1.6887023119862129e+18 ,0.0012129313151041654             ,11.330613454182943    ,4.5010987520217896     ,-0.5410770326852798
0.1                     ,1.6887023121159496e+18 ,          0.1309495849609375  ,-0.41418743133544916   ,-2.3969297409057617  ,1.6484862565994263    ,1.6887023121073014e+18         ,                      0.1223013916015625  ,8.33973479270935            ,2.249103754758835           ,-0.4292125515639782         ,1.6887023121159496e+18 ,    0.1309495849609375  ,8.559192657470703    ,4.4908061027526855  ,-1.672888457775116     ,1.6887023120899804e+18 ,      0.10498046875       ,1.8301827907562256     ,1.4238352298736572    ,0.6944316370412708     ,1.6887023121029747e+18     ,                  0.11797479248046876 ,1.7494417130947113      ,1.1414398849010468      ,0.9100746810436249      ,                       ,                         ,                         ,                       ,                          ,                            ,                   ,                     ,                   ,                   ,                  ,1.6887023120991073e+18 ,         0.11410728236607141 ,-41.98542785644531    ,-32.79359899248396  ,0.7895142755338124     ,1.688702312104108e+18         ,                     0.11910811360677083 ,-296.3888295491536         ,        62.50466537475586  ,-132.3781305948893         ,1.6887023121246036e+18 ,        0.1396036376953125  ,-0.9486649632453918    ,-0.1979494243860244    ,0.12272021546959874    ,0.21387524902820584   ,0.1646601930260658     ,-0.44238665699958796  ,2.7352142333984375    ,1.6887023120900344e+18 ,0.10503446451822918               ,7.74706236521403      ,2.829413056373596      ,-1.32173540443182
0.2                     ,1.6887023121851658e+18 ,          0.20016581217447915 ,-0.46459468205769855   ,-1.8295834064483643  ,-2.0203081369400024   ,1.6887023121851658e+18         ,                      0.20016577148437503 ,7.955178165435791           ,3.307718375325203           ,-4.587758874893188          ,1.6887023121851658e+18 ,    0.20016581217447915 ,8.368522961934408    ,4.706710338592529   ,-2.0027997692426047    ,1.6887023121851658e+18 ,      0.20016581217447915 ,-0.5697591006755829    ,0.202018224944671     ,0.4043418988585472     ,1.688702312189491e+18      ,                  0.20449072265625    ,-0.5922338751455148     ,0.17323120962828398     ,0.37832921495040256     ,                       ,                         ,                         ,                       ,                          ,                            ,                   ,                     ,                   ,                   ,                  ,1.6887023121841124e+18 ,         0.1991123779296875  ,-41.005419158935545   ,-34.53575897216797  ,1.4493599949404596     ,1.6887023121841124e+18        ,                     0.1991123779296875  ,-295.5462127685547         ,        60.929238891601564 ,-131.76243743896484        ,1.6887023121851658e+18 ,        0.20016577148437503 ,-0.9472410321235657    ,-0.20337198078632351   ,0.1401864171028137     ,0.20380212664604183   ,0.20534628033637997    ,-0.4582003831863403   ,2.7658957481384276    ,1.6887023121851658e+18 ,0.20016577148437503               ,7.94919605255127      ,3.325066313147545      ,-4.650570440292358
0.30000000000000004     ,1.6887023122889748e+18 ,          0.3039749348958333  ,-2.270763953526815     ,-3.3266175190607705  ,2.157682259877523     ,1.688702312280325e+18          ,                      0.2953252360026042  ,6.066902160644531           ,1.5586248487234116          ,0.24935204784075418         ,1.6887023122889748e+18 ,    0.3039749348958333  ,8.423544883728027    ,4.752198378245036   ,-1.5537691712379456    ,1.6887023122889748e+18 ,      0.3039749348958333  ,0.551687682668368      ,-1.031598669787248    ,-0.8912269435822964    ,1.688702312284649e+18      ,                  0.29964912109375    ,0.7179499417543411      ,-1.0750922977924346     ,-0.6334978267550468     ,                       ,                         ,                         ,                       ,                          ,                            ,                   ,                     ,                   ,                   ,                  ,1.6887023122841144e+18 ,         0.29911445312499996 ,-40.22461929321289    ,-35.07133903503418  ,0.3586800158023834     ,1.6887023122841144e+18        ,                     0.29911445312499996 ,-294.7654144287109         ,        60.39365844726562  ,-132.85311737060547        ,1.688702312280325e+18  ,        0.2953252360026042  ,-0.94752170642217      ,-0.21359800299008683   ,0.12210834274689353    ,0.20266152669986084   ,0.1637092530727386     ,-0.4712776343027751   ,2.7599528233210244    ,1.688702312280325e+18  ,0.2953252360026042                ,6.060920000076294     ,1.5759727855523427     ,0.18654043972492218
0.4                     ,1.6887023123841334e+18 ,          0.39913330078125    ,-3.2200560569763184    ,-6.0717803001403805  ,3.1803274869918825    ,1.6887023123841354e+18         ,                      0.3991355794270833  ,5.898607015609741           ,-2.708077003558477          ,1.9490537246068318          ,1.6887023123841334e+18 ,    0.39913330078125    ,9.219716262817382    ,3.1280471801757814  ,-1.1029940247535706    ,1.6887023123841334e+18 ,      0.39913330078125    ,-2.1874779224395753    ,-0.24620923064649106  ,-1.8438051223754883    ,1.688702312379807e+18      ,                  0.39480716959635415 ,-1.997554788986842      ,-0.2978477080663045     ,-1.9558377861976624     ,                       ,                         ,                         ,                       ,                          ,                            ,                   ,                     ,                   ,                   ,                  ,1.6887023123841152e+18 ,         0.3991152587890625  ,-46.22945899963379    ,-27.66471939086914  ,-2.342399948835373     ,1.6887023123841152e+18        ,                     0.3991152587890625  ,-300.77024841308594        ,        67.80027847290039  ,-135.5541976928711         ,1.6887023123841354e+18 ,        0.3991355794270833  ,-0.9738626579443613    ,-0.13392966985702512   ,0.06743517021338138    ,0.16497255737582842   ,0.0891197174787521     ,-0.2871823286016782   ,2.818281888961792     ,1.6887023123841354e+18 ,0.3991355794270833                ,5.8926247755686445    ,-2.6907291064659753    ,1.8862421562274296
0.5                     ,1.6887023124792916e+18 ,          0.494291748046875   ,-1.788347880045573     ,-5.137461344401042   ,-4.557116667429606    ,1.688702312487942e+18          ,                      0.5029416097005208  ,8.134998718897501           ,-4.567200501759847          ,-7.995417396227519          ,1.6887023124792916e+18 ,    0.494291748046875   ,9.379713853200277    ,0.6843754996856054  ,-2.4559230407079062    ,1.6887023124792916e+18 ,      0.494291748046875   ,-2.496962567170461     ,2.152383675177892     ,-2.9788079857826233    ,1.68870231248362e+18       ,                  0.49862015787760416 ,-2.4276039203008017     ,2.3214915792147317      ,-2.9969558318456015     ,                       ,                         ,                         ,                       ,                          ,                            ,                   ,                     ,                   ,                   ,                  ,1.6887023124841144e+18 ,         0.49911447753906246 ,-50.14199867248535    ,-16.971419906616212 ,8.027599787712097      ,1.6887023124841144e+18        ,                     0.49911447753906246 ,-304.6827911376953         ,        78.49357757568359  ,-125.18419723510742        ,1.688702312487942e+18  ,        0.5029416097005208  ,-0.9892131090164185    ,-0.0002855459849039806 ,0.12093163654208182    ,0.040396248688921284  ,0.24036678423484167    ,-0.008682770654559135 ,3.0567439794540405    ,1.688702312487942e+18  ,0.5029416097005208                ,8.129016558329264     ,-4.54985253016154      ,-8.058228890101114
0.6000000000000001      ,1.6887023125831017e+18 ,          0.5981016438802084  ,-0.227989117304484     ,-2.0404213865598044  ,-9.48538319269816     ,1.6887023125830984e+18         ,                      0.598098486328125   ,7.216394138336182           ,-4.2067018985748295         ,-14.440684509277343         ,1.6887023125831017e+18 ,    0.5981016438802084  ,7.683861255645752    ,-2.547260602315267  ,-5.374619007110596     ,1.6887023125831017e+18 ,      0.5981016438802084  ,-2.8501699765523276    ,3.7048213481903076    ,-1.9717711607615154    ,1.6887023125874278e+18     ,                  0.6024276529947916  ,-2.9298369884490967     ,3.6303975582122803      ,-2.0047324498494468     ,                       ,                         ,                         ,                       ,                          ,                            ,                   ,                     ,                   ,                   ,                  ,1.688702312584114e+18  ,         0.59911396484375    ,-45.68289985656738    ,-1.7811999410390853 ,26.843659782409667     ,1.688702312584114e+18         ,                     0.59911396484375    ,-300.22369689941405        ,        93.6837989807129   ,-106.36813888549804        ,1.6887023125830984e+18 ,        0.598098486328125   ,0.9464687228202819     ,-0.13193263709545128   ,-0.2823249816894531    ,0.05514712315052742   ,0.5744460344314575     ,0.2873771101236343    ,-0.5997777938842772   ,1.6887023125830984e+18 ,0.598098486328125                 ,7.210412120819091     ,-4.189353895187378     ,-14.503496360778808
0.7000000000000001      ,1.6887023126869105e+18 ,          0.7019105631510416  ,1.0150556564331055     ,0.10420151551564527  ,-10.944928725560507   ,1.688702312678262e+18          ,                      0.6932622070312501  ,6.127619981765747           ,-5.878467281659444          ,-17.735302289326984         ,1.6887023126869105e+18 ,    0.7019105631510416  ,5.120277563730876    ,-5.470248858133952  ,-6.2790820598602295    ,1.6887023126869105e+18 ,      0.7019105631510416  ,-0.479478324453036     ,1.4792101979255676    ,-2.695442875226339     ,1.6887023126912356e+18     ,                  0.7062353515625     ,-0.32100967193643254    ,1.444594492514928       ,-2.6717209418614707     ,                       ,                         ,                         ,                       ,                          ,                            ,                   ,                     ,                   ,                   ,                  ,1.6887023126841134e+18 ,         0.699113427734375   ,-35.10793933868408    ,14.188599824905396  ,35.94851913452148      ,1.6887023126841134e+18        ,                     0.699113427734375   ,-289.6487335205078         ,       109.65359725952149  ,-97.26327896118164         ,1.688702312678262e+18  ,        0.6932622070312501  ,0.8736476004123688     ,-0.26560653497775394   ,-0.38211161891619366   ,0.13431126872698462   ,0.816427598396937      ,0.6021222025156021    ,-1.0127473672231038   ,1.688702312678262e+18  ,0.6932622070312501                ,6.1216379801432295    ,-5.861119389533997     ,-17.79811382293701
0.8                     ,1.6887023127907187e+18 ,          0.8057187906901042  ,3.3667974273363748     ,5.20535131295522     ,0.03378907839457194   ,1.688702312782065e+18          ,                      0.7970648600260417  ,6.771588186422984           ,-0.8753742178281149         ,-7.579863905906677          ,1.6887023127907187e+18 ,    0.8057187906901042  ,2.9847869873046875   ,-5.946471373240153  ,-7.186110973358154     ,1.6887023127907187e+18 ,      0.8057187906901042  ,0.5655084947745005     ,2.2043835719426474    ,-0.055588761965433754  ,1.6887023127863913e+18     ,                  0.801391259765625   ,0.37684275507926945     ,2.4585493564605714      ,-0.013225212693214427   ,1.688702312834e+18     ,0.848999755859375        ,       0.0               ,    0.0                ,       0.9279209971427916 ,        54.16899871826172   ,0.0                ,  0.0                ,43.400001525878906 ,-122.7540791       ,       49.187963  ,1.6887023127841147e+18 ,         0.799114697265625   ,-24.515899658203125   ,18.8599796295166    ,41.261619567871094     ,1.6887023127841147e+18        ,                     0.799114697265625   ,-279.05669860839845        ,       114.32497863769531  ,-91.95017776489257         ,1.688702312782065e+18  ,        0.7970648600260417  ,0.8098297218481699     ,-0.32165549198786414   ,-0.473913495739301     ,0.12036446481943125   ,1.1102726856867473     ,0.6895046830177307    ,2.9986924727757773    ,1.688702312782065e+18  ,0.7970648600260417                ,6.765606304009754     ,-0.8580262859662374    ,-7.642675476459165
0.9                     ,1.6887023128858757e+18 ,          0.9008758300781249  ,-2.680320978164673     ,5.49937252998352     ,1.2840554237365722    ,1.6887023128858765e+18         ,                      0.90087646484375    ,-0.2268196294705073         ,-0.054037898778915405       ,-6.484050750732422          ,1.6887023128858757e+18 ,    0.9008758300781249  ,2.469649314880371    ,-5.2763245582580565 ,-7.89207010269165      ,1.6887023128858757e+18 ,      0.9008758300781249  ,0.6337421655654907     ,-0.13145819902420045  ,-0.0334754139184952    ,1.6887023128815532e+18     ,                  0.8965531005859374  ,0.7362707853317261      ,0.02995783835649489     ,0.06243552640080452     ,                       ,                         ,                         ,                       ,                          ,                            ,                   ,                     ,                   ,                   ,                  ,1.6887023128841198e+18 ,         0.899119775390625   ,-19.52609977722168    ,14.931579685211181  ,45.60115966796875      ,1.6887023128841198e+18        ,                     0.899119775390625   ,-274.0668975830078         ,       110.39657821655274  ,-87.61063842773437         ,1.6887023128858765e+18 ,        0.90087646484375    ,0.7915591895580292     ,-0.2822585602601369    ,-0.529778798421224     ,0.11399484922488524   ,1.224623719851176      ,0.6037027736504873    ,2.997058113416036     ,1.6887023128858765e+18 ,0.90087646484375                  ,-0.2328017254670461   ,-0.03668994208176938   ,-6.546862443288167
1.0                     ,1.6887023129810358e+18 ,          0.9960358072916667  ,-1.7059814135233562    ,-0.27236195405324315 ,0.4799625873565674    ,1.6887023129896855e+18         ,                      1.0046855061848958  ,0.43130628764629364         ,-5.798008759816487          ,-7.494420131047566          ,1.6887023129810358e+18 ,    0.9960358072916667  ,2.241411825021108    ,-5.0579923788706465 ,-8.098486026128134     ,1.6887023129810358e+18 ,      0.9960358072916667  ,0.3934226706624031     ,0.14334970774749914   ,-1.053717091679573     ,1.6887023129853655e+18     ,                  1.0003656005859376  ,0.38461602727572125     ,0.18392134768267474     ,-1.1463904579480488     ,                       ,                         ,                         ,                       ,                          ,                            ,                   ,                     ,                   ,                   ,                  ,1.6887023129841155e+18 ,         0.9991154785156249  ,-19.15277976989746    ,13.72865982055664   ,46.30875930786133      ,1.6887023129841155e+18        ,                     0.9991154785156249  ,-273.6935729980469         ,       109.19365768432617  ,-86.90303802490234         ,1.6887023129896855e+18 ,        1.0046855061848958  ,0.7856991589069366     ,-0.2951793869336446    ,-0.5377630790074667    ,0.07720711578925445   ,1.2712701559066772     ,0.5782861312230428    ,2.9048843383789062    ,1.6887023129896855e+18 ,1.0046855061848958                ,0.4253242338697116    ,-5.78066070874532      ,-7.5572318236033125
1.1                     ,1.688702313084844e+18  ,          1.099844197591146   ,-1.635547250509262     ,-1.7601641019185383  ,-2.1528958479563394   ,1.6887023130848476e+18         ,                      1.099847705078125   ,-0.28642086386680604        ,-6.715815639495849          ,-10.079884910583496         ,1.688702313084844e+18  ,    1.099844197591146   ,1.2999901572863262   ,-5.292324463526408  ,-8.153565247853598     ,1.688702313084844e+18  ,      1.099844197591146   ,-0.2542217541486025    ,-0.5979861468076706   ,-1.3780356645584106    ,1.6887023130891712e+18     ,                  1.1041710611979167  ,-0.27776551494995755    ,-0.7152977486451467     ,-1.2825116043289502     ,                       ,                         ,                         ,                       ,                          ,                            ,                   ,                     ,                   ,                   ,                  ,1.688702313084114e+18  ,         1.0991139404296875  ,-15.332959747314453   ,16.05153970718384   ,46.47223892211914      ,1.688702313084114e+18         ,                     1.0991139404296875  ,-269.87375793457034        ,       111.51653823852538  ,-86.73955993652343         ,1.6887023130848476e+18 ,        1.099847705078125   ,0.7565426588058471     ,-0.35540887713432306   ,-0.5475464582443237    ,0.0333844825625419    ,1.3899847984313964     ,0.6120335936546326    ,2.714628982543945     ,1.6887023130848476e+18 ,1.099847705078125                 ,-0.2924029409885406   ,-6.698467636108399     ,-10.142696571350097
1.2000000000000002      ,1.6887023131886533e+18 ,          1.2036534423828125  ,-1.3316502571105957    ,-3.2380944093068442  ,-7.553342342376709    ,1.688702313180003e+18          ,                      1.1950030517578125  ,0.6371887276570002          ,-8.563912073771158          ,-16.138990879058838         ,1.6887023131886533e+18 ,    1.2036534423828125  ,2.128895322481791    ,-5.047096808751424  ,-8.120518525441488     ,1.6887023131886533e+18 ,      1.2036534423828125  ,1.6063210740685463     ,-0.8101091297964255   ,-0.1248455892006556    ,1.6887023131843282e+18     ,                  1.1993282226562498  ,1.4209641862660647      ,-0.7550294265151024     ,-0.011514806747436523   ,                       ,                         ,                         ,                       ,                          ,                            ,                   ,                     ,                   ,                   ,                  ,1.688702313184112e+18  ,         1.199111962890625   ,-20.341059303283693   ,15.992979717254638  ,44.92405891418457      ,1.688702313184112e+18         ,                     1.199111962890625   ,-274.88185424804686        ,       111.45797882080078  ,-88.28773803710938         ,1.688702313180003e+18  ,        1.1950030517578125  ,-0.0042989253997802734 ,-0.009687711795171092  ,2.2525588671366375e-05 ,0.016815241406826865  ,1.29119739929835       ,0.5974993507067362    ,2.675845980644226     ,1.688702313180003e+18  ,1.1950030517578125                ,0.63120665649573      ,-8.54656426111857      ,-16.201801935831707
1.3                     ,1.688702313283811e+18  ,          1.2988111328124998  ,-2.5338937282562255    ,-0.30653131008148193 ,5.795606517791748     ,1.6887023132838126e+18         ,                      1.2988129069010417  ,-0.3505485047741483         ,-3.290430257717768          ,-3.227219800154368          ,1.688702313283811e+18  ,    1.2988111328124998  ,2.0851362466812136   ,-3.066713571548462  ,-9.069222831726075     ,1.688702313283811e+18  ,      1.2988111328124998  ,2.381916332244873      ,-0.16035212576389313  ,-1.3301896095275878    ,1.688702313279489e+18      ,                  1.2944890950520833  ,2.4367923637231192      ,-0.26794076959292096    ,-1.2833260496457417     ,                       ,                         ,                         ,                       ,                          ,                            ,                   ,                     ,                   ,                   ,                  ,1.6887023132841144e+18 ,         1.29911455078125    ,-21.50859966278076    ,6.259819865226746   ,46.83457870483399      ,1.6887023132841144e+18        ,                     1.29911455078125    ,-276.0493988037109         ,       101.72481918334961  ,-86.37721786499023         ,1.6887023132838126e+18 ,        1.2988129069010417  ,-0.7697737614313761    ,0.32694409787654877    ,0.5300171275933584     ,0.13450598344206802   ,1.3271478414535522     ,0.3691651026407878    ,2.50592573483785      ,1.6887023132838126e+18 ,1.2988129069010417                ,-0.35653059087538463  ,-3.2730822563171387    ,-3.290031452973684
1.4000000000000001      ,1.6887023133789704e+18 ,          1.3939702555338542  ,-0.5528162121772766    ,3.6129897038141885   ,8.008945862452189     ,1.6887023133876234e+18         ,                      1.4026232503255207  ,3.0282167245944343          ,0.20309080431858706         ,-1.6335999518632889         ,1.6887023133789704e+18 ,    1.3939702555338542  ,2.7605305115381875   ,-3.132872780164083  ,-8.829360167185465     ,1.6887023133789704e+18 ,      1.3939702555338542  ,-1.6403513302405675    ,-2.282192587852478    ,-0.5947536726792654    ,1.6887023133832998e+18     ,                  1.3982999267578125  ,-1.786144534746806      ,-2.3645066618919373     ,-0.4968625257412593     ,                       ,                         ,                         ,                       ,                          ,                            ,                   ,                     ,                   ,                   ,                  ,1.6887023133841137e+18 ,         1.3991135009765625  ,-24.97095947265625    ,7.055259895324707   ,44.76057929992676      ,1.6887023133841137e+18        ,                     1.3991135009765625  ,-279.5117523193359         ,       102.52025756835937  ,-88.45121765136719         ,1.6887023133876234e+18 ,        1.4026232503255207  ,-0.7853601972262064    ,0.35266607999801636    ,0.4707065125306447     ,0.185773529112339     ,1.23149840037028       ,0.389193058013916     ,2.402258038520813     ,1.6887023133876234e+18 ,1.4026232503255207                ,3.0222347726424537    ,0.2204388032356898     ,-1.6964115798473358
1.5                     ,1.688702313482781e+18  ,          1.497780965169271   ,-1.8055988947550456    ,-0.5715486605962118  ,-2.6415913899739585   ,1.6887023134914342e+18         ,                      1.506434285481771   ,2.047558307647705           ,-7.102695186932881          ,-9.099804719289144          ,1.688702313482781e+18  ,    1.497780965169271   ,4.199155966440837    ,-5.736572821935018  ,-6.64423131942749      ,1.688702313482781e+18  ,      1.497780965169271   ,-4.937063852945964     ,0.17496198415756223   ,0.9904162089029948     ,1.6887023134871068e+18     ,                  1.5021066894531252  ,-4.995885054270427      ,0.21670443813006093     ,0.9654725442330042      ,                       ,                         ,                         ,                       ,                          ,                            ,                   ,                     ,                   ,                   ,                  ,1.6887023134841144e+18 ,         1.4991145751953125  ,-32.88997917175293    ,19.14179973602295   ,35.19699897766113      ,1.6887023134841144e+18        ,                     1.4991145751953125  ,-287.43077392578124        ,       114.6067985534668   ,-98.01479721069336         ,1.6887023134914342e+18 ,        1.506434285481771   ,0.002479622761408488   ,-0.015983253717422485  ,0.018237034479777      ,0.06962430407293137   ,0.9488395353158315     ,0.7035057445367178    ,2.710662762324015     ,1.6887023134914342e+18 ,1.506434285481771                 ,2.0415762265523276    ,-7.085347294807434     ,-9.162616411844889
1.6                     ,1.688702313586591e+18  ,          1.6015911865234376  ,-0.6623576879501343    ,0.12920379638671875  ,-1.5348753134409587   ,1.6887023135865871e+18         ,                      1.601587109375      ,2.657349157333374           ,-7.910671615600586          ,-5.06656266450882           ,1.688702313586591e+18  ,    1.6015911865234376  ,4.228796402613322    ,-8.119778553644815  ,-3.3358901540438333    ,1.688702313586591e+18  ,      1.6015911865234376  ,-2.9383381605148315    ,-2.409125288327535    ,-1.620854601264        ,1.6887023135909169e+18     ,                  1.6059166259765625  ,-2.867223302523295      ,-2.4729352394739785     ,-1.6959655582904816     ,                       ,                         ,                         ,                       ,                          ,                            ,                   ,                     ,                   ,                   ,                  ,1.688702313584112e+18  ,         1.599112158203125   ,-33.85987949371338    ,32.60571918487549   ,20.788799667358397     ,1.688702313584112e+18         ,                     1.599112158203125   ,-288.4006744384766         ,       128.07071838378906  ,-112.42299728393554        ,1.6887023135865871e+18 ,        1.601587109375      ,0.8400671243667602     ,-0.4730552017688751    ,-0.23730904459953303   ,0.1072640180587768    ,0.5855632364749909     ,1.0103525638580322    ,1.8132081985473634    ,1.6887023135865871e+18 ,1.601587109375                    ,2.651367163658142     ,-7.893323707580566     ,-5.129374325275421
1.7000000000000002      ,1.6887023136904028e+18 ,          1.7054026692708335  ,4.047889908154805      ,2.1443381309509277   ,1.8034086922804515    ,1.6887023136817503e+18         ,                      1.696750447591146   ,8.116454442342123           ,-7.023432890574138          ,1.5012968182563782          ,1.6887023136904028e+18 ,    1.7054026692708335  ,3.697015404701233    ,-9.065919399261475  ,-0.43987412999073666   ,1.6887023136904028e+18 ,      1.7054026692708335  ,-0.8989900189141432    ,-1.4534266193707783   ,-0.10020734866460168   ,1.688702313686073e+18      ,                  1.701073095703125   ,-1.0302242428064345     ,-1.747288453578949      ,0.08084802627563477     ,                       ,                         ,                         ,                       ,                          ,                            ,                   ,                     ,                   ,                   ,                  ,1.6887023136841147e+18 ,         1.6991145507812502  ,-32.51909980773926    ,39.908639144897464  ,3.6917199373245237     ,1.6887023136841147e+18        ,                     1.6991145507812502  ,-287.0598907470703         ,       135.3736373901367   ,-129.52007522583008        ,1.6887023136817503e+18 ,        1.696750447591146   ,0.8176706930001577     ,-0.5572028656800588    ,-0.08365073613822456   ,0.11272987847526865   ,0.030357797319690388   ,1.1955227454503377    ,-2.8881845076878867   ,1.6887023136817503e+18 ,1.696750447591146                 ,8.110472281773886     ,-7.006085157394409     ,1.4384852051734924
1.8                     ,1.6887023137855606e+18 ,          1.8005606445312499  ,-6.533366107940674     ,-6.004327869415284   ,2.6403574347496033    ,1.688702313785559e+18          ,                      1.8005590006510417  ,-3.749652862548828          ,-15.441681941350302         ,1.9348962008953094          ,1.6887023137855606e+18 ,    1.8005606445312499  ,2.5796019554138185   ,-9.399431037902833  ,-0.7650977432727813    ,1.6887023137855606e+18 ,      1.8005606445312499  ,0.4889365494251251     ,3.1276606559753417    ,-2.4204924941062926    ,1.6887023137812357e+18     ,                  1.7962358398437501  ,0.5136104176441828      ,3.025666435559591       ,-2.092035320897897      ,                       ,                         ,                         ,                       ,                          ,                            ,                   ,                     ,                   ,                   ,                  ,1.688702313784113e+18  ,         1.7991129638671874  ,-27.468299293518065   ,42.608499145507814  ,5.16913994550705       ,1.688702313784113e+18         ,                     1.7991129638671874  ,-282.00909118652345        ,       138.07349700927733  ,-128.04265823364258        ,1.688702313785559e+18  ,        1.8005590006510417  ,0.7801638543605804     ,-0.5952716767787933    ,-0.1242765312393506    ,0.13147763287027675   ,0.18281836605941257    ,1.3056626717249553    ,-2.9571366707483926   ,1.688702313785559e+18  ,1.8005590006510417                ,-3.755634903907776    ,-15.424334247907003    ,1.8720845952630043
1.9000000000000001      ,1.6887023138807194e+18 ,          1.8957193196614581  ,-5.697192470232646     ,-0.4790468215942383  ,1.0726967453956604    ,1.6887023138893688e+18         ,                      1.9043687744140625  ,-3.89013143380483           ,-8.54118045171102           ,-1.477169156074524          ,1.6887023138807194e+18 ,    1.8957193196614581  ,1.1920420825481415   ,-9.515118281046549  ,-2.037378509839376     ,1.6887023138807194e+18 ,      1.8957193196614581  ,0.45603636900583905    ,3.159420430660248     ,-0.16712255155046782   ,1.6887023138850417e+18     ,                  1.9000418294270833  ,0.3579924901326497      ,2.9312623341878257      ,-0.20555615425109863    ,                       ,                         ,                         ,                       ,                          ,                            ,                   ,                     ,                   ,                   ,                  ,1.6887023138841144e+18 ,         1.8991144775390627  ,-18.108459663391113   ,44.227439880371094  ,16.66885976791382      ,1.6887023138841144e+18        ,                     1.8991144775390627  ,-272.6492523193359         ,       139.69243774414062  ,-116.54293823242188        ,1.6887023138893688e+18 ,        1.9043687744140625  ,0.7148169279098511     ,-0.5889294445514679    ,-0.30148400863011676   ,0.22360567251841224   ,0.9362527926762899     ,1.3599659999211628    ,2.9710925420125327    ,1.6887023138893688e+18 ,1.9043687744140625                ,-3.8961135149002075   ,-8.523832400639852     ,-1.5399807691574097
2.0                     ,1.6887023139845266e+18 ,          1.9995265299479168  ,0.26110762357711764    ,1.0330222447713215   ,-3.4742388129234314   ,1.688702313984528e+18          ,                      1.999527734375      ,0.49100723266601565         ,-8.625168323516846          ,-4.641358137130737          ,1.6887023139845266e+18 ,    1.9995265299479168  ,0.08409330124656357  ,-9.70704698562622   ,-1.1718005786339443    ,1.6887023139845266e+18 ,      1.9995265299479168  ,-1.8774942954381306    ,0.42607848346233373   ,-1.6960673729578655    ,1.6887023139888515e+18     ,                  2.0038512776692707  ,-1.8698330720265706     ,0.4553491473197937      ,-1.7534123361110687     ,                       ,                         ,                         ,                       ,                          ,                            ,                   ,                     ,                   ,                   ,                  ,1.6887023139841162e+18 ,         1.999116162109375   ,-12.398859691619872   ,46.42221870422363   ,14.54849967956543      ,1.6887023139841162e+18        ,                     1.999116162109375   ,-266.9396606445313         ,       141.88721466064453  ,-118.66329803466797        ,1.688702313984528e+18  ,        1.999527734375      ,0.6638196587562561     ,-0.6270876526832581    ,-0.30713191032409665   ,0.2655921995639801    ,1.6104302406311035     ,1.478362774848938     ,2.366310107707977     ,1.688702313984528e+18  ,1.999527734375                    ,0.4850251317024231    ,-8.607820796966553     ,-4.704169654846192
2.1                     ,1.6887023140883336e+18 ,          2.1033335367838544  ,0.07639002799987789    ,1.678115685780843    ,-3.961717367172241    ,1.688702314079689e+18          ,                      2.0946891682942708  ,-1.700898100932439          ,-8.206284840901693          ,-4.036990841229756          ,1.6887023140883336e+18 ,    2.1033335367838544  ,-1.564091165860494   ,-9.681950569152832  ,-0.09080240006248153   ,1.6887023140883336e+18 ,      2.1033335367838544  ,-0.18700112371395028   ,-0.2038762823988994   ,-0.88891073067983      ,1.6887023140840108e+18     ,                  2.099010888671875   ,-0.1911091957241297     ,-0.13307699263095857    ,-0.8661152780056        ,                       ,                         ,                         ,                       ,                          ,                            ,                   ,                     ,                   ,                   ,                  ,1.6887023140841152e+18 ,         2.0991153564453127  ,-3.222019910812378    ,49.24407844543457   ,9.082899856567384      ,1.6887023140841152e+18        ,                     2.0991153564453127  ,-257.7628173828125         ,       144.70907592773438  ,-124.12889785766602        ,1.688702314079689e+18  ,        2.0946891682942708  ,0.5854801038901011     ,-0.684499591588974     ,-0.3170824895302455    ,0.29651409387588495   ,-2.8931832313537598    ,1.4276020129521687    ,0.6517508427302042    ,1.688702314079689e+18  ,2.0946891682942708                ,-1.7068801522254944   ,-8.188937107721964     ,-4.099802573521932
2.2                     ,1.68870231418349e+18   ,          2.19849013671875    ,1.8037959098815919     ,-2.2699119567871096  ,-3.882685136795044    ,1.6887023141834944e+18         ,                      2.198494425455729   ,-0.6864409918586413         ,-11.669895807902018         ,-3.971985856691996          ,1.68870231418349e+18   ,    2.19849013671875    ,-2.3976781129837037  ,-9.502140235900878  ,-0.2414596170186996    ,1.68870231418349e+18   ,      2.19849013671875    ,0.25317310392856596    ,0.6323371440172195    ,-1.4209947347640992    ,1.6887023141791695e+18     ,                  2.1941696370442707  ,0.2469422767559687      ,0.4302782118320465      ,-1.3138184249401093     ,                       ,                         ,                         ,                       ,                          ,                            ,                   ,                     ,                   ,                   ,                  ,1.6887023141841134e+18 ,         2.199113427734375   ,2.161839970946312     ,49.29287910461426   ,9.062159824371339      ,1.6887023141841134e+18        ,                     2.199113427734375   ,-252.378955078125          ,       144.75787811279298  ,-124.14963760375977        ,1.6887023141834944e+18 ,        2.198494425455729   ,0.5572090943654379     ,-0.7137911717096964    ,-0.32692709565162653   ,0.26919224858283997   ,-3.04921289285024      ,1.333996574083964     ,0.7848003009955088    ,1.6887023141834944e+18 ,2.198494425455729                 ,-0.6924230357011157   ,-11.652547677357992    ,-4.0347975095113116
2.3000000000000003      ,1.6887023142786542e+18 ,          2.293654256184896   ,6.096568306287129      ,-2.2477391560872397  ,-3.0540472318728766   ,1.6887023142873055e+18         ,                      2.302305216471354   ,3.8182470723986626          ,-11.137991269429525         ,-3.339582776029905          ,1.6887023142786542e+18 ,    2.293654256184896   ,-2.780478596687317   ,-9.389098644256592  ,-0.1385518779667715    ,1.6887023142786542e+18 ,      2.293654256184896   ,0.4758894791205724     ,1.699427122871081     ,1.2981395423412323     ,1.688702314282978e+18      ,                  2.2979781087239584  ,0.47077348331610364     ,1.641191266477108       ,1.486413300037384       ,                       ,                         ,                         ,                       ,                          ,                            ,                   ,                     ,                   ,                   ,                  ,1.6887023142841124e+18 ,         2.2991122314453127  ,5.908459886908531     ,48.80487899780273   ,10.035719776153565     ,1.6887023142841124e+18        ,                     2.2991122314453127  ,-248.63233489990233        ,       144.2698760986328   ,-123.17607727050782        ,1.6887023142873055e+18 ,        2.302305216471354   ,0.5230041841665903     ,-0.6875915129979452    ,-0.38886330525080365   ,0.31692156692345935   ,-3.0225359996159873    ,1.3159039219220479    ,0.9364057779312134    ,1.6887023142873055e+18 ,2.302305216471354                 ,3.8122649838527045    ,-11.120643138885498    ,-3.4023944263656936
2.4000000000000004      ,1.688702314382462e+18  ,          2.3974620361328127  ,2.3631047308444977     ,-0.1030418872833252  ,-2.9526164531707764   ,1.6887023143911124e+18         ,                      2.4061121826171874  ,2.051446554561456           ,-10.935299078623453         ,-3.3879377841949463         ,1.688702314382462e+18  ,    2.3974620361328127  ,-0.422289825975895   ,-9.759617646535238  ,-0.6074804067611694    ,1.688702314382462e+18  ,      2.3974620361328127  ,0.999782790740331      ,0.960789238413175     ,2.2985841035842896     ,1.688702314386786e+18      ,                  2.4017860107421876  ,1.0700832108656566      ,1.1335368404785793      ,2.3267603119214377      ,                       ,                         ,                         ,                       ,                          ,                            ,                   ,                     ,                   ,                   ,                  ,1.6887023143841126e+18 ,         2.3991126220703127  ,-5.980439889431       ,48.13753890991211   ,12.951519584655761     ,1.6887023143841126e+18        ,                     2.3991126220703127  ,-260.5212371826172         ,       143.6025375366211   ,-120.26027755737304        ,1.6887023143911124e+18 ,        2.4061121826171874  ,0.5985719263553619     ,-0.585615078608195     ,-0.3947056581576665    ,0.3759108781814575    ,0.9040373762448629     ,1.500010351339976     ,0.24980031450589513   ,1.6887023143911124e+18 ,2.4061121826171874                ,2.0454645504554114    ,-10.917951107025146    ,-3.450749317804972
2.5                     ,1.6887023144862728e+18 ,          2.5012727864583333  ,0.9107407331466675     ,-13.24184242884318   ,-1.8712034622828166   ,1.6887023144862715e+18         ,                      2.50127158203125    ,2.2037895679473882          ,-22.95853500366211          ,-4.870231580734253          ,1.6887023144862728e+18 ,    2.5012727864583333  ,1.2581898768742878   ,-9.104373137156168  ,-3.213221033414205     ,1.6887023144862728e+18 ,      2.5012727864583333  ,3.391294757525126      ,4.776380777359009     ,1.8692476550738018     ,1.6887023144905946e+18     ,                  2.5055946858723956  ,3.4878369569778442      ,4.675308068593343       ,1.7571029576162498      ,                       ,                         ,                         ,                       ,                          ,                            ,                   ,                     ,                   ,                   ,                  ,1.6887023144841155e+18 ,         2.4991153564453126  ,-10.698179769515992   ,41.155479431152344  ,26.337359619140624     ,1.6887023144841155e+18        ,                     2.4991153564453126  ,-265.2389739990234         ,       136.62047729492187  ,-106.8744384765625         ,1.6887023144862715e+18 ,        2.50127158203125    ,0.6219090342521667     ,-0.38084825277328493   ,-0.5142371177673339    ,0.4450250267982483    ,1.0175517559051515     ,1.2119532823562622    ,-2.6318264484405516   ,1.6887023144862715e+18 ,2.50127158203125                  ,2.1978076934814457    ,-22.94118728637695     ,-4.933043146133423
2.6                     ,1.6887023145900823e+18 ,          2.6050823974609374  ,-4.28495995203654      ,2.176694869995117    ,2.2905550400416055    ,1.6887023145814282e+18         ,                      2.5964281005859373  ,-2.177967056632042          ,-6.932306329409282          ,-3.800001747906208          ,1.6887023145900823e+18 ,    2.6050823974609374  ,2.1782156825065613   ,-7.819811105728149  ,-5.432805299758911     ,1.6887023145900823e+18 ,      2.6050823974609374  ,0.2410372644662857     ,-3.1387528479099274   ,0.586659719546636      ,1.6887023145857582e+18     ,                  2.600758203125      ,0.4502687446773052      ,-3.203469055891037      ,0.7181942626833916      ,                       ,                         ,                         ,                       ,                          ,                            ,                   ,                     ,                   ,                   ,                  ,1.6887023145841116e+18 ,         2.59911162109375    ,-11.908419704437256   ,30.491459465026857  ,38.519059371948245     ,1.6887023145841116e+18        ,                     2.59911162109375    ,-266.44921875              ,       125.95645751953126  ,-94.6927375793457          ,1.6887023145814282e+18 ,        2.5964281005859373  ,0.6768206159273783     ,-0.26394673188527423   ,-0.5547978729009628    ,0.40174785256385803   ,1.1495345830917358     ,0.9351630210876465    ,-2.7038619120915732   ,1.6887023145814282e+18 ,2.5964281005859373                ,-2.1839491625626883   ,-6.914958278338115     ,-3.8628133926540613
2.7                     ,1.6887023146852406e+18 ,          2.700240576171875   ,-4.789495754241943     ,8.207729911804199    ,4.000224256515503     ,1.6887023146852396e+18         ,                      2.700239705403646   ,-1.4363914728164673         ,-0.6131607964634895         ,0.9670991698900858          ,1.6887023146852406e+18 ,    2.700240576171875   ,3.257148599624634    ,-8.705519866943359  ,-3.0728812217712402    ,1.6887023146852406e+18 ,      2.700240576171875   ,-2.340377449989319     ,-1.2108265221118928   ,-0.6017939060926437    ,1.6887023146809126e+18     ,                  2.6959126790364585  ,-2.338595767815908      ,-1.5324063943699002     ,-0.5334889938433965     ,                       ,                         ,                         ,                       ,                          ,                            ,                   ,                     ,                   ,                   ,                  ,1.6887023146841137e+18 ,         2.6991136962890625  ,-23.182439422607423   ,36.15958023071289   ,27.56223945617676      ,1.6887023146841137e+18        ,                     2.6991136962890625  ,-277.7232391357422         ,       131.62457733154298  ,-105.6495574951172         ,1.6887023146852396e+18 ,        2.700239705403646   ,0.7099136014779409     ,-0.37439175446828205   ,-0.42160142461458844   ,0.4201780656973521    ,0.6527308970689774     ,1.0889862577120464    ,-2.4738840659459433   ,1.6887023146852396e+18 ,2.700239705403646                 ,-1.442373553911845    ,-0.5958128546675047    ,0.9042875667413076
2.8000000000000003      ,1.6887023147803965e+18 ,          2.7953965657552082  ,-2.8673900763193765    ,8.65951673189799     ,2.7255744536717734    ,1.6887023147890476e+18         ,                      2.8040475260416664  ,0.23459633191426596         ,-0.962413220355908          ,1.238684539993604           ,1.6887023147803965e+18 ,    2.7953965657552082  ,3.297137459119161    ,-9.05886205037435   ,-1.8039144277572632    ,1.6887023147803965e+18 ,      2.7953965657552082  ,-0.731867476987342     ,-0.02756530170639356  ,-0.19344065959254897   ,1.6887023147847258e+18     ,                  2.7997255452473957  ,-0.6656904158492883     ,-0.10272717724243796    ,-0.3049744764963786     ,                       ,                         ,                         ,                       ,                          ,                            ,                   ,                     ,                   ,                   ,                  ,1.6887023147841147e+18 ,         2.7991147460937498  ,-23.624079513549805   ,40.47837944030762   ,20.718039512634277     ,1.6887023147841147e+18        ,                     2.7991147460937498  ,-278.1648712158203         ,       135.94337768554686  ,-112.49375762939454        ,1.6887023147890476e+18 ,        2.8040475260416664  ,0.6821427146593729     ,-0.41163180271784466   ,-0.38649456202983856   ,0.4643745770057042    ,0.3802284946044286     ,1.1697576840718586    ,-2.199535886446635    ,1.6887023147890476e+18 ,2.8040475260416664                ,0.22861425081888828   ,-0.9450652338564396    ,1.1758729393283527
2.9000000000000004      ,1.6887023148842086e+18 ,          2.899208658854167   ,-7.551406184832255     ,-16.100325345993042  ,7.066731711228688     ,1.6887023148842068e+18         ,                      2.8992068847656247  ,-6.643193519115448          ,-27.838936042785644         ,6.559564304351807           ,1.6887023148842086e+18 ,    2.899208658854167   ,1.307670973862211    ,-9.551474412282309  ,-1.5196461081504822    ,1.6887023148842086e+18 ,      2.899208658854167   ,-0.21184298334022364   ,1.2663745333751042    ,-2.8392507632573447    ,1.6887023148885348e+18     ,                  2.903534871419271   ,-0.3106249794363975     ,1.4591025412082672      ,-2.7694338957468667     ,                       ,                         ,                         ,                       ,                          ,                            ,                   ,                     ,                   ,                   ,                  ,1.6887023148841126e+18 ,         2.899112548828125   ,-14.779079675674438   ,44.20303916931152   ,19.247939682006837     ,1.6887023148841126e+18        ,                     2.899112548828125   ,-269.31987915039065        ,       139.66803741455078  ,-113.96385879516602        ,1.6887023148842068e+18 ,        2.8992068847656247  ,0.635284173488617      ,-0.48980274200439455   ,-0.4226890027523041    ,0.4189556181430817    ,0.7529104709625244     ,1.3572751522064208    ,-2.610083293914795    ,1.6887023148842068e+18 ,2.8992068847656247                ,-6.649175563454628    ,-27.82158784866333     ,6.496752738952637
3.0                     ,1.6887023149880159e+18 ,          3.0030159098307294  ,2.535627245903015      ,-7.748948256174724   ,-9.18225900332133     ,1.6887023149793656e+18         ,                      2.9943656412760418  ,7.711568991343181           ,-17.420546690622967         ,-8.48873774210612           ,1.6887023149880159e+18 ,    3.0030159098307294  ,-1.1446629861990611  ,-9.521790822347006  ,0.9495775227745374     ,1.6887023149880159e+18 ,      3.0030159098307294  ,-4.384408911069234     ,2.0695350964864097    ,-2.2860613763332367    ,1.6887023149836895e+18     ,                  2.998689501953125   ,-4.597860479354859      ,1.9419711828231812      ,-2.9590922713279726     ,                       ,                         ,                         ,                       ,                          ,                            ,                   ,                     ,                   ,                   ,                  ,1.6887023149841147e+18 ,         2.999114697265625   ,-0.6856399834156036   ,48.35957908630371   ,9.961299887299537      ,1.6887023149841147e+18        ,                     2.999114697265625   ,-255.22643127441407        ,       143.82457733154297  ,-123.25049743652343        ,1.6887023149793656e+18 ,        2.9943656412760418  ,0.48917057116826373    ,-0.566670556863149     ,-0.4591500808795293    ,0.4690210868914922    ,-1.1157897114753723    ,1.4148801565170288    ,-0.5830865104993185   ,1.6887023149793656e+18 ,2.9943656412760418                ,7.705586671829224     ,-17.40319848060608     ,-8.551549275716146
3.1                     ,1.6887023150831764e+18 ,          3.098176416015625   ,4.419336223602295      ,3.74125394821167     ,-10.409072875976562   ,1.6887023150831752e+18         ,                      3.098175089518229   ,0.4930211255947749          ,-5.459424287080765          ,-5.850251873334249          ,1.6887023150831764e+18 ,    3.098176416015625   ,-1.7987004518508911  ,-8.566702842712402  ,4.408715486526489      ,1.6887023150831764e+18 ,      3.098176416015625   ,-2.0737347841262816    ,-0.34697146415710445  ,0.607383307814598      ,1.6887023150788516e+18     ,                  3.0938516845703123  ,-2.251471141974131      ,0.12588915477196375     ,0.6911431184659401      ,1.6887023151111667e+18 ,3.126166748046875        ,       0.0               ,    1.2234703302383425 ,       1.0400148630142212 ,        46.60599899291992   ,0.4388920962810516 , 64.67472839355469   ,43.400001525878906 ,-122.7537841       ,       49.1880542 ,1.6887023150841178e+18 ,         3.0991177734375     ,5.67055995464325      ,48.6060188293457    ,-9.88687973022461      ,1.6887023150841178e+18        ,                     3.0991177734375     ,-248.8702377319336         ,       144.07101593017578  ,-143.0986755371094         ,1.6887023150831752e+18 ,        3.098175089518229   ,0.3279501547416051     ,-0.644221693277359     ,-0.3940863112608592    ,0.566657026608785     ,-1.868427852789561     ,1.054293264945348     ,0.28567272673050564   ,1.6887023150831752e+18 ,3.098175089518229                 ,0.487039176126321     ,-5.442076389988263     ,-5.9130635261535645
3.2                     ,1.6887023151783332e+18 ,          3.193333089192708   ,-2.847441832224528     ,6.6643772919972735   ,-8.359833558400473    ,1.688702315186984e+18          ,                      3.2019838867187502  ,-3.6725839376449585         ,-1.9865412563085556         ,-3.0454650223255157         ,1.6887023151783332e+18 ,    3.193333089192708   ,-0.6738593826691309  ,-8.355647246042887  ,5.069028933842977      ,1.6887023151783332e+18 ,      3.193333089192708   ,0.8465828597545624     ,0.15381078918774924   ,1.3913474082946777     ,1.6887023151826588e+18     ,                  3.197658732096354   ,1.0851766752700012      ,-0.06884960333506267    ,1.4674001137415569      ,                       ,                         ,                         ,                       ,                          ,                            ,                   ,                     ,                   ,                   ,                  ,1.688702315184115e+18  ,         3.199114990234375   ,-0.30255997031927107  ,47.7166389465332    ,-14.82665958404541     ,1.688702315184115e+18         ,                     3.199114990234375   ,-254.84335479736328        ,       143.1816375732422   ,-148.03845672607423        ,1.688702315186984e+18  ,        3.2019838867187502  ,0.3334417889515559     ,-0.6212657690048218    ,-0.3529069374005       ,0.6137692232926687    ,-1.6071640451749165    ,1.012683590253194     ,0.04915298086901506   ,1.688702315186984e+18  ,3.2019838867187502                ,-3.6785659790039062   ,-1.9691933343807857    ,-3.1082766304413476
3.3000000000000003      ,1.6887023152821432e+18 ,          3.297143025716146   ,0.6867403189341227     ,-24.215449730555218  ,-2.4776773850123086   ,1.688702315290794e+18          ,                      3.3057940673828123  ,0.8280165592829386          ,-34.87379471460978          ,-1.8448663353919985         ,1.6887023152821432e+18 ,    3.297143025716146   ,0.14071432128548625  ,-9.435355504353842  ,-0.0341639518737793    ,1.6887023152821432e+18 ,      3.297143025716146   ,7.912384748458862      ,5.649968981742859     ,1.6837991227706273     ,1.6887023152864707e+18     ,                  3.3014707438151043  ,7.895331621170044       ,6.4450355768203735      ,1.4536301828920841      ,                       ,                         ,                         ,                       ,                          ,                            ,                   ,                     ,                   ,                   ,                  ,1.6887023152841155e+18 ,         3.299115478515625   ,-5.99873993396759     ,47.03831901550293   ,8.935279902815818      ,1.6887023152841155e+18        ,                     3.299115478515625   ,-260.53953704833987        ,       142.5033172607422   ,-124.27651672363281        ,1.688702315290794e+18  ,        3.3057940673828123  ,0.5028435389200846     ,-0.43997371445099515   ,-0.5025115807851156    ,0.515906423330307     ,0.20583928128083548    ,1.3036923209826152    ,-1.6979254533847172   ,1.688702315290794e+18  ,3.3057940673828123                ,0.8220342795054117    ,-34.856446266174316    ,-1.9076778988043468
3.4000000000000004      ,1.688702315385952e+18  ,          3.400951822916667   ,-0.3035374482472741    ,6.735992352167766    ,9.067983706792196     ,1.6887023153859538e+18         ,                      3.40095380859375    ,-1.2278769448399545         ,-1.762912106513977          ,4.446223402023316           ,1.688702315385952e+18  ,    3.400951822916667   ,-0.4129767790436743  ,-8.76345411936442   ,-4.091585874557495     ,1.688702315385952e+18  ,      3.400951822916667   ,-0.6582582592964173    ,-5.568011204401652    ,0.18781558672587084    ,1.688702315390279e+18      ,                  3.405279012044271   ,-0.9699776458243528     ,-6.520553747812907      ,0.33791033426920575     ,                       ,                         ,                         ,                       ,                          ,                            ,                   ,                     ,                   ,                   ,                  ,1.6887023153841152e+18 ,         3.399115161132813   ,2.79868004322052      ,37.451559448242186  ,32.91315937042236      ,1.6887023153841152e+18        ,                     3.399115161132813   ,-251.7421142578125         ,       132.91655731201172  ,-100.29863739013672        ,1.6887023153859538e+18 ,        3.40095380859375    ,0.5281948804855346     ,-0.2809548020362854    ,-0.6496432065963745    ,0.4539156496524811    ,1.5875601053237913     ,1.1086400985717773    ,-2.8519382953643797   ,1.6887023153859538e+18 ,3.40095380859375                  ,-1.2338589414954186   ,-1.745564043521881     ,4.38341178894043
