seconds_elapsed_rounded,accelerometer_time,accelerometer_seconds_elapsed,accelerometer_z,accelerometer_y,accelerometer_x,accelerometeruncalibrated_time,accelerometeruncalibrated_seconds_elapsed,accelerometeruncalibrated_z,accelerometeruncalibrated_y,accelerometeruncalibrated_x,gravity_time,gravity_seconds_elapsed,gravity_z,gravity_y,gravity_x,gyroscope_time,gyroscope_seconds_elapsed,gyroscope_z,gyroscope_y,gyroscope_x,gyroscopeuncalibrated_time,gyroscopeuncalibrated_seconds_elapsed,gyroscopeuncalibrated_z,gyroscopeuncalibrated_y,gyroscopeuncalibrated_x,location_time,location_seconds_elapsed,location_bearingAccuracy,location_speedAccuracy,location_verticalAccuracy,location_horizontalAccuracy,location_speed,location_bearing,location_altitude,location_longitude,location_latitude,magnetometer_time,magnetometer_seconds_elapsed,magnetometer_z,magnetometer_y,magnetometer_x,magnetometeruncalibrated_time,magnetometeruncalibrated_seconds_elapsed,magnetometeruncalibrated_z,magnetometeruncalibrated_y,magnetometeruncalibrated_x,orientation_time,orientation_seconds_elapsed,orientation_qz,orientation_qy,orientation_qx,orientation_qw,orientation_roll,orientation_pitch,orientation_yaw
0.0,,,,,,,,,,,,,,,,1.6887028213163963e+18,0.071396240234375,-0.2408336251974105,0.4831944108009338,-0.1547016203403473,,,,,,1.6887028212731105e+18,0.028110595703125,0.0,0.0,3.1501922607421875,7.644000053405762,0.2521136701107025,212.94725036621097,44.10000228881836,-122.7533104,49.188405,,,,,,,,,,,,,,,,,,,
0.05,1.68870282136831e+18,0.12331005859375,-0.645047664642334,-0.861201286315918,-0.4706609547138214,1.6887028213510008e+18,0.1060006510416666,7.489933808644612,4.238885402679443,0.5353940725326538,1.68870282136831e+18,0.12331005859375,8.425446510314941,4.9716291427612305,0.7286117672920227,1.6887028213510008e+18,0.1060006510416666,-0.1789326071739196,0.4019493261973063,-0.3767511347929637,1.6887028213510008e+18,0.1060006510416666,-0.1777108808358509,0.4039855500062306,-0.3819943964481354,,,,,,,,,,,,1.6887028213467712e+18,0.101771240234375,-50.895958709716794,-2.3448399543762206,6.536759948730468,1.6887028213467712e+18,0.101771240234375,-308.3159545898437,92.27835845947266,-126.34563751220703,,,,,,,,,
0.1,1.6887028213942487e+18,0.1492486572265625,0.3748888969421386,-0.9660489559173584,-0.4938695430755615,1.6887028213942487e+18,0.1492486572265625,8.865407943725586,3.899104595184326,0.2039881274104117,1.6887028213942487e+18,0.1492486572265625,8.484673023223877,4.882658004760742,0.6351702511310577,1.6887028213942487e+18,0.1492486572265625,-0.1821142062544822,0.3723987191915511,-0.4100432991981506,1.6887028213942487e+18,0.1492486572265625,-0.1830304935574531,0.3767511397600174,-0.4076761901378631,,,,,,,,,,,,1.6887028213967729e+18,0.151772802734375,-50.49335861206055,-1.4566799402236938,7.573759841918945,1.6887028213967729e+18,0.151772802734375,-307.9133544921875,93.16651916503906,-125.3086395263672,1.688702821394249e+18,0.1492488606770833,0.1915338536103566,0.0224011565248171,0.2557429273923238,0.9473067124684652,-0.0638924203813075,-0.515666127204895,-0.4158741633097331
0.15,1.6887028214375078e+18,0.1925080566406249,1.4697157541910808,-1.0278545220692952,-1.207869569460551,1.6887028214375078e+18,0.1925080566406249,10.04267692565918,3.717449347178141,-0.7617152035236359,1.6887028214375078e+18,0.1925080566406249,8.56711514790853,4.762808322906494,0.3834669391314189,1.6887028214375078e+18,0.1925080566406249,-0.1581122875213622,0.6247115135192871,-0.2637410710255304,1.6887028214375078e+18,0.1925080566406249,-0.1590285847584406,0.629089375336965,-0.2613994230826695,,,,,,,,,,,,1.6887028214467735e+18,0.20177353515625,-50.36159896850586,-0.4660399913787841,8.971879577636718,1.6887028214467735e+18,0.20177353515625,-307.781591796875,94.15715942382812,-123.91051788330078,1.688702821446156e+18,0.201156005859375,0.1912593245506286,0.0359623742600281,0.2450450410445531,0.949768602848053,-0.0289793691287437,-0.49977641304334,-0.4048429330190022
0.2,1.6887028214894075e+18,0.2444076334635416,1.6532344818115234,-0.7585354646046957,-1.404521346092224,1.6887028214894075e+18,0.2444076334635416,10.244272232055662,3.964707612991333,-1.1056834856669109,1.6887028214894075e+18,0.2444076334635416,8.58519172668457,4.740747610727946,0.2361504832903543,1.6887028214894075e+18,0.2444076334635416,-0.0945823056002457,-0.024230991800626,0.0339030207445224,1.6887028214894075e+18,0.2444076334635416,-0.0954985991120337,-0.0198022176822026,0.0362955760210752,,,,,,,,,,,,1.6887028214967823e+18,0.251782275390625,-50.700758361816405,-0.0561199992895126,8.976759719848634,1.6887028214967823e+18,0.251782275390625,-308.120751953125,94.56707763671876,-123.90563659667968,1.688702821498057e+18,0.2530569661458333,0.1895204881827036,0.0404181679089863,0.2436590840419133,0.9503040711085,-0.0176948867738246,-0.4988560974597931,-0.3982052505016326
0.25,1.6887028215413105e+18,0.2963105468749999,3.2609055836995444,-1.6581239700317385,-2.23272713025411,1.6887028215413105e+18,0.2963105468749999,11.910274823506674,2.959522803624471,-1.995813449223836,1.6887028215413105e+18,0.2963105468749999,8.643523216247559,4.635151227315267,0.1742263237635294,1.6887028215413105e+18,0.2963105468749999,0.2449569652477899,0.5353724757830302,-0.5056946178277334,1.6887028215413105e+18,0.2963105468749999,0.2440915728608766,0.5397503475348154,-0.503302072485288,,,,,,,,,,,,1.6887028215467756e+18,0.3017755859375,-50.70807876586914,0.1366400048136711,9.30128002166748,1.6887028215467756e+18,0.3017755859375,-308.128076171875,94.7598373413086,-123.58111724853516,1.6887028215499543e+18,0.3049542643229166,0.1952863782644271,0.0455323954423268,0.2339432040850321,0.9513110915819804,-0.0053391009569167,-0.4813125928243001,-0.4062853852907817
0.3,1.68870282159321e+18,0.3482101236979167,1.1724367141723633,-3.281561533610026,-3.245018164316813,1.68870282159321e+18,0.3482101236979167,9.958529154459637,1.0737791458765666,-3.3092737197875977,1.68870282159321e+18,0.3482101236979167,8.780246416727701,4.37284517288208,-0.1269430095950762,1.68870282159321e+18,0.3482101236979167,0.7483099301656088,0.9202176332473756,-0.3496185441811879,1.68870282159321e+18,0.3482101236979167,0.7473936279614767,0.9246463775634766,-0.3472768987218539,,,,,,,,,,,,1.688702821596775e+18,0.351774951171875,-49.836998748779294,1.188279962539673,12.497679901123046,1.688702821596775e+18,0.351774951171875,-307.2570007324219,95.81147613525393,-120.38471832275393,1.6887028216018606e+18,0.3568605143229166,0.2170831710100173,0.0627955024441083,0.2175351579984028,0.9495007991790771,0.0276271061350901,-0.4560528397560119,-0.443122257788976
0.35,1.688702821645111e+18,0.40011083984375,-1.1362223625183103,-3.302462577819824,-2.4160106976826987,1.688702821645111e+18,0.40011083984375,7.4995048840840655,1.3391830921173096,-2.405983209609986,1.688702821645111e+18,0.40011083984375,8.629881223042807,4.659150123596191,-0.0526598803699016,1.688702821645111e+18,0.40011083984375,0.8021169702212015,-0.1684969961643218,1.3141238888104756,1.688702821645111e+18,0.40011083984375,0.8012006680170695,-0.1640682270129522,1.3165164391199748,,,,,,,,,,,,1.6887028216467738e+18,0.40177373046875,-49.585679626464845,-0.771040004491806,12.839280128479004,1.6887028216467738e+18,0.40177373046875,-307.00567016601565,93.85215759277344,-120.0431182861328,1.6887028216451118e+18,0.4001119384765624,0.2340648099780082,0.0658807680010795,0.2329925075173377,0.9415566921234132,0.0168966627679764,-0.488835871219635,-0.4831534624099731
0.4,1.6887028216970158e+18,0.4520159505208332,-0.5934702555338541,-1.3784279823303225,-1.830329418182373,1.6887028216970158e+18,0.4520159505208332,7.611369450887044,3.985644896825155,-1.7856439352035522,1.6887028216970158e+18,0.4520159505208332,8.198993682861328,5.381577491760254,-0.0180019224644638,1.6887028216970158e+18,0.4520159505208332,0.3916155298550923,0.8477282524108887,1.5424856344858806,1.6887028216970158e+18,0.4520159505208332,0.3907501300175984,0.852106124162674,1.5448273420333862,,,,,,,,,,,,1.688702821696774e+18,0.45177392578125,-49.036679077148435,-4.997119903564453,13.25163974761963,1.688702821696774e+18,0.45177392578125,-306.4566711425781,89.62607879638672,-119.63075714111328,1.6887028216883622e+18,0.4433623860677083,0.2436972111463546,0.0739043802022933,0.2677862048149109,0.9291211366653442,0.0080359644343843,-0.5630177656809489,-0.5106270909309387
0.45,1.6887028217489124e+18,0.5039125162760416,-1.5879616737365725,-1.844431718190511,-1.946033596992493,1.6887028217489124e+18,0.5039125162760416,6.411368687947591,3.796412547429403,-2.4265215396881104,1.6887028217489124e+18,0.5039125162760416,7.993484338124593,5.658348719278972,-0.5431753695011139,1.6887028217489124e+18,0.5039125162760416,0.6873761216799418,1.8878281116485596,-0.0994692395130792,1.6887028217489124e+18,0.5039125162760416,0.6864598194758097,1.8922569354375205,-0.0970766618847846,,,,,,,,,,,,1.688702821746777e+18,0.5017771484375,-47.27987976074219,-7.651839733123779,17.326439476013185,1.688702821746777e+18,0.5017771484375,-304.6998718261719,86.97135772705079,-115.55595703125,1.68870282174026e+18,0.4952598470052083,0.2640540897846222,0.1111088419953981,0.2811860839525858,0.9157697558403016,0.0672288027902443,-0.6112587054570516,-0.5402279694875082
0.5,1.6887028218008174e+18,0.5558174641927084,-1.3687828381856282,-0.9121521313985188,-1.7254417339960737,1.6887028218008174e+18,0.5558174641927084,6.875576496124268,4.34397013982137,-2.37567408879598,1.6887028218008174e+18,0.5558174641927084,8.238513310750326,5.273626963297526,-0.7129197518030802,1.6887028218008174e+18,0.5558174641927084,0.8063421249389648,0.1127555527103444,-1.387580434481303,1.6887028218008174e+18,0.5558174641927084,0.8054258227348328,0.1171334141981787,-1.3851369222005208,,,,,,,,,,,,1.6887028217967767e+18,0.5517767578124999,-46.767478942871094,-6.3927998542785645,19.51511917114258,1.6887028217967767e+18,0.5517767578124999,-304.1874633789063,88.2303970336914,-113.36727905273438,1.6887028217921656e+18,0.5471654459635417,0.2938189009825389,0.1296504437923431,0.2566909392674764,0.911504050095876,0.1023290753364562,-0.575404147307078,-0.5932509700457255
0.55,1.68870282184407e+18,0.5990699462890625,0.6001553535461426,-0.3077714443206787,-1.23291677236557,1.68870282184407e+18,0.5990699462890625,9.205487728118896,4.367499589920044,-1.6570296883583069,1.68870282184407e+18,0.5990699462890625,8.599486351013184,4.692775726318359,-0.4868003278970718,1.68870282184407e+18,0.5990699462890625,0.6538548767566681,-0.0193186104297638,-1.8410714864730835,1.68870282184407e+18,0.5990699462890625,0.6530149281024933,-0.0148898363113403,-1.8387043476104736,,,,,,,,,,,,1.6887028218467753e+18,0.60177548828125,-47.17495956420898,-3.252519965171814,19.37115936279297,1.6887028218467753e+18,0.60177548828125,-304.59495239257814,91.3706771850586,-113.51123809814452,1.6887028218440622e+18,0.59906201171875,0.315688411394755,0.1097172647714614,0.2216015656789143,0.9159683386484782,0.0697054937481879,-0.4953126907348633,-0.6460751493771871
0.6,1.6887028218873208e+18,0.64232080078125,1.4121214548746746,4.358538230260213,-8.425722440083822,1.6887028218873208e+18,0.64232080078125,10.299705823262531,8.460023800532023,-8.964310963948568,1.6887028218873208e+18,0.64232080078125,8.881738344828287,4.118989626566569,-0.6012757817904154,1.6887028218873208e+18,0.64232080078125,0.661872478822867,1.0309369166692095,-1.0556260471542676,1.6887028218873208e+18,0.64232080078125,0.6609562175969282,1.0353147586186726,-1.053233467042446,,,,,,,,,,,,1.6887028218967782e+18,0.6517781250000001,-46.62107925415039,-0.4026000037789344,20.73511962890625,1.6887028218967782e+18,0.6517781250000001,-304.04107666015625,94.22059783935546,-112.14727935791016,1.6887028218959685e+18,0.6509684244791667,0.3409148057301839,0.1106561347842216,0.1837705373764038,0.915231227874756,0.0849242856105167,-0.4245485067367553,-0.6948429544766744
0.65,1.6887028219392225e+18,0.69422216796875,-0.6014095942179362,-0.6961897214253744,-1.3881465991338091,1.6887028219392225e+18,0.69422216796875,8.211170196533203,3.4721850951512656,-2.3872393369674683,1.6887028219392225e+18,0.69422216796875,8.806733767191568,4.185879389444987,-1.0617801348368328,1.6887028219392225e+18,0.69422216796875,1.2111421475807826,1.4860824346542358,0.6726644337177277,1.6887028219392225e+18,0.69422216796875,1.2102767477432887,1.4904602766036987,0.675006111462911,,,,,,,,,,,,1.688702821946778e+18,0.701778076171875,-45.03995971679687,-1.8592799663543704,23.841239547729497,1.688702821946778e+18,0.701778076171875,-302.4599548339844,92.76391906738282,-109.04115753173828,1.6887028219478756e+18,0.7028756510416666,0.3669534722963969,0.1424941519896189,0.1822843899329503,0.900830090045929,0.1366614749034245,-0.4480686783790588,-0.7424497008323669
0.7,1.688702821991128e+18,0.7461279296875,1.0229657491048176,-1.609441916147868,0.3911584814389546,1.688702821991128e+18,0.7461279296875,9.39940611521403,3.3030923207600913,-0.8669994113345941,1.688702821991128e+18,0.7461279296875,8.370594342549643,4.930038770039876,-1.3208452860514324,1.688702821991128e+18,0.7461279296875,1.5084808270136516,1.4018848339716594,2.011121114095052,1.688702821991128e+18,0.7461279296875,1.5076154073079426,1.4063136180241902,2.013462702433268,,,,,,,,,,,,1.688702821996782e+18,0.751782177734375,-43.04159851074219,-6.951559925079346,26.866839981079103,1.688702821996782e+18,0.751782177734375,-300.4615966796875,87.67163696289063,-106.01555786132812,1.68870282199977e+18,0.7547699381510417,0.4045077264308929,0.1842474540074665,0.212626149257024,0.8699290951093038,0.1745752443869908,-0.5460094014803568,-0.8214060266812643
0.75,1.688702822043018e+18,0.798017822265625,2.236452420552572,-0.8880592981974283,-2.5820792516072593,1.688702822043018e+18,0.798017822265625,9.875178972880043,5.0462634563446045,-4.076572100321452,1.688702822043018e+18,0.798017822265625,7.632880528767903,5.95182736714681,-1.5571802457173665,1.688702822043018e+18,0.798017822265625,0.6411030863722166,1.479006588459015,2.1792108615239463,1.688702822043018e+18,0.798017822265625,0.6401867642998694,1.4834353526433308,2.1816033522288003,,,,,,,,,,,,1.6887028220467756e+18,0.801775439453125,-39.808599853515624,-13.476119804382323,28.701719284057617,1.6887028220467756e+18,0.801775439453125,-297.2285949707031,81.14707794189454,-104.18067779541016,1.6887028220516652e+18,0.8066653645833334,0.4207264383633931,0.2332634230454763,0.2524826228618621,0.8393115798632304,0.2308869659900665,-0.6691256761550903,-0.848314106464386
0.8,1.6887028220949345e+18,0.8499344889322916,-0.3557375272115071,-0.9259335199991862,-1.5880531867345171,1.6887028220949345e+18,0.8499344889322916,6.6865434646606445,5.510271787643433,-3.771886070569357,1.6887028220949345e+18,0.8499344889322916,7.036434968312581,6.4537099202473955,-2.2465202808380127,1.6887028220949345e+18,0.8499344889322916,-0.5719734827677408,1.071864902973175,0.4528038700421651,1.6887028220949345e+18,0.8499344889322916,-0.5728897750377655,1.0762427548567457,0.4551964203516642,1.688702822099e+18,0.854,0.0,0.0,4.108354091644287,87.9489974975586,0.0,0.0,43.400001525878906,-122.7538295,49.1876069,1.6887028220967706e+18,0.8517704101562501,-35.69232025146484,-16.43827953338623,32.23239936828613,1.6887028220967706e+18,0.8517704101562501,-293.11231689453126,78.18491821289062,-100.65,1.6887028220949338e+18,0.8499338378906249,0.4155410826206207,0.2769686132669449,0.2599145770072937,0.8264573216438293,0.3276112526655197,-0.7205288112163544,-0.80739626288414
0.85,1.6887028221468265e+18,0.90182666015625,-0.641333262125651,-6.471546649932861,1.787543535232544,1.6887028221468265e+18,0.90182666015625,6.990830739339192,-0.595613448570172,0.1186441083749135,1.6887028221468265e+18,0.90182666015625,7.626317977905273,5.8934377034505205,-1.7315868536631267,1.6887028221468265e+18,0.90182666015625,1.8363626996676128,-2.0044525067011514,-2.758005698521932,1.6887028221468265e+18,0.90182666015625,1.8354464371999104,-2.000023682912191,-2.755613088607788,,,,,,,,,,,,1.6887028221467802e+18,0.9017802246093748,-37.4003189086914,-14.740039825439451,31.522359085083007,1.6887028221467802e+18,0.9017802246093748,-294.8203125,79.88315887451172,-101.36003875732422,1.6887028221381755e+18,0.8931753743489583,0.4267138143380483,0.2493662883838017,0.2418756435314814,0.8345739245414734,0.2715198198954264,-0.6640254457791647,-0.8499799569447836
0.9,1.6887028221987277e+18,0.9537276204427084,-1.760118007659912,-6.443894863128662,2.8739649454752603,1.6887028221987277e+18,0.9537276204427084,6.952944278717041,-2.0215362906455994,3.193421204884847,1.6887028221987277e+18,0.9537276204427084,8.707216262817383,4.439863046010335,0.2567688922087351,1.6887028221987277e+18,0.9537276204427084,2.7234917879104614,-3.1828115781148276,-3.9271508057912192,1.6887028221987277e+18,0.9537276204427084,2.7225755055745444,-3.1783827940622964,-3.924758275349935,,,,,,,,,,,,1.6887028221967844e+18,0.951784228515625,-43.38807907104492,-10.694519805908204,24.238959884643556,1.6887028221967844e+18,0.951784228515625,-300.8080749511719,83.92867736816406,-108.64343872070312,1.6887028221900782e+18,0.9450783691406248,0.4886303345362345,0.1352068930864333,0.2111622889836628,0.8345567584037781,0.0249807437260945,-0.5052994787693024,-1.050452729066213
0.95,1.6887028222506322e+18,1.0056321614583337,0.9806480407714844,-3.5934521357218423,-0.2144291400909423,1.6887028222506322e+18,1.0056321614583337,10.22931702931722,-0.6155536075433096,1.1599207421143851,1.6887028222506322e+18,1.0056321614583337,9.242822964986166,2.9954030513763428,1.311662475268046,1.6887028222506322e+18,1.0056321614583337,-0.496582547823588,-0.269289751847585,-2.5003223419189453,1.6887028222506322e+18,1.0056321614583337,-0.4974479178587596,-0.2648609975973766,-2.497980753580729,,,,,,,,,,,,1.6887028222467756e+18,1.0017755859375002,-47.39699935913086,-3.2964399814605714,17.233719635009766,1.6887028222467756e+18,1.0017755859375002,-304.81699829101564,91.3267578125,-115.64867706298828,1.688702822241978e+18,0.99697802734375,0.5131145914395651,0.0331750412782033,0.1742461075385411,0.8395859996477762,-0.1308039501309394,-0.3328681389490763,-1.1190845568974812
1.0,1.6887028223025318e+18,1.057531982421875,-3.197193463643392,-5.218799432118733,-1.939694007237752,1.6887028223025318e+18,1.057531982421875,6.422934214274089,-3.3876386483510337,-1.7525432109832764,1.6887028223025318e+18,1.057531982421875,9.61428165435791,1.8486653168996177,0.1244634489218394,1.6887028223025318e+18,1.057531982421875,-2.055205146471659,3.0235793590545654,-2.516815662384033,1.6887028223025318e+18,1.057531982421875,-2.056121508280436,3.027957280476888,-2.514474074045817,,,,,,,,,,,,1.6887028222967785e+18,1.051778564453125,-46.22335968017578,3.8356799125671386,21.096239471435545,1.6887028222967785e+18,1.051778564453125,-303.643359375,98.45887756347656,-111.7861587524414,1.688702822293875e+18,1.0488749186197917,0.4883722166220347,0.0382598564028739,0.1002526357769965,0.8654485742251078,-0.0331767735381921,-0.211959476272265,-1.031947910785675
1.05,1.6887028223457833e+18,1.100783447265625,-4.389954090118408,-4.230858325958252,-3.0125255584716797,1.6887028223457833e+18,1.100783447265625,5.310271739959717,-3.717848181724548,-4.290031790733337,1.6887028223457833e+18,1.100783447265625,9.694379806518556,0.5305146500468254,-1.3401936888694763,1.6887028223457833e+18,1.100783447265625,-2.3796255588531494,3.031113386154175,-3.442225694656372,1.6887028223457833e+18,1.100783447265625,-2.380465507507324,3.035542130470276,-3.43978214263916,,,,,,,,,,,,1.6887028223467794e+18,1.101779443359375,-40.826079559326175,12.66115951538086,27.093759536743164,1.6887028223467794e+18,1.101779443359375,-298.24607543945314,107.28435668945312,-105.78863677978516,1.6887028223457836e+18,1.1007835286458334,0.4465351303418477,0.0770691980918248,-0.0091320754339297,0.8906291921933492,0.1455710629622141,-0.0520901369551817,-0.9268468022346495
1.1,1.6887028223890312e+18,1.1440311686197917,-1.3939590454101562,-3.5522611935933432,-5.711194356282552,1.6887028223890312e+18,1.1440311686197917,8.037291844685873,-4.752145767211914,-8.017351468404135,1.6887028223890312e+18,1.1440311686197917,9.42540486653646,-1.182379921277364,-2.368844827016195,1.6887028223890312e+18,1.1440311686197917,-2.3177754084269204,2.437199592590332,-3.5024468898773193,1.6887028223890312e+18,1.1440311686197917,-2.318691809972127,2.441577434539795,-3.500105142593384,,,,,,,,,,,,1.688702822396773e+18,1.1517730957031251,-33.39627952575684,22.899399948120116,30.185239410400392,1.688702822396773e+18,1.1517730957031251,-290.8162780761719,117.52259674072266,-102.69715728759766,1.688702822397681e+18,1.15268115234375,0.3948719302813212,0.0940403267741202,-0.1261787191033363,0.9045610825220743,0.2765270968278249,0.1550697783629099,-0.845602810382843
1.15,1.6887028224409362e+18,1.1959359537760417,0.737945556640625,-2.1973145802815757,-7.560365835825603,1.6887028224409362e+18,1.1959359537760417,9.455039024353026,-5.1505506833394366,-10.874780972798666,1.6887028224409362e+18,1.1959359537760417,8.711247444152832,-2.9357314109802246,-3.377103090286255,1.6887028224409362e+18,1.1959359537760417,-1.9501873254776,2.6977336406707764,-2.873051881790161,1.6887028224409362e+18,1.1959359537760417,-1.9510526657104492,2.7021114826202393,-2.870710293451945,,,,,,,,,,,,1.688702822446778e+18,1.2017779296875,-25.37599983215332,30.580519485473634,31.63459930419922,1.688702822446778e+18,1.2017779296875,-282.79600219726564,125.20371704101562,-101.24779815673828,1.68870282244958e+18,1.204579833984375,0.3430987397829692,0.1185730149348576,-0.226791630188624,0.9032287995020548,0.4028507769107818,0.3350035846233368,-0.7958808938662211
1.2,1.6887028224928376e+18,1.2478374837239583,1.717851638793945,-0.6872248649597168,-8.542869567871094,1.6887028224928376e+18,1.2478374837239583,9.346963246663412,-5.171886603037517,-12.708879152933756,1.6887028224928376e+18,1.2478374837239583,7.623265584309896,-4.467157046000163,-4.228697697321574,1.6887028224928376e+18,1.2478374837239583,-0.9078475534915924,2.411135991414388,-2.974048376083374,1.6887028224928376e+18,1.2478374837239583,-0.9086620608965555,2.415564775466919,-2.97165584564209,,,,,,,,,,,,1.6887028224967798e+18,1.25177958984375,-15.598919868469238,36.18519821166992,32.09332008361817,1.6887028224967798e+18,1.25177958984375,-273.0189147949219,130.8083953857422,-100.78907928466796,1.6887028225014843e+18,1.256484130859375,0.3068444033463796,0.1447370847066243,-0.3209938903649648,0.8838362097740173,0.5432274341583252,0.4991036852200826,-0.8109816114107767
1.25,1.688702822544739e+18,1.299739013671875,2.5579042434692383,2.4924042224884033,-7.222873528798421,1.688702822544739e+18,1.299739013671875,8.986245473225912,-2.9593233267466226,-12.188440004984535,1.688702822544739e+18,1.299739013671875,6.422495206197103,-5.434223016103108,-5.028254508972168,1.688702822544739e+18,1.299739013671875,0.5909612327814102,1.8504635492960613,-2.482047319412231,1.688702822544739e+18,1.299739013671875,0.5900958379109701,1.8548922936121623,-2.4796547094980874,,,,,,,,,,,,1.6887028225467817e+18,1.3017818359375,-6.761240005493164,37.66872024536133,33.728119659423825,1.6887028225467817e+18,1.3017818359375,-264.1812438964844,132.2919189453125,-99.15427703857422,1.6887028225447368e+18,1.29973681640625,0.3028607368469238,0.1680704951286315,-0.3843619525432586,0.8556369245052338,0.6770286560058594,0.5893680453300476,-0.8936008512973785
1.3,1.688702822596635e+18,1.3516350911458332,11.94528102874756,8.144972801208496,-3.5209787686665854,1.688702822596635e+18,1.3516350911458332,17.295122782389324,2.5104697545369468,-9.45284620920817,1.688702822596635e+18,1.3516350911458332,5.343995889027913,-5.616998831431071,-5.994555314381917,1.688702822596635e+18,1.3516350911458332,-0.4070907831192016,4.365395863850911,0.9663379192352296,1.688702822596635e+18,1.3516350911458332,-0.4079561829566955,4.369773546854655,0.9687813917795816,,,,,,,,,,,,1.6887028225967726e+18,1.35177255859375,0.2927999850362539,37.74924011230469,35.09451904296875,1.6887028225967726e+18,1.35177255859375,-257.1271942138672,132.3724365234375,-97.78787841796876,1.688702822587988e+18,1.3429881998697917,0.2899602750937143,0.2138508160909016,-0.4192368785540263,0.8326139052708944,0.8229437470436096,0.6128079493840536,-0.9442387421925864
1.35,1.688702822648539e+18,1.4035388997395837,-0.6495664914449056,1.4155174096425374,-2.982776165008545,1.688702822648539e+18,1.4035388997395837,3.558525954683622,-3.934797445933024,-9.989635785420736,1.688702822648539e+18,1.4035388997395837,4.202246348063151,-5.332810242970784,-7.0695474942525225,1.688702822648539e+18,1.4035388997395837,0.4194608082373937,3.7364081541697183,1.0560333132743835,1.688702822648539e+18,1.4035388997395837,0.4185954083998998,3.7408369382222495,1.0584767659505208,,,,,,,,,,,,1.6887028226467753e+18,1.4017751953125,5.360680007934571,37.949319458007814,34.61139907836914,1.6887028226467753e+18,1.4017751953125,-252.05932006835937,132.57251586914063,-98.2709976196289,1.6887028226398863e+18,1.3948862304687502,0.2226763665676116,0.3184181551138559,-0.4232930640379587,0.8178809682528178,1.0175841848055522,0.583959956963857,-0.8633977770805359
1.4,1.688702822700446e+18,1.4554459635416668,-3.029646952946981,1.5034186045328777,-1.4864025115966797,1.688702822700446e+18,1.4554459635416668,0.6378866334756216,-3.372882843017578,-9.117651303609213,1.688702822700446e+18,1.4554459635416668,3.6616875330607095,-4.858796914418538,-7.693936665852864,1.688702822700446e+18,1.4554459635416668,1.0468194087346394,0.6709845637281736,-0.04128431280454,1.688702822700446e+18,1.4554459635416668,1.0459540287653606,0.6753624143699805,-0.0389426598946253,,,,,,,,,,,,1.6887028226967752e+18,1.451775,8.886479949951172,36.73908004760742,36.12175979614258,1.6887028226967752e+18,1.451775,-248.53351440429688,131.36227722167968,-96.76063842773438,1.6887028226917868e+18,1.4467867024739585,0.2073281109333038,0.3809394737084706,-0.4128688375155131,0.8008444706598917,1.1297310988108318,0.5274629990259806,-0.8455437819163004
1.45,1.6887028227523392e+18,1.5073392740885414,-3.018214464187622,-0.4872002601623535,-0.0241936047871907,1.6887028227523392e+18,1.5073392740885414,0.430907482902209,-4.914658228556315,-8.016753673553467,1.6887028227523392e+18,1.5073392740885414,3.4432759284973145,-4.409953276316325,-8.05524762471517,1.6887028227523392e+18,1.5073392740885414,1.5276721715927124,0.3258457034826278,-0.4285219808419545,1.6887028227523392e+18,1.5073392740885414,1.5267558892567952,0.3302744676669438,-0.4261803130308787,,,,,,,,,,,,1.6887028227467766e+18,1.5017765136718748,9.689239883422852,34.17951965332031,37.46375961303711,1.6887028227467766e+18,1.5017765136718748,-247.7307556152344,128.80271911621094,-95.41863861083984,1.6887028227436913e+18,1.49869140625,0.2333232462406158,0.3981612722078959,-0.4104225536187489,0.7864202260971069,1.1704206466674805,0.4776745537916818,-0.8967084487279257
1.5,1.6887028227955963e+18,1.55059619140625,-6.143795967102051,-0.8544344902038574,0.035193920135498,1.6887028227955963e+18,1.55059619140625,-2.9509485960006714,-4.759623289108276,-8.325228214263916,1.6887028227955963e+18,1.55059619140625,3.187001347541809,-3.887684226036072,-8.423110008239746,1.6887028227955963e+18,1.55059619140625,1.8913151621818545,0.1106429621577262,-1.3949107825756073,1.6887028227955963e+18,1.55059619140625,1.8903988599777224,0.1149953752756118,-1.392467349767685,,,,,,,,,,,,1.6887028227967793e+18,1.551779296875,11.255719757080078,31.09047927856445,40.14044036865234,1.6887028227967793e+18,1.551779296875,-246.16427612304688,125.71367645263672,-92.74195861816406,1.6887028227955927e+18,1.550592610677083,0.272927055756251,0.4177904824415843,-0.4096073408921559,0.7634518345197042,1.2198725938796997,0.4085738559563954,-0.9742427269617716
1.55,1.688702822838839e+18,1.5938389485677085,-3.1072723468144736,-2.0747474829355874,1.4422438939412434,1.688702822838839e+18,1.5938389485677085,-0.2594218949476878,-5.679563999176025,-7.170890649159749,1.688702822838839e+18,1.5938389485677085,2.8420042991638184,-3.5873118241628013,-8.675821940104166,1.688702822838839e+18,1.5938389485677085,1.5184582869211831,-0.299323966105779,-2.9829567273457847,1.688702822838839e+18,1.5938389485677085,1.517542004585266,-0.2949460993210474,-2.9806151390075684,,,,,,,,,,,,1.6887028228467758e+18,1.601775634765625,15.901479721069336,25.417480087280275,43.25143966674805,1.6887028228467758e+18,1.601775634765625,-241.51851806640624,120.04067840576172,-89.6309585571289,1.6887028228474993e+18,1.6024991861979168,0.3352197011311849,0.4112850328286488,-0.4403374195098877,0.7238598465919495,1.2729653120040894,0.37004949649175,-1.1425211032231648
1.6,1.68870282289075e+18,1.645750162760417,-2.98122771581014,-1.5061697165171306,1.862845738728841,1.68870282289075e+18,1.645750162760417,-0.3902294834454854,-5.1565327644348145,-6.812366008758545,1.68870282289075e+18,1.645750162760417,2.5851522286732993,-3.6328583558400473,-8.73789914449056,1.68870282289075e+18,1.645750162760417,0.5029457112153372,-1.0638218522071838,-3.1133765379587808,1.68870282289075e+18,1.645750162760417,0.5020294189453125,-1.059393008550008,-3.111034870147705,,,,,,,,,,,,1.6887028228967808e+18,1.651780859375,18.05111961364746,21.603759765625,44.66419906616211,1.6887028228967808e+18,1.651780859375,-239.3688720703125,116.22695770263672,-88.21820068359375,1.6887028228993958e+18,1.654395751953125,0.3912516037623088,0.3741724789142608,-0.4827177127202351,0.6880256732304891,1.2943493127822876,0.3807561894257863,-1.3234038352966309
1.65,1.6887028229426504e+18,1.6976504720052084,-1.205384413401286,-1.1593472957611084,4.067760467529297,1.6887028229426504e+18,1.6976504720052084,1.1256236632664998,-5.2297132809956866,-4.4927239418029785,1.6887028229426504e+18,1.6976504720052084,2.3251620133717856,-4.052861293156941,-8.62317180633545,1.6887028229426504e+18,1.6976504720052084,-0.576096827785174,-0.1128573566675186,-2.3273456494013467,1.6887028229426504e+18,1.6976504720052084,-0.5770131299893061,-0.1084285726149877,-2.325004061063131,,,,,,,,,,,,1.6887028229467758e+18,1.70177578125,19.610279846191407,19.971399307250977,45.08631896972656,1.6887028229467758e+18,1.70177578125,-237.8097137451172,114.59459838867188,-87.79607849121093,1.688702822951293e+18,1.7062928873697916,0.4154449303944905,0.3346650997797648,-0.5264985760052999,0.6618093053499857,1.3247559467951455,0.432089885075887,-1.4604390859603882
1.7,1.6887028229945487e+18,1.749548746744792,-2.1655263900756836,-0.2072068850199381,1.2507799466451008,1.6887028229945487e+18,1.749548746744792,-0.2243271072705586,-4.768496672312419,-7.161917527516683,1.6887028229945487e+18,1.749548746744792,1.93535319964091,-4.543785095214844,-8.475385030110678,1.6887028229945487e+18,1.749548746744792,-0.6915503541628519,0.2396627931545177,-0.5833254059155782,1.6887028229945487e+18,1.749548746744792,-0.692466656366984,0.2440406645958621,-0.5809837480386097,,,,,,,,,,,,1.6887028229967729e+18,1.751772900390625,21.452479934692384,20.766839599609376,43.91511917114258,1.6887028229967729e+18,1.751772900390625,-235.96752014160157,115.3900375366211,-88.96727600097657,1.6887028229945472e+18,1.749547119140625,0.4079162627458572,0.3200682252645492,-0.5507463216781616,0.6540849208831787,1.3570172786712646,0.4772633761167526,-1.5025855898857117
1.75,1.6887028230464532e+18,1.8014534505208333,0.3060321410497029,1.0175089836120603,-7.009685516357422,1.6887028230464532e+18,1.8014534505208333,2.241077780723572,-3.8540396690368657,-15.249658266703287,1.6887028230464532e+18,1.8014534505208333,1.9291996161142984,-4.854044119517009,-8.30266030629476,1.6887028230464532e+18,1.8014534505208333,-0.8795441190401713,-0.2057597786188125,0.0554869261880715,1.6887028230464532e+18,1.8014534505208333,-0.8804604411125183,-0.201331004500389,0.0578794814646244,,,,,,,,,,,,1.6887028230467753e+18,1.80177529296875,21.625719833374024,22.035639572143555,43.195318603515624,1.6887028230467753e+18,1.80177529296875,-235.79427185058591,116.658837890625,-89.68707885742188,1.6887028230377997e+18,1.7927998046875,0.4011850555737813,0.309901605049769,-0.5570417046546936,0.6577864487965902,1.355022708574931,0.505429615577062,-1.5050167640050252
1.8,1.688702823098355e+18,1.8533551432291664,0.1052518288294474,-5.132287820180257,-9.616559346516928,1.688702823098355e+18,1.8533551432291664,1.829711730281512,-10.075777371724447,-17.855841000874836,1.688702823098355e+18,1.8533551432291664,1.718613862991333,-4.925984700520833,-8.301968892415365,1.688702823098355e+18,1.8533551432291664,1.120581368605296,1.1107566555341084,-0.2214895611008008,1.688702823098355e+18,1.8533551432291664,1.1197160085042317,1.1151854197184246,-0.2190970008571942,,,,,,,,,,,,1.6887028230967762e+18,1.851776123046875,22.323559951782222,23.0335994720459,42.336439514160155,1.6887028230967762e+18,1.851776123046875,-235.096435546875,117.65679779052736,-90.54595794677736,1.688702823089698e+18,1.844698323567708,0.387929896513621,0.3076492051283518,-0.5628806153933207,0.6617460449536642,1.3640218178431194,0.5308745900789896,-1.4949047565460205
1.85,1.6887028231502523e+18,1.9052522786458332,-1.5584145387013753,5.071487824122111,1.513365586598714,1.6887028231502523e+18,1.9052522786458332,-0.4630111853281657,1.1651052633921306,-7.357929706573486,1.6887028231502523e+18,1.9052522786458332,1.0895573298136394,-3.8888781865437823,-8.933982849121094,1.6887028231502523e+18,1.9052522786458332,2.1745276053746543,1.1921035448710124,0.0490219357113043,1.6887028231502523e+18,1.9052522786458332,2.1736112038294473,1.1965322891871135,0.0514653970797857,,,,,,,,,,,,1.6887028231467753e+18,1.9017753417968748,25.58095932006836,17.980359649658205,43.7345588684082,1.6887028231467753e+18,1.9017753417968748,-231.8390380859375,112.60355834960936,-89.14783782958985,1.6887028231416036e+18,1.896603515625,0.4067436854044596,0.3590480089187622,-0.5608734687169393,0.6250519156455994,1.446748932202657,0.4215600291887918,-1.5269733667373655
1.9,1.6887028232021555e+18,1.9571554361979164,-3.811473766962687,8.373538653055826,6.820204099019368,1.6887028232021555e+18,1.9571554361979164,-2.857030232747396,4.90249490737915,-2.249253273010254,1.6887028232021555e+18,1.9571554361979164,0.948597530523936,-3.4535390535990396,-9.132144610087076,1.6887028232021555e+18,1.9571554361979164,-0.066431591908137,-0.6429865459601084,-0.1578068584203719,1.6887028232021555e+18,1.9571554361979164,-0.067347894112269,-0.6386596063772837,-0.1554652030269304,,,,,,,,,,,,1.6887028231967744e+18,1.95177451171875,26.80583953857422,15.235359573364258,44.00539932250977,1.6887028231967744e+18,1.95177451171875,-230.6141571044922,109.85855865478516,-88.87699890136719,1.688702823193508e+18,1.9485082194010417,0.4181501766045888,0.3883454104264577,-0.55412491162618,0.6060266296068827,1.480844537417094,0.3542284369468689,-1.5322126150131226
1.95,1.6887028232454095e+18,2.0004095458984374,-3.2305140495300293,8.954777717590332,5.598696708679199,1.6887028232454095e+18,2.0004095458984374,-1.6124633252620697,5.020141959190369,-3.1821550130844116,1.6887028232454095e+18,2.0004095458984374,1.612204611301422,-3.917130827903747,-8.843539237976074,1.6887028232454095e+18,2.0004095458984374,-2.1184043288230896,-2.608852744102478,-0.4957935065031051,1.6887028232454095e+18,2.0004095458984374,-2.1193206310272217,-2.604423999786377,-0.4933500587940216,,,,,,,,,,,,1.688702823246778e+18,2.001777880859375,23.68507957458496,17.165399742126464,45.0277587890625,1.688702823246778e+18,2.001777880859375,-233.7349151611328,111.7885971069336,-87.8546371459961,1.6887028232454054e+18,2.000405517578125,0.4289823770523071,0.3430862526098886,-0.5506834983825684,0.6279943982760111,1.3980082273483276,0.4088740448156993,-1.5430782238642375
2.0,1.6887028232886572e+18,2.0436570638020832,0.8757855494817098,0.2948258717854819,3.781648556391398,1.6887028232886572e+18,2.0436570638020832,3.5698919991652165,-4.763112743695578,-4.101896365483602,1.6887028232886572e+18,2.0436570638020832,2.688260475794474,-5.040434042612712,-7.946232318878174,1.6887028232886572e+18,2.0436570638020832,-3.2722015380859375,-3.379764715830485,0.1315396651625633,1.6887028232886572e+18,2.0436570638020832,-3.2730158964792886,-3.375335931777954,0.1339831079045931,,,,,,,,,,,,1.6887028232967757e+18,2.05177578125,17.131239700317384,22.93599967956543,43.82971878051758,1.6887028232967757e+18,2.05177578125,-240.28875427246095,117.55919647216795,-89.05267791748047,1.6887028232973084e+18,2.052308268229167,0.4233160614967345,0.2455093612273533,-0.5409321188926697,0.6831942995389303,1.2155009110768635,0.5600336988766988,-1.503583510716756
2.05,1.6887028233405622e+18,2.0955620930989585,3.083188692728679,-4.125512599945068,-2.215529123942057,1.6887028233405622e+18,2.0955620930989585,6.996214548746745,-10.171689669291178,-8.816554228464762,1.6887028233405622e+18,2.0955620930989585,3.907179832458496,-6.028672377268474,-6.663712819417317,1.6887028233405622e+18,2.0955620930989585,-3.743687709172567,-0.8146396881590287,2.4082853396733603,1.6887028233405622e+18,2.0955620930989585,-3.7446038722991943,-0.8102618368963402,2.4107288122177124,,,,,,,,,,,,1.6887028233467825e+18,2.1017823730468748,10.14307975769043,31.112439727783205,40.413719177246094,1.6887028233467825e+18,2.1017823730468748,-247.27691345214845,125.73563537597656,-92.4686782836914,1.688702823349203e+18,2.1042029622395835,0.3718693753083547,0.18706509967645,-0.5089120467503866,0.7524161338806152,1.011839270591736,0.6761139035224915,-1.3029943704605105
2.1,1.6887028233924636e+18,2.1474637044270835,-3.731863498687744,-10.665637969970703,-3.100382645924886,1.6887028233924636e+18,2.1474637044270835,1.7463617672522862,-17.306488672892254,-7.720641454060872,1.6887028233924636e+18,2.1474637044270835,5.472379207611084,-6.62334680557251,-4.682946523030599,1.6887028233924636e+18,2.1474637044270835,-4.134336074193318,-2.587930599848429,2.8803823391596475,1.6887028233924636e+18,2.1474637044270835,-4.135201295216878,-2.583552678426107,2.8827748696009317,,,,,,,,,,,,1.6887028233967813e+18,2.151781298828125,0.3342799663543701,39.750040435791014,32.13967933654785,1.6887028233967813e+18,2.151781298828125,-257.08570861816406,134.37323913574218,-100.74271697998049,1.6887028234011105e+18,2.1561103515625,0.2910509606202443,0.1156246488293011,-0.4461811780929565,0.8378250002861023,0.6679120063781738,0.7471344073613485,-0.939460039138794
2.15,1.6887028234443635e+18,2.199363606770833,-2.2030390898386636,-0.6240893999735516,0.0634739398956298,1.6887028234443635e+18,2.199363606770833,3.931008736292521,-7.512665430704753,-3.2506495118141174,1.6887028234443635e+18,2.199363606770833,6.128201802571614,-6.8710713386535645,-3.376810868581136,1.6887028234443635e+18,2.199363606770833,-0.8066984613736471,-2.0173824628194175,-0.3572543462117513,1.6887028234443635e+18,2.199363606770833,-0.8075638711452484,-2.0129537185033164,-0.354810893535614,,,,,,,,,,,,1.6887028234467743e+18,2.20177412109375,-5.346039867401123,43.06355972290039,26.85951957702637,1.6887028234467743e+18,2.20177412109375,-262.7660339355469,137.68675537109374,-106.0228775024414,1.6887028234443658e+18,2.19936572265625,0.2802390158176422,0.0640955436974763,-0.4315581172704696,0.8550024926662445,0.5161756575107574,0.7783141732215881,-0.8490442335605621
2.2,1.6887028234962647e+18,2.2512648111979168,-2.999509493509928,3.0533525149027505,1.395076076189677,1.6887028234962647e+18,2.2512648111979168,3.3930225372314453,-3.885744492212931,-1.2851451635360718,1.6887028234962647e+18,2.2512648111979168,6.386686007181804,-6.921592394510905,-2.7429086367289224,1.6887028234962647e+18,2.2512648111979168,0.3790418704350788,-1.6602299213409424,0.052127165098985,1.6887028234962647e+18,2.2512648111979168,0.378125583132108,-1.6558520793914795,0.0544688204924265,,,,,,,,,,,,1.688702823496774e+18,2.251773974609375,-7.73479995727539,43.21971969604492,25.978679656982425,1.688702823496774e+18,2.251773974609375,-265.15479736328126,137.842919921875,-106.90371704101562,1.688702823487614e+18,2.2426139322916665,0.2978405058383941,0.02529394471397,-0.4221458534399668,0.8557347257932028,0.430345207452774,0.7860550483067831,-0.850630005200704
2.25,1.6887028235481649e+18,2.3031649576822915,-3.8002724647521977,4.063336372375488,1.29025665918986,1.6887028235481649e+18,2.3031649576822915,2.5633112589518228,-2.985843817392985,-1.166700442632039,1.6887028235481649e+18,2.3031649576822915,6.35773770014445,-7.031675815582275,-2.5196444988250732,1.6887028235481649e+18,2.3031649576822915,-0.1417207370201746,-0.1733839213848114,-0.9007208148638408,1.6887028235481649e+18,2.3031649576822915,-0.142637034257253,-0.1689551422993342,-0.8982773323853811,,,,,,,,,,,,1.688702823546777e+18,2.3017770996093754,-8.25207986831665,43.25143890380859,25.71027946472168,1.688702823546777e+18,2.3017770996093754,-265.6720703125,137.87463989257813,-107.1721176147461,1.6887028235395085e+18,2.2945083821614585,0.315325379371643,0.0018021383245164,-0.4186475078264872,0.8516229589780172,0.3902181287606557,0.7922752499580383,-0.8741664886474609
2.3,1.688702823600067e+18,2.355066975911458,-1.6484298706054688,4.897589047749837,1.97886061668396,1.688702823600067e+18,2.355066975911458,3.851447423299154,-2.817947546641032,-0.5238287548224131,1.688702823600067e+18,2.355066975911458,5.494031270345052,-7.698032220204671,-2.5653768380482993,1.688702823600067e+18,2.355066975911458,-0.9853765368461608,1.7538450956344604,-2.66225258509318,1.688702823600067e+18,2.355066975911458,-0.98624191681544,1.7582738002141316,-2.6599618593851724,,,,,,,,,,,,1.6887028235967754e+18,2.35177548828125,-3.0499999269843103,44.683719635009766,24.946559524536134,1.6887028235967754e+18,2.35177548828125,-260.4699951171875,139.30691833496093,-107.9358367919922,1.6887028235914168e+18,2.346416910807292,0.2961835960547129,-0.0021668329136446,-0.4591709772745768,0.8372187614440918,0.435605635245641,0.8796094258626302,-0.8881588379542033
2.35,1.688702823651971e+18,2.406971354166666,3.965677340825398,-0.860959529876709,-1.231455127398173,1.688702823651971e+18,2.406971354166666,8.074181318283081,-9.476574738820394,-3.4833515087763467,1.688702823651971e+18,2.406971354166666,4.102658112843831,-8.598110516866049,-2.3145837783813477,1.688702823651971e+18,2.406971354166666,-1.5002341270446775,-0.2366084456443785,-1.938937197128932,1.688702823651971e+18,2.406971354166666,-1.5011504491170249,-0.2321796913941701,-1.9365446666876476,,,,,,,,,,,,1.688702823646782e+18,2.401781787109375,6.1390398979187015,46.32583999633789,21.781879806518553,1.688702823646782e+18,2.401781787109375,-251.28095703125,140.94903869628905,-111.10051727294922,1.6887028236433175e+18,2.398317708333334,0.2451693763335545,-0.0039718645469596,-0.5349782109260559,0.8081698218981425,0.5401206016540527,1.0493580897649128,-0.9069998462994894
2.4,1.688702823695223e+18,2.450223022460938,15.681637287139893,-3.709779739379883,-3.174521565437317,1.688702823695223e+18,2.450223022460938,19.869102478027344,-12.40140151977539,-4.982454776763916,1.688702823695223e+18,2.450223022460938,4.181618928909302,-8.674117088317871,-1.8706206083297727,1.688702823695223e+18,2.450223022460938,0.1409571543335915,0.7051675319671631,0.3750712722539902,1.688702823695223e+18,2.450223022460938,0.1401172205805778,0.7095199823379517,0.3774383664131164,,,,,,,,,,,,1.6887028236967736e+18,2.4517735839843753,6.473319816589355,46.93339920043945,20.03971939086914,1.6887028236967736e+18,2.4517735839843753,-250.9466766357422,141.5565979003906,-112.84267730712892,1.6887028236952197e+18,2.4502197265625,0.2400810370842615,-0.0318986695880691,-0.539400319258372,0.8062529563903809,0.4629554251829783,1.0873158772786458,-0.8618013064066569
2.45,1.6887028237384704e+18,2.4934706217447915,-8.452217102050781,-6.656461715698242,-0.0999650955200195,1.6887028237384704e+18,2.4934706217447915,-5.357529958089192,-15.560525258382162,-2.744766970475515,1.6887028237384704e+18,2.4934706217447915,3.088841358820597,-8.88655916849772,-2.707489252090454,1.6887028237384704e+18,2.4934706217447915,-1.5445219005147617,8.122318903605143,-1.6413949529329936,1.6887028237384704e+18,2.4934706217447915,-1.545438160498937,8.126747767130533,-1.6390023628870647,,,,,,,,,,,,1.6887028237467794e+18,2.5017793457031248,14.732719802856446,47.074919891357425,16.452919578552248,1.6887028237467794e+18,2.5017793457031248,-242.6872772216797,141.6981170654297,-116.42947845458984,1.6887028237471242e+18,2.502124267578125,0.1274175817767778,0.0870877988636493,-0.5949074029922485,0.78664763768514,0.8170658548672994,1.1604691346486409,-0.8759576876958212
2.5,1.688702823790376e+18,2.545376057942708,-12.125009218851725,-10.530806859334309,5.301733652750651,1.688702823790376e+18,2.545376057942708,-10.28435198465983,-19.85484441121419,2.8640093008677163,1.688702823790376e+18,2.545376057942708,1.8348113695780437,-9.306533177693684,-2.5004116694132485,1.688702823790376e+18,2.545376057942708,-1.031751419107119,2.552144149939219,-0.1203913539648056,1.688702823790376e+18,2.545376057942708,-1.0326677014430363,2.556572914123535,-0.1179988036553065,,,,,,,,,,,,1.6887028237967775e+18,2.551777685546875,20.095839309692384,47.497039794921875,8.354559803009034,1.6887028237967775e+18,2.551777685546875,-237.32415771484375,142.1202362060547,-124.52783813476564,1.688702823799027e+18,2.554027099609375,0.0298389879365761,0.1432886918385823,-0.6255205074946085,0.7663137118021647,0.9693765640258788,1.2538811763127644,-0.8067145546277364
2.55,1.6887028238422735e+18,2.5972736002604164,-2.7217753330866494,6.722162087758382,2.6361912886301675,1.6887028238422735e+18,2.5972736002604164,-0.8578269186740121,-2.6079772313435874,0.237886448080341,1.6887028238422735e+18,2.5972736002604164,1.8581023613611856,-9.312634785970053,-2.460992177327474,1.6887028238422735e+18,2.5972736002604164,-0.1927788853645324,0.0502436667059858,0.1970549424489339,1.6887028238422735e+18,2.5972736002604164,-0.1936951875686645,0.0546215331802765,0.1994984050591786,,,,,,,,,,,,1.6887028238467763e+18,2.601776416015625,19.46875991821289,47.76055908203125,7.7665197372436525,1.6887028238467763e+18,2.601776416015625,-237.95123596191405,142.38375549316407,-125.11587677001953,1.688702823850924e+18,2.605923828125,0.0207454108943541,0.1471389780441919,-0.6223146319389343,0.7685279448827108,0.9447342952092488,1.2546019554138184,-0.7634812593460083
2.6,1.688702823894173e+18,2.6491731770833336,-1.9761019150416057,4.271018981933594,1.1502952178319297,1.688702823894173e+18,2.6491731770833336,-0.1026919744908809,-5.133202791213989,-0.9353942374388377,1.688702823894173e+18,2.6491731770833336,1.8675639231999712,-9.386717160542808,-2.1483768224716187,1.688702823894173e+18,2.6491731770833336,-0.9826785524686176,0.0368555386861165,-0.1221730522811412,1.688702823894173e+18,2.6491731770833336,-0.9835439324378968,0.0412843078374862,-0.119780495762825,,,,,,,,,,,,1.688702823896775e+18,2.651774853515625,19.556599044799803,48.172918701171874,6.304959869384765,1.688702823896775e+18,2.651774853515625,-237.86339416503907,142.7961181640625,-126.57743530273436,1.688702823894174e+18,2.6491739501953124,0.0082944573368876,0.1390149593353271,-0.6237326264381409,0.7691175937652588,0.8851145505905151,1.276999831199646,-0.6979613304138184
2.65,1.6887028239460805e+18,2.7010806477864584,-1.923115571339925,-0.885931650797526,-0.4075056711832682,1.6887028239460805e+18,2.7010806477864584,-0.4929214616616567,-10.498309771219889,-1.77467679977417,1.6887028239460805e+18,2.7010806477864584,1.4243480761845906,-9.594873428344728,-1.4298585255940754,1.6887028239460805e+18,2.7010806477864584,-1.504408359527588,-0.5467243989308676,-1.5567392110824585,1.6887028239460805e+18,2.7010806477864584,-1.5053246815999348,-0.5423465271790823,-1.5543466011683147,,,,,,,,,,,,1.688702823946777e+18,2.701777294921875,21.81359977722168,47.71663970947266,3.6160799980163576,1.688702823946777e+18,2.701777294921875,-235.606396484375,142.33983459472657,-129.26631774902344,1.6887028239374267e+18,2.692426839192708,-0.0097862804153312,0.1157550637920696,-0.6414721608161926,0.7581355571746826,0.8267248272895813,1.3474100828170776,-0.64779661099116
2.7,1.6887028239979786e+18,2.7529785970052085,-1.1047811309496562,-1.051348050435384,-2.216796000798543,1.6887028239979786e+18,2.7529785970052085,-0.7457630634307861,-10.829516728719076,-2.998406092325846,1.6887028239979786e+18,2.7529785970052085,0.3531720340251922,-9.760663986206056,-0.844297448794047,1.6887028239979786e+18,2.7529785970052085,-0.8549568057060242,-0.9784533977508544,-2.48459259668986,1.6887028239979786e+18,2.7529785970052085,-0.8558222055435181,-0.9740755160649618,-2.482250928878784,,,,,,,,,,,,1.6887028239967785e+18,2.751778369140625,27.18647994995117,45.55967788696289,1.58843994140625,1.6887028239967785e+18,2.751778369140625,-230.23351440429687,140.18287353515626,-131.29395751953126,1.688702823989332e+18,2.7443321126302087,-0.0144977094605564,0.081015462676684,-0.6846799651781718,0.7239110668500265,1.160683035850525,1.4583425919214883,-1.025264064470927
2.75,1.6887028240498803e+18,2.804880533854167,0.6625225444634756,-0.0438257853190104,-3.6597123940785727,1.6887028240498803e+18,2.804880533854167,-0.2333001991113027,-9.816155751546225,-3.953939994176229,1.6887028240498803e+18,2.804880533854167,-0.901668777068456,-9.754825274149576,-0.3569150318702062,1.6887028240498803e+18,2.804880533854167,-1.1702141761779783,-0.2188424666722615,-2.4487551848093667,1.6887028240498803e+18,2.804880533854167,-1.1711304982503254,-0.2144137024879455,-2.446464459101359,,,,,,,,,,,,1.6887028240467794e+18,2.801779345703125,32.41539993286133,41.90699844360351,-0.4831199876964092,1.6887028240467794e+18,2.801779345703125,-225.0045928955078,136.5301971435547,-133.36551818847656,1.6887028240412303e+18,2.796230224609374,-0.0124045213063557,0.0506068070729573,-0.7325348456700643,0.6784522930781046,2.5021687348683677,1.471396525700887,-2.4129154682159424
2.8,1.6887028241017828e+18,2.856782958984375,2.3702549934387207,-0.6286211013793945,-3.788724104563395,1.6887028241017828e+18,2.856782958984375,0.4500500659147899,-10.2618195215861,-3.6299118995666504,1.6887028241017828e+18,2.856782958984375,-1.926050861676534,-9.615693728129068,0.0961248160650332,1.6887028241017828e+18,2.856782958984375,-0.455858200788498,0.6181447158257166,-1.7685567140579224,1.6887028241017828e+18,2.856782958984375,-0.4567744918167591,0.6225225726763407,-1.76611324151357,,,,,,,,,,,,1.688702824096771e+18,2.851771044921875,37.38567886352539,38.43731918334961,-2.884079933166504,1.688702824096771e+18,2.851771044921875,-220.03431701660156,133.06051635742188,-135.76647338867187,1.6887028240931274e+18,2.84812744140625,-0.0288856818030277,0.0343814541896184,-0.7702971498171488,0.6359681884447733,-1.048727830251058,1.3801848888397217,-3.050140062967936
2.85,1.6887028241450317e+18,2.900031494140625,8.85663366317749,-2.264979362487793,-2.713990807533264,1.6887028241450317e+18,2.900031494140625,6.368198394775391,-11.764013290405272,-2.3297119736671448,1.6887028241450317e+18,2.900031494140625,-2.4942814111709595,-9.481529235839844,0.3215914666652679,1.6887028241450317e+18,2.900031494140625,0.1955532357096671,4.479780316352844,-1.019381403923035,1.6887028241450317e+18,2.900031494140625,0.1946369335055351,4.484208941459656,-1.0170142501592636,,,,,,,,,,,,1.6887028241467753e+18,2.90177509765625,39.523118591308595,36.14127960205078,-6.749039936065674,1.6887028241467753e+18,2.90177509765625,-217.89687805175785,130.7644805908203,-139.63143920898438,1.6887028241450345e+18,2.9000345865885415,-0.0750300673147042,0.0717805847525595,-0.7889811992645264,0.6045284271240234,-3.0194733142852783,1.3090567191441853,-3.053744713465373
2.9,1.6887028241882893e+18,2.9432893880208333,2.975271781285604,-1.5278724034627278,-3.4064148664474487,1.6887028241882893e+18,2.9432893880208333,1.1912268300851183,-11.154740969340006,-2.6149563988049827,1.6887028241882893e+18,2.9432893880208333,-1.7898910840352376,-9.609363873799644,0.7287709911664327,1.6887028241882893e+18,2.9432893880208333,0.2927062685290972,3.8444295724232993,2.28351612885793,1.6887028241882893e+18,2.9432893880208333,0.2917899675667286,3.848858197530111,2.2859086990356445,,,,,,,,,,,,1.6887028241967754e+18,2.951775390625,34.03799896240234,38.59347991943359,-13.754279708862304,1.6887028241967754e+18,2.951775390625,-223.38199462890623,133.2166778564453,-146.63667907714844,1.6887028241969344e+18,2.951934244791667,-0.1650521556536356,0.1392155587673187,-0.7511521975199381,0.623271663983663,-2.712505022684733,1.3856652975082395,-1.0406177043914795
2.95,1.6887028242401892e+18,2.9951890462239583,1.8890236616134644,1.5838836034138997,-7.480839252471924,1.6887028242401892e+18,2.9951890462239583,1.4380863681435585,-8.210372606913248,-6.899704138437907,1.6887028242401892e+18,2.9951890462239583,-0.4567833393812179,-9.776751518249512,0.5184476772944132,1.6887028242401892e+18,2.9951890462239583,0.8256861766179403,1.1459322571754456,2.643112023671468,1.6887028242401892e+18,2.9951890462239583,0.8248207966486613,1.150361100832621,2.6455047130584717,,,,,,,,,,,,1.6887028242467753e+18,3.001775244140625,27.396319580078124,42.4852783203125,-14.837639617919924,1.6887028242467753e+18,3.001775244140625,-230.02367553710937,137.1084777832031,-147.72003479003905,1.688702824248838e+18,3.0038378906250003,-0.1905266791582107,0.1662442088127136,-0.6981514493624369,0.6693910757700602,-1.82981139421463,1.5076043605804443,2.340197126070658
3.0,1.6887028242920878e+18,3.047087972005208,-3.366870005925497,0.910512924194336,-4.372572819391887,1.6887028242920878e+18,3.047087972005208,-2.4989044268925986,-8.87178897857666,-4.475974241892497,1.6887028242920878e+18,3.047087972005208,0.8621195753415426,-9.76479721069336,-0.1660889014601707,1.6887028242920878e+18,3.047087972005208,1.592932939529419,-0.6324491500854492,2.067677100499471,1.6887028242920878e+18,3.047087972005208,1.5920675198237102,-0.6280203859011332,2.070069591204325,,,,,,,,,,,,1.6887028242967818e+18,3.051781787109375,21.15479965209961,46.12819900512695,-12.19755973815918,1.6887028242967818e+18,3.051781787109375,-236.26519775390625,140.75139770507812,-145.0799560546875,1.688702824300742e+18,3.0557418619791665,-0.1746266434590021,0.1798489242792128,-0.6484062075614929,0.7185819745063782,0.2788724067310492,1.4698602358500164,0.2285595967744787
3.05,1.6887028243439913e+18,3.0989912109375,4.396507024765015,-8.85595448811849,-3.0982658863067627,1.6887028243439913e+18,3.0989912109375,6.004389564196269,-18.466808319091797,-4.229912122090657,1.6887028243439913e+18,3.0989912109375,1.6020365953445437,-9.593349774678549,-1.1943336923917134,1.6887028243439913e+18,3.0989912109375,2.398918708165487,1.712153434753418,1.7440712054570515,1.6887028243439913e+18,3.0989912109375,2.3980024655659995,1.716582258542379,1.7464128732681274,,,,,,,,,,,,1.688702824346777e+18,3.10177705078125,18.07795944213867,48.116799926757814,-6.651439952850342,1.688702824346777e+18,3.10177705078125,-239.34203491210937,142.73999938964843,-139.53384094238282,1.6887028243526382e+18,3.1076381835937497,-0.146435464421908,0.2182541489601135,-0.6058809161186218,0.7497144738833109,0.7116802136103312,1.3423967361450195,-0.1858738511800765
3.1,1.6887028243958917e+18,3.1508915201822916,-2.0930617650349923,-16.087740580240887,1.938391844431559,1.6887028243958917e+18,3.1508915201822916,-0.3136591911315918,-25.157738367716473,-1.2757732669512432,1.6887028243958917e+18,3.1508915201822916,1.7735564708709717,-9.052494049072266,-3.276852528254191,1.6887028243958917e+18,3.1508915201822916,3.323972384134928,6.175084233283997,0.9339111844698588,1.6887028243958917e+18,3.1508915201822916,3.3231069246927896,6.179461717605591,0.9363545974095664,,,,,,,,,,,,1.6887028243967752e+18,3.1517751953125,11.958439826965332,49.6881591796875,-2.444880010187626,1.6887028243967752e+18,3.1517751953125,-245.46155395507813,144.3113555908203,-135.32727661132813,1.6887028243958892e+18,3.1508891601562503,-0.1928758919239043,0.365223154425621,-0.5283117592334747,0.7412426173686981,1.0909157395362854,1.180237889289856,-0.2624440267682075
3.15,1.6887028244477972e+18,3.2027973632812503,-2.3404240210851035,-7.388726552327474,0.5771835645039876,1.6887028244477972e+18,3.2027973632812503,-0.858823899179697,-15.78245989481608,-4.229912281036377,1.6887028244477972e+18,3.2027973632812503,1.4757540225982666,-8.376228968302408,-4.869783242543538,1.6887028244477972e+18,3.2027973632812503,3.1486031214396157,-0.4214970270792643,-0.1321505084633827,1.6887028244477972e+18,3.2027973632812503,3.147686799367269,-0.4171191453933716,-0.1297579606374105,,,,,,,,,,,,1.6887028244467768e+18,3.2017769042968753,12.073119926452636,49.417318725585936,4.875119972229004,1.6887028244467768e+18,3.2017769042968753,-245.346875,144.04051208496094,-128.007275390625,1.688702824439141e+18,3.194140950520833,-0.1481266394257545,0.419514666001002,-0.5029355585575104,0.7406312227249146,1.277362624804179,1.054568847020467,-0.4210168520609538
3.2,1.6887028244996987e+18,3.25469873046875,-2.897629181543986,0.5954621632893882,3.2155706882476807,1.6887028244996987e+18,3.25469873046875,-1.2608181238174438,-7.3766733805338545,-2.223929246266683,1.6887028244996987e+18,3.25469873046875,1.6309650739034016,-7.954630851745605,-5.502187252044678,1.6887028244996987e+18,3.25469873046875,0.0893899177511533,-0.8417722781499227,0.3895283937454223,1.6887028244996987e+18,3.25469873046875,0.0884736566804348,-0.837343563636144,0.3918191492557525,,,,,,,,,,,,1.6887028244967793e+18,3.251779296875,12.185359573364256,48.78779907226563,9.89175968170166,1.6887028244967793e+18,3.251779296875,-245.2346343994141,143.41099548339844,-122.99063873291016,1.6887028244910446e+18,3.246044596354167,-0.11028670022885,0.4436339437961578,-0.4768505692481994,0.7507320443789164,1.3069286743799846,0.9507383704185486,-0.4591788947582245
3.25,1.688702824551595e+18,3.3065951334635417,-2.3426931699117026,7.45579465230306,5.941978295644124,1.688702824551595e+18,3.3065951334635417,-0.1393819202979405,-0.9387840876976647,1.4179468154907229,1.688702824551595e+18,3.3065951334635417,2.197465181350708,-8.377074241638184,-4.586719036102295,1.688702824551595e+18,3.3065951334635417,-2.5098416407903037,-1.758273760477702,0.0167987933382391,1.688702824551595e+18,3.3065951334635417,-2.510707060496012,-1.7538959582646687,0.019140445627272,,,,,,,,,,,,1.688702824546777e+18,3.3017771484375005,10.157719612121582,49.52223892211914,7.934879875183105,1.688702824546777e+18,3.3017771484375005,-247.26227722167968,144.14543762207032,-124.94751739501952,1.6887028245429486e+18,3.297948893229167,-0.1176288078228632,0.3938529392083486,-0.4900480210781097,0.7683614095052084,1.1654759248097737,1.0083654522895813,-0.3932563761870066
3.3,1.6887028245948493e+18,3.349849365234375,-1.915877103805542,9.312586307525637,4.6941423416137695,1.6887028245948493e+18,3.349849365234375,0.3302095383405685,0.3634099215269089,1.383948802947998,1.6887028245948493e+18,3.349849365234375,2.2402405738830566,-8.931672096252441,-3.3728809356689453,1.6887028245948493e+18,3.349849365234375,-2.994232416152954,0.0436768680810928,-0.5293147414922714,1.6887028245948493e+18,3.349849365234375,-2.9951486587524414,0.0480292886495589,-0.5268712937831879,,,,,,,,,,,,1.688702824596773e+18,3.3517730468750004,10.352919769287109,50.43967895507812,1.0736000295728445,1.688702824596773e+18,3.3517730468750004,-247.06707763671875,145.06287841796876,-131.8087921142578,1.688702824594849e+18,3.3498490397135416,-0.1623737464348474,0.3372089962164561,-0.5259527166684469,0.7634253899256388,1.00065678358078,1.1502790053685503,-0.2613811443249384
