seconds_elapsed_rounded,accelerometer_time,accelerometer_seconds_elapsed,accelerometer_z,accelerometer_y,accelerometer_x,accelerometeruncalibrated_time,accelerometeruncalibrated_seconds_elapsed,accelerometeruncalibrated_z,accelerometeruncalibrated_y,accelerometeruncalibrated_x,gravity_time,gravity_seconds_elapsed,gravity_z,gravity_y,gravity_x,gyroscope_time,gyroscope_seconds_elapsed,gyroscope_z,gyroscope_y,gyroscope_x,gyroscopeuncalibrated_time,gyroscopeuncalibrated_seconds_elapsed,gyroscopeuncalibrated_z,gyroscopeuncalibrated_y,gyroscopeuncalibrated_x,location_time,location_seconds_elapsed,location_bearingAccuracy,location_speedAccuracy,location_verticalAccuracy,location_horizontalAccuracy,location_speed,location_bearing,location_altitude,location_longitude,location_latitude,magnetometer_time,magnetometer_seconds_elapsed,magnetometer_z,magnetometer_y,magnetometer_x,magnetometeruncalibrated_time,magnetometeruncalibrated_seconds_elapsed,magnetometeruncalibrated_z,magnetometeruncalibrated_y,magnetometeruncalibrated_x,orientation_time,orientation_seconds_elapsed,orientation_qz,orientation_qy,orientation_qx,orientation_qw,orientation_roll,orientation_pitch,orientation_yaw
0.0,,,,,,1.6888762591614804e+18,0.11048046875,7.27328372001648,5.920142412185669,-0.5593222826719284,,,,,,1.688876259148618e+18,0.0976181640625,1.8248581488927205,2.030414263407389,1.957874019940694,1.6888762591614804e+18,0.11048046875,1.7617353796958923,1.9543870091438291,2.2893701791763306,,,,,,,,,,,,1.6888762591560294e+18,0.105029296875,-30.133999506632488,-42.07373301188151,-1.0573333104451497,1.688876259161027e+18,0.11002734375,-285.0408020019531,52.5148983001709,-134.0291976928711,,,,,,,,,
0.05,1.6888762592047316e+18,0.1537314453125,-0.3556687037150065,-0.3085087140401204,-0.5202832420667013,1.6888762592047316e+18,0.1537314453125,7.55972417195638,5.471388339996338,-0.9882357319196066,1.6888762592047316e+18,0.1537314453125,7.89259147644043,5.795642217000325,-0.5326659679412842,1.6888762592004014e+18,0.1494012858072916,0.4490877734885241,2.029956062634786,1.503593921661377,1.6888762592047316e+18,0.1537314453125,0.3301217514090239,1.974774678548177,1.3747522433598836,,,,,,,,,,,,1.6888762591960294e+18,0.14502939453125,-26.386159896850582,-44.683719635009766,-0.6514799728989601,1.6888762591960294e+18,0.14502939453125,-282.01275634765625,50.17127914428711,-133.7778747558594,1.688876259204733e+18,0.1537330322265624,-0.9447063505649568,-0.3027244061231612,0.073247019201517,0.102151520550251,0.0947546064853667,-0.6273314356803894,2.9570014476776123
0.1,1.6888762592566372e+18,0.20563720703125,-5.821759064992269,1.060236136118571,-2.734336177508036,1.6888762592566372e+18,0.20563720703125,1.74496587117513,7.261020342508952,-3.4781670570373535,1.6888762592566372e+18,0.20563720703125,7.543923536936442,6.216529369354248,-0.8085443377494812,1.68887625925231e+18,0.2013101399739583,0.3132720589637756,-0.0796670230726401,0.9028079311052958,1.6888762592566372e+18,0.20563720703125,0.3320561697085698,-0.2608394424120585,0.8066475391387938,,,,,,,,,,,,1.6888762592460367e+18,0.195036865234375,-24.382919692993163,-45.98911972045899,0.7051599860191345,1.6888762592460367e+18,0.195036865234375,-280.0095153808594,48.86587905883789,-132.42123413085938,1.6888762592479826e+18,0.1969827473958333,-0.9354371825853984,-0.3217592736085256,0.0956843818227449,0.1104509954651196,0.1384056359529494,-0.6727606256802877,2.9549620151519775
0.15,1.688876259308542e+18,0.2575418294270833,-2.008284886678059,-1.9682186444600425,1.7133362889289856,1.688876259308542e+18,0.2575418294270833,5.703691681226094,4.066203276316325,1.0829516649246216,1.688876259308542e+18,0.2575418294270833,7.689175287882487,6.050167083740234,-0.6950981219609579,1.6888762593042145e+18,0.2532146809895833,0.4151847461859385,0.5569563942650954,-0.9894998868306478,1.688876259308542e+18,0.2575418294270833,0.4709262003501256,0.5382740994294485,-0.9205739150444666,,,,,,,,,,,,1.6888762592960358e+18,0.2450357910156249,-23.433759689331055,-46.2135986328125,-0.5660799980163574,1.6888762592960358e+18,0.2450357910156249,-279.06035766601565,48.64139862060547,-133.69247741699218,1.6888762592998894e+18,0.248889404296875,-0.9362927675247192,-0.3190600077311198,0.0883684282501538,0.1167119368910789,0.1161103049914041,-0.6664307514826456,2.9337708155314126
0.2,1.6888762593517983e+18,0.300798095703125,0.795910120010376,-1.706986665725708,-2.708855926990509,1.6888762593517983e+18,0.300798095703125,8.535796403884888,4.304089546203613,-3.241676568984986,1.6888762593517983e+18,0.300798095703125,7.717084884643555,6.0268213748931885,-0.5975341498851776,1.688876259356119e+18,0.3051189778645833,0.7029531796773275,0.0810923526684442,0.3169372404615084,1.6888762593517983e+18,0.300798095703125,0.6349180787801743,0.313068438321352,0.4740314483642578,,,,,,,,,,,,1.688876259346036e+18,0.2950359375,-25.014879608154295,-45.61579818725586,-1.359079945087433,1.688876259346036e+18,0.2950359375,-280.6414733886719,49.23919830322266,-134.4854766845703,1.6888762593517903e+18,0.300790283203125,-0.9358630180358888,-0.3130850295225779,0.0894097164273261,0.1345442483822504,0.1050259247422218,-0.6561723152796427,2.89177934328715
0.25,1.688876259395046e+18,0.344046142578125,-2.2412697474161782,-0.0583543777465819,-2.5227340857187905,1.688876259395046e+18,0.344046142578125,5.586842060089111,5.8450673421223955,-2.939781983693441,1.688876259395046e+18,0.344046142578125,7.805310408274333,5.919166882832845,-0.4817613661289215,1.6888762594080172e+18,0.3570171712239583,0.4642066856225331,-0.0100792770584424,-1.9991074005762737,1.688876259395046e+18,0.344046142578125,0.5886704822381338,0.0235692175726096,-1.1702650835116704,,,,,,,,,,,,1.688876259396034e+18,0.34503388671875,-25.439439392089845,-45.09607925415039,-2.5400399446487425,1.688876259396034e+18,0.34503388671875,-281.0660339355469,49.75891876220703,-135.66643981933595,1.688876259403693e+18,0.3526930338541666,-0.9375973343849182,-0.2996690372625987,0.085568552215894,0.1535218407710393,0.0849975148836771,-0.6289783716201782,2.844792366027832
0.3,1.6888762594469466e+18,0.3959464518229166,-3.0319366455078125,-5.764462788899739,3.5920914014180503,1.6888762594469466e+18,0.3959464518229166,5.627320607503255,-1.1766705513000488,3.428715407848358,1.6888762594469466e+18,0.3959464518229166,8.636455853780111,4.603537480036418,-0.2280894642074902,1.6888762594512768e+18,0.4002769775390625,0.5209916979074478,-0.8791114389896393,-4.451145887374878,1.6888762594469466e+18,0.3959464518229166,0.4498513539632161,-0.6627378997703394,-4.138815720876058,,,,,,,,,,,,1.688876259446035e+18,0.3950349609375,-31.493079376220702,-40.89683990478515,-4.130919933319092,1.688876259446035e+18,0.3950349609375,-287.11968383789065,53.95815887451172,-137.25731506347657,1.688876259455602e+18,0.40460205078125,-0.959537406762441,-0.2161496678988138,0.0572088360786437,0.1680153707663217,0.0418947103122869,-0.4494041800498962,2.8051559925079346
0.35,1.6888762594988503e+18,0.4478502604166667,-0.3351303736368815,-4.79130204518636,4.764985084533691,1.6888762594988503e+18,0.4478502604166667,9.038488705952965,-1.8590238094329832,4.917649269104004,1.6888762594988503e+18,0.4478502604166667,9.350817680358888,2.948023478190104,0.0879506027946869,1.688876259494534e+18,0.4435336100260416,-1.0342457791169484,-0.487623189886411,-2.7829492886861167,1.6888762594988503e+18,0.4478502604166667,-1.2178107698758442,-0.3584760924180348,-2.5652777353922525,,,,,,,,,,,,1.688876259496038e+18,0.4450380859375,-39.57191848754883,-33.662239456176756,-5.677879905700683,1.688876259496038e+18,0.4450380859375,-295.1985168457031,61.19275894165039,-138.8042755126953,1.688876259507504e+18,0.45650390625,-0.9783285061518352,-0.1380344331264495,0.0295514228443304,0.1503287504116693,0.0166038072978456,-0.2827173769474029,2.8388614654541016
0.4,1.6888762595507546e+18,0.4997543131510416,-3.0163400967915854,-5.664056460062663,-0.6716761589050292,1.6888762595507546e+18,0.4997543131510416,6.611368974049886,-3.764508326848348,-0.9790632128715516,1.6888762595507546e+18,0.4997543131510416,9.604907671610514,1.915293296178182,-0.3721005121866862,1.6888762595464335e+18,0.4954336751302083,-2.923702875773112,0.6041966279347738,-2.235410451889038,1.6888762595507546e+18,0.4997543131510416,-3.0137036641438804,0.6583091119925181,-2.4019221862157187,,,,,,,,,,,,1.6888762595460324e+18,0.4950324218749999,-43.046479034423825,-29.51667938232422,-1.4469200029969216,1.6888762595460324e+18,0.4950324218749999,-298.6730712890625,65.33831787109375,-134.5733184814453,1.688876259550758e+18,0.499758056640625,-0.9897145926952362,-0.0935258120298385,0.0392488595098256,0.0992518030107021,0.059959253296256,-0.1940545961260795,2.9473735094070435
0.45,1.6888762596026545e+18,0.5516547037760416,-2.66510804494222,-6.250470320383708,-7.034068902333577,1.6888762596026545e+18,0.5516547037760416,7.076374053955078,-6.334997812906901,-8.099704424540201,1.6888762596026545e+18,0.5516547037760416,9.71868069966634,-0.0687822389105955,-1.130349059899648,1.688876259598334e+18,0.5473339029947917,-2.7501153151194253,1.46062970161438,-4.330271005630493,1.6888762596026545e+18,0.5516547037760416,-2.6693283716837564,1.5318973064422607,-4.446895281473796,,,,,,,,,,,,1.6888762595960335e+18,0.5450333984375,-47.24815902709961,-22.020999908447266,5.08251986503601,1.6888762595960335e+18,0.5450333984375,-302.874755859375,72.83399810791016,-128.04387512207032,1.6888762595940114e+18,0.5430114746093749,-0.9965613484382628,-0.0103232801581422,0.0620254141589005,0.038471979399522,0.1223354190587997,-0.0250427493204672,3.065222899119059
0.5,1.688876259654566e+18,0.6035662434895833,0.2034665743509928,-3.481124480565389,-10.062369346618652,1.688876259654566e+18,0.6035662434895833,9.489336172739664,-6.145366827646892,-11.707482973734535,1.688876259654566e+18,0.6035662434895833,9.263068199157717,-2.648497144381205,-1.7098269859949748,1.6888762596502413e+18,0.5992411295572917,-2.117666165033976,1.2219850420951843,-4.8655924797058105,1.688876259654566e+18,0.6035662434895833,-2.0778071880340576,1.157080590724945,-4.789437929789226,,,,,,,,,,,,1.6888762596460334e+18,0.5950336425781251,-50.15419921875,-9.47939977645874,10.872639846801755,1.6888762596460334e+18,0.5950336425781251,-305.7807922363281,85.37559814453125,-122.25375823974608,1.6888762596459151e+18,0.5949149576822917,0.3250230352083842,-0.0691715280214945,-0.0387713387608528,0.0151544575734684,0.1954531023899714,0.2406124174594879,-1.0419099330902102
0.55,1.688876259706469e+18,0.6554689127604166,4.128346920013428,-1.5443102518717449,-12.982441266377768,1.688876259706469e+18,0.6554689127604166,12.464013735453287,-6.274778525034587,-15.039289156595864,1.688876259706469e+18,0.6554689127604166,8.312865416208902,-4.714723110198975,-2.1215612490971885,1.6888762597021445e+18,0.651144287109375,-1.6971872647603352,2.347198804219564,-3.807726701100667,1.688876259706469e+18,0.6554689127604166,-1.671021858851115,2.563699642817179,-3.791844209035238,,,,,,,,,,,,1.6888762596960325e+18,0.645032421875,-50.1346794128418,2.5131999373435976,14.35695972442627,1.6888762596960325e+18,0.645032421875,-305.761279296875,97.36819915771484,-118.76943817138672,1.6888762596978156e+18,0.6468154296875,0.9619964957237244,-0.2313373287518819,-0.1290217339992523,0.0571337155997752,0.2528778513272603,0.478547195593516,-3.08567484219869
0.6,1.6888762597583716e+18,0.7073716634114584,4.677696545918782,-0.9173892339070638,-10.241146405537924,1.6888762597583716e+18,0.7073716634114584,11.393424987792969,-7.448258717854817,-13.089935938517252,1.6888762597583716e+18,0.7073716634114584,6.6929270426432295,-6.515124320983887,-2.9135031700134277,1.6888762597540488e+18,0.7030489095052083,-0.6784167550504208,2.3015875816345215,-4.6241482098897295,1.6888762597583716e+18,0.7073716634114584,-0.5222897827625275,2.1060088872909546,-4.658560117085774,,,,,,,,,,,,1.6888762597460365e+18,0.69503642578125,-45.9598388671875,12.85879955291748,20.72535934448242,1.6888762597460365e+18,0.69503642578125,-301.5864318847656,107.71379852294922,-112.40103759765626,1.6888762597497224e+18,0.698722412109375,0.9170716404914856,-0.3313042322794596,-0.1980543136596679,0.0926268845796584,0.4091721673806508,0.7009341915448507,-3.0936004320780435
0.65,1.6888762598016271e+18,0.7506273193359374,13.24101495742798,4.114485740661621,-7.846144676208496,1.6888762598016271e+18,0.7506273193359374,18.590736389160156,-3.4139596223831177,-11.151750087738035,1.6888762598016271e+18,0.7506273193359374,5.326919317245483,-7.512700319290161,-3.3703190088272095,1.6888762598059528e+18,0.75495263671875,0.4704680492480595,1.991827925046285,-2.37738573551178,1.6888762598016271e+18,0.7506273193359374,0.5891031622886658,1.5747342705726624,-2.695901036262512,,,,,,,,,,,,1.688876259796035e+18,0.7450351562499999,-39.97207946777344,22.02831916809082,24.92215919494629,1.688876259796035e+18,0.7450351562499999,-295.598681640625,116.88331909179688,-108.20423736572266,1.6888762598016225e+18,0.7506223144531251,0.8702673316001892,-0.417982816696167,-0.2460972021023432,0.0830535342295964,0.5975413719813029,0.876208484172821,3.044287999471029
0.7,1.6888762598448755e+18,0.7938756510416667,9.283763885498049,5.22191055615743,-3.1497570673624673,1.6888762598448755e+18,0.7938756510416667,13.779268582661947,-2.4799612760543823,-7.210571606953939,1.6888762598448755e+18,0.7938756510416667,4.472702821095784,-7.686126708984375,-4.125528017679851,1.6888762598578496e+18,0.8068495279947916,-0.304719939827919,4.3337836265563965,-0.070249505341053,1.6888762598448755e+18,0.7938756510416667,-0.2581923852364222,4.3090434074401855,-0.222813094034791,,,,,,,,,,,,1.6888762598460367e+18,0.79503671875,-33.51827888488769,24.34875946044922,30.14863967895508,1.6888762598460367e+18,0.79503671875,-289.1448669433594,119.2037582397461,-102.9777572631836,1.6888762598535268e+18,0.8025266927083333,0.8342136144638062,-0.4268104334672292,-0.327318678299586,0.1173135514060655,0.8150576750437418,0.910455286502838,3.0044623215993247
0.75,1.6888762598967836e+18,0.84578369140625,0.3730857372283935,1.6748372713724773,-1.9248302777608235,1.6888762598967836e+18,0.84578369140625,4.085545301437378,-6.015356699625651,-6.7266232172648115,1.6888762598967836e+18,0.84578369140625,3.6896581649780273,-7.674448808034261,-4.866506417592366,1.6888762599011087e+18,0.8501088867187501,0.902247965335846,1.3038918673992157,-0.1198059385642409,1.6888762598967836e+18,0.84578369140625,0.720820978283882,1.7793995539347331,-0.1000800902644793,,,,,,,,,,,,1.6888762598960376e+18,0.845037548828125,-27.371919631958008,24.563479614257812,35.97779922485351,1.6888762598960376e+18,0.845037548828125,-282.99851684570314,119.4184783935547,-97.14859924316406,1.688876259905434e+18,0.8544340006510417,0.8099813461303711,-0.4159062604109446,-0.3890245060125987,0.1396590520938237,0.9709701339403788,0.8985667030016581,2.98496945699056
0.8,1.6888762599486866e+18,0.8976866048177085,-0.7614263693491617,2.9518670241038003,-1.312055587768555,1.6888762599486866e+18,0.8976866048177085,2.9180472691853843,-4.32562518119812,-6.733004093170166,1.6888762599486866e+18,0.8976866048177085,3.656672239303589,-7.261747042338054,-5.48566198348999,1.6888762599443628e+18,0.89336279296875,1.590896725654602,-0.0248927598198254,0.0930551389853159,1.6888762599486866e+18,0.8976866048177085,1.5650367736816406,0.0007635826865832,0.0226529190937678,,,,,,,,,,,,1.6888762599460337e+18,0.895033642578125,-26.43495979309082,22.020999908447266,38.18355865478516,1.6888762599460337e+18,0.895033642578125,-282.0615478515625,116.87599639892578,-94.94283905029296,1.688876259957334e+18,0.9063340657552084,0.8144496480623881,-0.3978340824445088,-0.4076398313045501,0.1100942641496657,1.0234456062316897,0.8297847112019857,2.9253880182902017
0.85,1.6888762600005906e+18,0.9495904947916666,-1.75623885790507,4.217121044794719,1.1650052865346272,1.6888762600005906e+18,0.9495904947916666,1.6743776003519697,-2.75035031636556,-4.792425076166789,1.6888762600005906e+18,0.9495904947916666,3.4078149795532227,-6.951726118723552,-6.022143840789795,1.6888762599962665e+18,0.9452664388020834,1.2317588329315186,0.3051781008640924,-0.6077091097831726,1.6888762600005906e+18,0.9495904947916666,1.201724648475647,0.2841541493932406,-0.5919284323851267,,,,,,,,,,,,1.6888762599960343e+18,0.9450341308593748,-25.67367973327637,19.917719268798827,39.89399948120117,1.6888762599960343e+18,0.9450341308593748,-281.30028076171874,114.77271575927736,-93.2323974609375,1.6888762600005857e+18,0.9495859375,0.8098419904708862,-0.3950923681259155,-0.4252447485923766,0.084776073694229,1.0876493453979492,0.7923616468906403,2.8547608852386475
0.9,1.6888762600524943e+18,1.0014944661458334,-1.4052886168162029,2.3225814501444497,0.283485730489095,1.6888762600524943e+18,1.0014944661458334,1.8317057291666667,-4.355734904607137,-6.0929239590962725,1.6888762600524943e+18,1.0014944661458334,3.2141928672790527,-6.662571271260579,-6.441123167673747,1.688876260048166e+18,0.9971661783854168,1.2104294697443645,-0.0743219380577405,-0.4671082993348439,1.6888762600524943e+18,1.0014944661458334,1.2622002959251404,-0.0841975975781679,-0.4319326380888621,,,,,,,,,,,,1.6888762600460326e+18,0.995032666015625,-24.61227912902832,18.129199600219728,41.22379989624024,1.6888762600460326e+18,0.995032666015625,-280.23887939453124,112.98419647216797,-91.90259857177736,1.6888762600438426e+18,0.9928424479166664,0.8067530393600464,-0.3933332860469818,-0.4366582334041595,0.0606725278000036,1.1306519508361816,0.7582220236460367,2.796659231185913
0.95,1.6888762601043978e+18,1.053397705078125,-2.6246200799942017,-2.329561233520508,-1.6493183771769206,1.6888762601043978e+18,1.053397705078125,0.5489533891280493,-8.549754619598389,-8.497511227925619,1.6888762601043978e+18,1.053397705078125,3.1507719357808432,-6.204448223114014,-6.912906328837077,1.688876260100071e+18,1.049070556640625,1.3248649040857952,0.0920879393815994,-0.1625919704092666,1.6888762601043978e+18,1.053397705078125,1.224021236101786,0.1688024351994196,-0.1861102810750405,,,,,,,,,,,,1.6888762600960315e+18,1.0450315917968749,-24.912399291992188,15.43787956237793,42.065599060058595,1.6888762600960315e+18,1.0450315917968749,-280.5389892578125,110.29287719726562,-91.06080017089845,1.688876260095747e+18,1.0447474772135417,0.8066326181093851,-0.38211918870608,-0.4499918520450592,0.0271755295495191,1.1649081707000732,0.6957318584124247,2.7400976022084556
1.0,1.6888762601562972e+18,1.1052972819010416,-0.3531803290049235,-2.9319656689961753,-4.010416348775228,1.6888762601562972e+18,1.1052972819010416,2.341177543004354,-9.222736358642578,-10.99143091837565,1.6888762601562972e+18,1.1052972819010416,2.6715564727783203,-6.275025526682536,-7.045728047688802,1.688876260151974e+18,1.1009742838541667,-0.8486445347468058,1.5184582869211831,-0.4692972302436828,1.6888762601562972e+18,1.1052972819010416,-1.0402525911728542,1.6921985149383545,-0.4970406790574391,,,,,,,,,,,,1.688876260146036e+18,1.0950359375,-22.99699935913086,14.70587978363037,43.70771942138672,1.688876260146036e+18,1.0950359375,-278.62359619140625,109.56087799072266,-89.4186798095703,1.6888762601476518e+18,1.09665185546875,0.7949193716049194,-0.384412666161855,-0.4686395227909088,0.0232478883117436,1.2214391231536863,0.6854694684346517,2.7103861967722573
1.05,1.688876260208199e+18,1.157198974609375,-4.824263095855713,-3.665931224822998,0.9226392110188802,1.688876260208199e+18,1.157198974609375,-3.365704466899236,-10.495518366495768,-5.9120667775472,1.688876260208199e+18,1.157198974609375,1.4357571601867676,-6.813841978708903,-6.89941946665446,1.6888762602038815e+18,1.152881591796875,-0.944244955976804,2.9582676887512207,-0.8707884152730306,1.688876260208199e+18,1.157198974609375,-0.7542149325211843,2.8244882027308145,-1.0180578033129375,,,,,,,,,,,,1.6888762601960358e+18,1.145035888671875,-16.469999694824217,18.134079360961913,44.84231872558594,1.6888762601960358e+18,1.145035888671875,-272.0965942382812,112.98907775878908,-88.2840789794922,1.688876260199555e+18,1.148555419921875,0.7544793089230856,-0.4110748668511708,-0.5064939359823862,0.0681906330088774,1.3647809823354085,0.7609913945198059,2.6928229331970215
1.1,1.68887626025146e+18,1.2004599609375,1.7276784777641296,5.2495715618133545,1.8770866394042969,1.68887626025146e+18,1.2004599609375,2.248655080795288,-1.6067803502082825,-5.070989370346069,1.68887626025146e+18,1.2004599609375,0.4981751888990402,-6.840606689453125,-7.012789487838745,1.688876260255782e+18,1.2047818196614584,0.273209477464358,0.9174686670303344,-1.2395982543627422,1.68887626025146e+18,1.2004599609375,0.3491858392953872,0.9772316813468932,-1.38773313164711,,,,,,,,,,,,1.6888762602460344e+18,1.195034375,-10.04792003631592,19.376039505004883,46.69671859741211,1.6888762602460344e+18,1.195034375,-265.67451171875,114.23103637695311,-86.42968139648437,1.6888762602514575e+18,1.2004573567708334,0.7146091063817342,-0.4333635071913401,-0.5443573991457621,0.0713399449984232,1.5265511274337769,0.7711289525032043,2.59962797164917
1.15,1.688876260294706e+18,1.2437059733072915,0.8849460681279501,7.660045941670735,-3.0932037035624185,1.688876260294706e+18,1.2437059733072915,1.0993025700251262,0.8233303924401602,-10.076375643412272,1.688876260294706e+18,1.2437059733072915,0.1915549884239832,-6.82097053527832,-7.047885417938232,1.6888762603076915e+18,1.2566912434895834,0.1359684268633524,0.5856161614259084,0.3794491390387217,1.688876260294706e+18,1.2437059733072915,0.0388917488356431,0.5439246048529943,0.0392481063803037,,,,,,,,,,,,1.688876260296037e+18,1.245037109375,-7.939759922027588,19.534639739990233,47.14079895019531,1.688876260296037e+18,1.245037109375,-263.5663635253906,114.38963775634764,-85.98559875488282,1.68887626030336e+18,1.2523597819010417,0.7021290063858032,-0.4371958275636037,-0.5574638247489929,0.0712266291181246,1.5761542717615764,0.7661669651667277,2.573909123738607
1.2,1.6888762603466158e+18,1.2956156412760418,-1.970888654390971,4.933322985967,-3.0575841267903647,1.6888762603466158e+18,1.2956156412760418,-1.681954924017191,-1.736591100692749,-10.194620768229166,1.6888762603466158e+18,1.2956156412760418,0.2661323299010594,-6.654168923695882,-7.201750119527181,1.6888762603509422e+18,1.2999423828125,0.7260897159576416,0.0981202237308025,1.1733194589614868,1.6888762603466158e+18,1.2956156412760418,0.6615670720736185,0.2865467133621375,1.114727218945821,,,,,,,,,,,,1.6888762603460337e+18,1.295033642578125,-7.32731990814209,18.3317195892334,47.94355926513672,1.6888762603460337e+18,1.295033642578125,-262.95391235351565,113.1867172241211,-85.1828384399414,1.6888762603552668e+18,1.3042670084635417,0.7066118319829305,-0.4117483794689178,-0.5697775880495707,0.079962318142255,1.555522362391154,0.7382385730743408,2.638721148173014
1.25,1.688876260398517e+18,1.3475170084635415,0.2408813536167144,2.3827052116394043,-1.498885949452718,1.688876260398517e+18,1.3475170084635415,0.8630113701025645,-3.924627939860026,-8.93559726079305,1.688876260398517e+18,1.3475170084635415,0.5993285179138184,-6.2915879885355634,-7.501424789428711,1.6888762603941947e+18,1.3431946614583332,0.866156001885732,0.7412849764029185,1.6191492478052776,1.688876260398517e+18,1.3475170084635415,0.8446739117304484,0.8045604427655538,1.606881022453308,,,,,,,,,,,,1.688876260396038e+18,1.345037939453125,-8.215479755401612,15.76483974456787,48.25099868774414,1.688876260396038e+18,1.345037939453125,-263.8420715332031,110.61983795166016,-84.87539825439453,1.6888762604071657e+18,1.3561656087239584,0.7158905665079752,-0.3689047992229461,-0.5853235324223837,0.092807650566101,1.5159774621327715,0.6905025243759155,2.7430595556894937
1.3,1.6888762604504136e+18,1.39941357421875,-2.5063857634862265,-0.8914907773335775,1.927223523457845,1.6888762604504136e+18,1.39941357421875,-1.739582081635793,-6.903891563415527,-5.735396385192871,1.6888762604504136e+18,1.39941357421875,0.7440022826194763,-5.996655623118083,-7.727333386739095,1.6888762604460992e+18,1.39509912109375,0.532827208439509,0.3897320230801899,1.043816010157267,1.6888762604504136e+18,1.39941357421875,0.5475897987683614,0.2081523338953654,0.9863437414169312,,,,,,,,,,,,1.6888762604460357e+18,1.3950357421875,-7.410279846191406,13.456599617004397,49.234318542480466,1.6888762604460357e+18,1.3950357421875,-263.03687744140626,108.3115982055664,-83.89207916259765,1.6888762604504233e+18,1.39942333984375,0.718133419752121,-0.3405574262142181,-0.5977475047111511,0.1048004142940044,1.5030723810195925,0.6616500020027161,2.810280203819275
1.35,1.68887626050233e+18,1.4513299967447917,-1.6552561124165852,-1.3918309211730957,0.343302567799886,1.68887626050233e+18,1.4513299967447917,-0.0001994172732035,-6.963712056477864,-7.496513843536377,1.68887626050233e+18,1.4513299967447917,1.63225519657135,-5.556135972340901,-7.904529889424642,1.688876260497999e+18,1.4469993489583333,1.3697634935379028,-2.840828776359558,0.5571091075738271,1.68887626050233e+18,1.4513299967447917,1.430799086888631,-3.027549982070923,0.5231042802333832,1.6888762605023365e+18,1.451336181640625,0.0,0.0,1.6660637855529783,6.645999908447266,0.0,0.0,20.61536861276248,-122.7500573,49.1929788,1.6888762604960338e+18,1.445033740234375,-10.66035976409912,10.775039863586423,49.06107864379883,1.6888762604960338e+18,1.445033740234375,-266.2869506835938,105.63003845214844,-84.06531829833985,1.6888762604936735e+18,1.442673583984375,0.7432889143625895,-0.3215076625347137,-0.5794471104939779,0.0883820230762163,1.421750783920288,0.6194748679796854,2.8399698734283447
1.4,1.6888762605542303e+18,1.5032305501302083,1.181950569152832,-2.2458974520365396,-5.2369411786397295,1.6888762605542303e+18,1.5032305501302083,3.918645858764648,-7.320242722829183,-13.126427014668783,1.6888762605542303e+18,1.5032305501302083,2.7138938903808594,-5.058600107828776,-7.954199314117432,1.6888762605499064e+18,1.4989063313802085,0.8655960460503896,-1.7631606956322987,-0.3289509328703086,1.6888762605542303e+18,1.5032305501302083,0.7789550026257833,-1.4694363276163738,-0.3524183382590611,,,,,,,,,,,,1.688876260546036e+18,1.4950358886718749,-18.038919830322264,7.715279769897461,47.68247985839844,1.688876260546036e+18,1.4950358886718749,-273.66550903320314,102.57027740478516,-85.4439193725586,1.6888762605455803e+18,1.4945804850260416,0.7886439363161722,-0.3041040599346161,-0.5326126019159952,0.0410098632176716,1.2760334809621174,0.5509827931722006,2.832275390625
1.45,1.6888762606061343e+18,1.5551343587239586,-1.9716220299402871,1.015260140101115,-4.163220087687175,1.6888762606061343e+18,1.5551343587239586,0.7363911469777426,-3.653640707333883,-12.302697817484535,1.6888762606061343e+18,1.5551343587239586,2.685211658477783,-4.6531556447347,-8.204191207885742,1.68887626060181e+18,1.550809977213542,1.4147130250930786,0.4274020592371623,0.0123700201511383,1.6888762606061343e+18,1.5551343587239586,1.542689283688863,0.4963789234558741,0.0052941640218099,,,,,,,,,,,,1.6888762605960302e+18,1.545030224609375,-19.88843955993652,6.309839916229248,47.14323806762695,1.6888762605960302e+18,1.545030224609375,-275.51503295898436,101.16483764648436,-85.98315734863282,1.6888762605974843e+18,1.5464845377604168,0.7924911777178446,-0.2964926163355509,-0.5325466195742289,0.0176248972614605,1.27178955078125,0.5106543203194936,2.80545179049174
1.5,1.6888762606580308e+18,1.607031005859375,-2.964672088623047,4.68315847714742,4.831289768218994,1.6888762606580308e+18,1.607031005859375,-0.6283153692881266,0.4731806715329488,-3.664209127426147,1.6888762606580308e+18,1.607031005859375,2.3135552406311035,-4.19423246383667,-8.56021245320638,1.6888762606537134e+18,1.602713541666667,0.5344052811463674,0.651589592297872,-0.5768095155556997,1.6888762606580308e+18,1.607031005859375,0.3462078670660655,0.6101525723934174,-0.5948300361633301,,,,,,,,,,,,1.688876260646036e+18,1.595035791015625,-18.54887962341309,3.0865999698638915,47.94599838256836,1.688876260646036e+18,1.595035791015625,-274.17547607421875,97.94159851074218,-85.1803985595703,1.6888762606493832e+18,1.59838330078125,-0.7816245357195536,0.2826627095540364,0.5558880567550659,0.0095462813042103,1.321982701619466,0.4458391765753428,2.768141587575277
1.55,1.6888762607012913e+18,1.650291259765625,-0.8576258420944214,1.6837419271469116,2.7277631759643555,1.6888762607012913e+18,1.650291259765625,1.398305743932724,-2.5863420963287354,-5.760122299194336,1.6888762607012913e+18,1.650291259765625,2.233130097389221,-4.25433874130249,-8.55259895324707,1.6888762607056118e+18,1.654611572265625,0.1839213520288467,-0.6805547873179117,-0.3346014420191447,1.6888762607012913e+18,1.650291259765625,0.1430951859802008,-0.6546184569597244,-0.3284164220094681,,,,,,,,,,,,1.688876260696034e+18,1.6450341796875,-17.387439346313478,3.1353999614715575,48.343719482421875,1.688876260696034e+18,1.6450341796875,-273.0140319824219,97.990397644043,-84.78267669677734,1.6888762607012913e+18,1.6502911783854166,-0.7770318388938904,0.2921783725420633,0.5572241147359213,0.0177870405217011,1.3375141223271687,0.4492348432540893,2.7385804653167725
1.6,1.6888762607445445e+18,1.6935443522135418,-1.642310341199239,-0.1909228960673014,0.603600819905599,1.6888762607445445e+18,1.6935443522135418,0.906281590461731,-4.290729840596517,-7.885148366292317,1.6888762607445445e+18,1.6935443522135418,2.5257904529571533,-4.084061781565349,-8.553462664286295,1.6888762607575214e+18,1.7065215657552084,0.8080219825108846,-0.7950411240259806,-0.1509855290253957,1.6888762607445445e+18,1.6935443522135418,0.7045821646849314,-0.904691437880198,-0.25177829960982,,,,,,,,,,,,1.6888762607460378e+18,1.695037939453125,-19.405319595336913,2.3911999464035034,47.65319900512695,1.6888762607460378e+18,1.695037939453125,-275.03191528320315,97.24619903564454,-85.47319641113282,1.6888762607531963e+18,1.702196451822917,-0.7871777017911276,0.2891587615013122,0.5432255069414774,0.0396810012559095,1.3013373215993245,0.4248444537321726,2.7153704166412354
1.65,1.688876260796448e+18,1.7454480794270832,-2.1205596923828125,1.0556116104125977,-2.409224192301432,1.688876260796448e+18,1.7454480794270832,0.7076773146788279,-2.7174489498138428,-10.960722923278809,1.688876260796448e+18,1.7454480794270832,2.8054354985555015,-3.757315397262573,-8.616212209065756,1.688876260800769e+18,1.74976904296875,0.3497203476727008,-0.3939317166805267,0.4603633135557174,1.688876260796448e+18,1.7454480794270832,0.4405356589704751,-0.4257730742295583,0.4137084980805715,,,,,,,,,,,,1.6888762607960358e+18,1.745035791015625,-21.52323989868164,0.4904399991035461,47.10663986206055,1.6888762607960358e+18,1.745035791015625,-277.1498291015625,95.3454376220703,-86.01975860595704,1.688876260805092e+18,1.7540922037760416,-0.7951794068018595,0.2755824029445648,0.5374888380368551,0.0531235449016093,1.274113376935323,0.3910376131534576,2.7171009381612143
1.7,1.6888762608483448e+18,1.7973447265625,0.9015997250874838,2.002681334813436,-2.974490165710449,1.6888762608483448e+18,1.7973447265625,3.914059599240621,-1.956930120786031,-11.37587801615397,1.6888762608483448e+18,1.7973447265625,2.9896584351857505,-3.94386625289917,-8.4661013285319,1.688876260844024e+18,1.7930240885416666,-1.4777339895566304,0.131794181962808,0.5269730885823568,1.6888762608483448e+18,1.7973447265625,-1.7712038159370422,0.2767728591958682,0.4294891705115636,,,,,,,,,,,,1.6888762608460334e+18,1.79503359375,-21.935599517822265,0.9393999844789503,46.71623992919922,1.6888762608460334e+18,1.79503359375,-277.56219482421875,95.79439849853516,-86.4101577758789,1.688876260857006e+18,1.8060060221354164,-0.7995841900507609,0.2789946794509887,0.5309079686800638,0.0230454474901004,1.2562726338704426,0.4355432291825612,2.7652154763539634
1.75,1.6888762609002555e+18,1.8492556152343749,-1.7597005367279053,-5.476805051167806,-5.908432165781657,1.6888762609002555e+18,1.8492556152343749,0.450249433517456,-10.912666956583658,-13.70090357462565,1.6888762609002555e+18,1.8492556152343749,2.1871485312779746,-5.420116742451985,-7.857184886932373,1.6888762608959324e+18,1.8449326171875,-3.720474799474081,2.110132177670797,-0.945823053518931,1.6888762609002555e+18,1.8492556152343749,-3.587255318959554,2.099340279897054,-0.983340342839559,,,,,,,,,,,,1.6888762608960356e+18,1.8450355957031248,-18.400039291381837,8.520479774475097,47.5653579711914,1.6888762608960356e+18,1.8450355957031248,-274.0266357421875,103.37547607421877,-85.56103820800782,1.6888762609002593e+18,1.8492591552734376,0.7733829021453857,-0.3307844698429107,-0.5386913120746613,0.0434358455240726,1.3269653916358948,0.5927426218986511,2.784811496734619
1.8,1.6888762609521595e+18,1.901159423828125,0.7497594753901163,0.0729376475016276,-0.5470760663350424,1.6888762609521595e+18,1.901159423828125,1.8983058991531532,-6.111468394597371,-8.019345760345459,1.6888762609521595e+18,1.901159423828125,1.1257450183232625,-6.168660799662272,-7.536983172098796,1.6888762609478298e+18,1.8968297526041664,-0.5035056819518408,1.90035084883372,-1.0767518281936646,1.6888762609521595e+18,1.901159423828125,-0.3229949871699015,2.011070211728414,-1.085049390792847,,,,,,,,,,,,1.6888762609460337e+18,1.8950337402343749,-12.748999786376952,14.259359550476074,47.73127899169922,1.6888762609460337e+18,1.8950337402343749,-268.37559814453124,109.1143569946289,-85.3951171875,1.6888762609435034e+18,1.8925031738281248,0.7423530220985413,-0.3674920996030171,-0.5551249782244364,0.073818693558375,1.424847960472107,0.6783434351285299,2.747856855392456
1.85,1.6888762610040553e+18,1.95305517578125,-2.0991189082463584,7.1932980219523115,5.724905172983806,1.6888762610040553e+18,1.95305517578125,-2.109671930472056,0.9485547641913096,-1.7858433326085408,1.6888762610040553e+18,1.95305517578125,-0.0333544686436653,-6.228997866312663,-7.575462023417155,1.6888762609997384e+18,1.9487383626302084,-0.2350304046024879,1.4361950531601906,-1.2240721583366394,1.6888762610040553e+18,1.95305517578125,-0.2892446890473365,1.139823630452156,-1.2519683043162029,,,,,,,,,,,,1.688876260996032e+18,1.94503212890625,-6.326919746398926,15.079199409484865,48.55843887329102,1.688876260996032e+18,1.94503212890625,-261.953515625,109.93419799804688,-84.56795959472656,1.6888762609954122e+18,1.944412190755208,0.6991339723269144,-0.3850757877031962,-0.5969318151473999,0.079926977554957,1.58309272925059,0.6863741477330526,2.6746648152669272
1.9,1.6888762610559672e+18,2.004967122395833,0.7575456897417704,7.136251608530681,1.1911282539367676,1.6888762610559672e+18,2.004967122395833,0.610967367887497,0.8622137506802877,-6.295915285746257,1.6888762610559672e+18,2.004967122395833,-0.1693798129757245,-6.2582926750183105,-7.551757017771403,1.688876261051644e+18,2.00064404296875,0.0255036304394404,-1.438791275024414,-1.0773626565933228,1.6888762610559672e+18,2.004967122395833,0.0812450796365737,-1.513927737871806,-0.9983574350674947,,,,,,,,,,,,1.6888762610460365e+18,1.9950364746093752,-4.9775999069213865,16.162559700012206,48.51695938110352,1.6888762610460365e+18,1.9950364746093752,-260.60419311523435,111.01755828857422,-84.60943908691407,1.6888762610473157e+18,1.99631591796875,0.6890919407208761,-0.4111524522304535,-0.593548059463501,0.0601966356237729,1.6265028715133667,0.6922499934832255,2.5873300234476724
1.95,1.6888762611078676e+18,2.0568675944010417,-2.8519524931907654,5.534581025441487,1.1002707481384275,1.6888762611078676e+18,2.0568675944010417,-2.586043099562327,-0.8368897785743078,-6.3014984130859375,1.6888762611078676e+18,2.0568675944010417,0.2431079397598902,-6.355725606282552,-7.466482639312744,1.68887626110354e+18,2.0525398763020832,-0.81092361236612,-0.8578075170516968,0.125634620587031,1.6888762611078676e+18,2.0568675944010417,-0.9287187953790028,-0.8337292472521464,0.1937460949023564,,,,,,,,,,,,1.6888762610960338e+18,2.045033740234375,-8.234999847412109,16.58223991394043,48.11191864013672,1.6888762610960338e+18,2.045033740234375,-263.8615966796875,111.43723754882812,-85.01447906494141,1.6888762610992197e+18,2.0482198079427083,0.7051707704861959,-0.4220374921957652,-0.568287213643392,0.0399874461193879,1.5735742648442586,0.6954072117805481,2.557734171549479
2.0,1.6888762611511296e+18,2.1001296386718753,-4.4902167320251465,-2.6675195693969727,-5.1761040687561035,1.6888762611511296e+18,2.1001296386718753,-3.722633838653565,-9.26381254196167,-12.346665382385254,1.6888762611511296e+18,2.1001296386718753,0.7447815239429474,-6.58054780960083,-7.235274791717529,1.68887626115545e+18,2.104450276692708,0.1842268009980519,-1.3631966908772786,0.9305514097213744,1.6888762611511296e+18,2.1001296386718753,-0.0105374157428741,-1.5430456399917605,0.9610437154769896,,,,,,,,,,,,1.6888762611460316e+18,2.095031591796875,-10.94095973968506,18.39272003173828,46.93095932006836,1.6888762611460316e+18,2.095031591796875,-266.5675476074219,113.24771728515626,-86.19543914794922,1.6888762611511255e+18,2.100125325520833,0.7248290379842123,-0.4236098130544026,-0.5409091114997864,0.0491821542382239,1.495968023935954,0.7304888367652893,2.594893137613932
2.05,1.688876261194376e+18,2.1433758951822917,1.4061512152353923,-0.3948985735575359,-6.628080526987712,1.688876261194376e+18,2.1433758951822917,2.604188601175944,-6.735397020975749,-13.969298362731934,1.688876261194376e+18,2.1433758951822917,1.1752359867095947,-6.324753284454346,-7.405931313832601,1.6888762612073544e+18,2.1563542480468754,0.0512617776791254,1.0345511933167777,0.9384417335192362,1.688876261194376e+18,2.1433758951822917,0.425976703564326,0.4038328329722087,0.9893980820973716,,,,,,,,,,,,1.6888762611960312e+18,2.14503115234375,-13.742079925537109,16.70179977416992,46.79431915283203,1.6888762611960312e+18,2.14503115234375,-269.36867065429686,111.55679931640626,-86.33207855224609,1.688876261203024e+18,2.152024332682292,0.7395069797833761,-0.3976217210292816,-0.540694793065389,0.0506887137889861,1.441190203030904,0.6983963052431742,2.659551461537679
2.1,1.6888762612462807e+18,2.19528076171875,1.053096850713094,-7.017359892527263,-5.978891054789226,1.6888762612462807e+18,2.19528076171875,1.8323038419087727,-13.07757314046224,-13.590435028076172,1.6888762612462807e+18,2.19528076171875,0.756405601898829,-6.044467926025391,-7.676257451375325,1.6888762612506022e+18,2.1996021728515625,2.316553682088852,3.2588133811950684,1.4414128959178925,1.6888762612462807e+18,2.19528076171875,1.958484912912051,2.8960612614949546,1.320436159769694,,,,,,,,,,,,1.6888762612460337e+18,2.1950337402343747,-10.867759704589844,15.367119789123535,47.93867874145508,1.6888762612460337e+18,2.1950337402343747,-266.4943542480469,110.22211608886718,-85.18771820068359,1.6888762612549322e+18,2.20393212890625,0.7184078892072042,-0.3564480642477671,-0.5919762055079142,0.0710318684577941,1.5164542198181152,0.6401250759760538,2.7312925656636557
2.15,1.6888762612981862e+18,2.2471861165364584,-4.911304930845896,3.314724842707316,9.782338778177897,1.6888762612981862e+18,2.2471861165364584,-4.782454947630565,-1.4677972793579102,1.2751750995715458,1.6888762612981862e+18,2.2471861165364584,0.1060484231760104,-4.766776879628499,-8.571877161661783,1.68887626129386e+18,2.242860188802083,2.2943590382734933,1.2699379362165928,0.7429648439089457,1.6888762612981862e+18,2.2471861165364584,1.860390176375707,0.9681196411450704,0.7106907963752747,,,,,,,,,,,,1.6888762612960369e+18,2.2450369628906253,-4.843399858474731,7.427359867095947,50.59827880859375,1.6888762612960369e+18,2.2450369628906253,-260.4699951171875,102.28235931396485,-82.52811737060547,1.6888762613068357e+18,2.255835693359375,0.7020373344421387,-0.2954525351524353,-0.6458878517150879,0.0511830213169256,1.5811045567194622,0.5017210642496744,2.78037699063619
2.2,1.688876261350087e+18,2.299087076822917,0.3946156899134318,1.7691162427266438,0.5978748003641764,1.688876261350087e+18,2.299087076822917,1.043071260054906,-2.802792946497599,-8.000003973642984,1.688876261350087e+18,2.299087076822917,0.6256540616353353,-4.556163946787517,-8.662592252095541,1.6888762613457644e+18,2.2947643229166665,0.3519601921240489,-1.6700546741485596,0.0050905371705691,1.688876261350087e+18,2.299087076822917,0.3334815204143524,-1.7636188666025798,-0.1588249603907267,,,,,,,,,,,,1.6888762613460352e+18,2.29503515625,-6.309839916229248,5.004439926147461,51.06431884765625,1.6888762613460352e+18,2.29503515625,-261.9364379882812,99.85943908691408,-82.06207580566407,1.688876261350083e+18,2.299083251953125,0.7213367521762848,-0.2851570248603821,-0.6295823454856873,0.0437567923218011,1.5204089283943176,0.48537078499794,2.800389885902405
2.25,1.6888762614019884e+18,2.350988362630208,0.2243254383405049,7.171430269877116,2.0430003801981607,1.6888762614019884e+18,2.350988362630208,1.544168214003245,2.5202405055363974,-6.4368923505147295,1.6888762614019884e+18,2.350988362630208,1.2970412969589231,-4.635444641113281,-8.54460620880127,1.688876261397665e+18,2.3466651204427085,-0.4884885847568512,-2.1651100317637124,-1.2927436033884685,1.6888762614019884e+18,2.350988362630208,-0.6642141255239645,-2.2290982007980347,-1.2967650890350342,,,,,,,,,,,,1.6888762613960356e+18,2.3450356933593755,-11.66319980621338,5.250879955291748,49.89799880981445,1.6888762613960356e+18,2.3450356933593755,-267.289794921875,100.10587768554689,-83.22839813232422,1.688876261393338e+18,2.342337890625,0.7414229313532511,-0.3007958928743998,-0.5992849866549174,0.0185333437596757,1.4568863312403362,0.4876691997051239,2.7549986044565835
2.3,1.6888762614538957e+18,2.4028958333333335,-1.9782121181488037,6.974217255910237,6.8731997807820635,1.6888762614538957e+18,2.4028958333333335,0.2841476798057556,1.1355937719345093,-0.5932206213474274,1.6888762614538957e+18,2.4028958333333335,2.239558299382528,-5.822878201802571,-7.531133810679118,1.6888762614495726e+18,2.3985726725260417,-3.995924154917399,-3.2219069798787436,-0.9817622502644856,1.6888762614538957e+18,2.4028958333333335,-4.276616493860881,-3.2515339056650796,-1.0308859944343567,,,,,,,,,,,,1.688876261446033e+18,2.3950331542968746,-18.17067947387695,11.404559898376466,46.525919342041014,1.688876261446033e+18,2.3950331542968746,-273.7972717285156,106.25955810546876,-86.60047912597656,1.6888762614452498e+18,2.3942495930989582,0.7715065280596415,-0.3520099421342213,-0.5282326936721802,0.0201532024269301,1.3335913022359211,0.6006890535354614,2.716870387395223
2.35,1.6888762615057994e+18,2.4547993977864584,-6.411110957463582,-6.245250542958577,-7.476897398630778,1.6888762615057994e+18,2.4547993977864584,-3.723032586276531,-13.994024435679115,-12.780065854390465,1.6888762615057994e+18,2.4547993977864584,2.6652767658233643,-7.733028729756673,-5.367882092793782,1.6888762615014646e+18,2.4504645182291664,-5.160436789194743,-1.9769126971562705,-1.1642073492209115,1.6888762615057994e+18,2.4547993977864584,-5.037449359893799,-1.9011653661727903,-1.0262536257505417,,,,,,,,,,,,1.6888762614960307e+18,2.445030810546875,-23.262959671020507,23.25319938659668,39.235199737548825,1.6888762614960307e+18,2.445030810546875,-278.88955078125,118.10819854736329,-93.89119873046874,1.688876261497149e+18,2.4461486816406253,0.7864258686701456,-0.4435332914193471,-0.4207785626252492,0.0782047621905803,1.1673502524693806,0.8702851136525472,2.7453391551971436
2.4,1.6888762615577014e+18,2.5067013346354163,6.1012914180755615,-4.329182306925456,-4.10015869140625,1.6888762615577014e+18,2.5067013346354163,8.74357342720032,-12.81874974568685,-8.224530220031738,1.6888762615577014e+18,2.5067013346354163,2.619480609893799,-8.473822275797525,-4.189085006713867,1.6888762615533755e+18,2.502375732421875,-1.3479760090510051,0.9162979125976562,-0.1213076536854108,1.6888762615577014e+18,2.5067013346354163,-1.069981376330058,1.2473359107971191,-0.0665334065755208,1.6888762615403963e+18,2.489396484375,0.0,0.0,1.677254319190979,7.136000156402588,0.0004259015549905,0.0,20.48732461020719,-122.7500576,49.1929791,1.6888762615460365e+18,2.4950365234375,-25.049039459228517,30.68787956237793,32.66671905517578,1.6888762615460365e+18,2.4950365234375,-280.675634765625,125.54287567138672,-100.45967864990234,1.688876261549053e+18,2.498052815755208,0.7803376317024231,-0.4903922180334727,-0.3644754588603973,0.132550723850727,1.0474374691645305,1.0394471883773804,2.83980139096578
2.45,1.6888762616009564e+18,2.5499564208984378,-2.0234819054603577,-1.5701475143432615,1.006123185157776,1.6888762616009564e+18,2.5499564208984378,0.4295116662979125,-10.105188846588137,-3.1423743963241577,1.6888762616009564e+18,2.5499564208984378,2.4301921129226685,-8.519296169281006,-4.2132110595703125,1.688876261605283e+18,2.554283040364583,-0.6659449140230814,0.845132072766622,0.2364048461119333,1.6888762616009564e+18,2.5499564208984378,-0.4695262908935547,1.026406317949295,0.3902665302157402,,,,,,,,,,,,1.6888762615960338e+18,2.5450337890625,-22.738359451293945,31.69315948486328,33.242559814453124,1.6888762615960338e+18,2.5450337890625,-278.3649536132813,126.54815979003908,-99.883837890625,1.6888762616009577e+18,2.549957845052083,0.7658236026763916,-0.4853397806485494,-0.3878076771895091,0.165852665901184,1.0859581629435222,1.0593884785970051,2.8888516426086426
2.5,1.6888762616442122e+18,2.5932122395833335,-1.0082281827926636,2.8568900426228843,-2.2417914072672525,1.6888762616442122e+18,2.5932122395833335,1.2177473306655884,-5.957729339599609,-5.898706595102946,1.6888762616442122e+18,2.5932122395833335,2.203174074490865,-8.798874219258627,-3.721628665924072,1.6888762616571866e+18,2.606186767578125,-2.468557357788086,0.7049894134203593,-1.0719157656033833,1.6888762616442122e+18,2.5932122395833335,-2.0677789052327475,0.5054909909764925,-0.8186103403568268,,,,,,,,,,,,1.6888762616460344e+18,2.5950346679687497,-21.64279975891113,33.532919311523436,32.181160354614256,1.6888762616460344e+18,2.5950346679687497,-277.26939086914064,128.3879165649414,-100.9452377319336,1.688876261652861e+18,2.6018605143229165,0.7470404903093973,-0.5072960058848063,-0.3805261452992756,0.198406105240186,1.0820744037628174,1.1416468620300293,2.9242939949035645
2.55,1.6888762616961134e+18,2.6451131998697917,-1.649121642112732,1.177459081013997,-0.0238492886225382,1.6888762616961134e+18,2.6451131998697917,-0.0021934211254119,-8.159525235493978,-2.5272194941838584,1.6888762616961134e+18,2.6451131998697917,1.6241267522176106,-9.321239153544107,-2.5680836836496987,1.6888762617004396e+18,2.649439575195313,-2.332436203956604,-0.4763985411846079,-0.7977136671543121,1.6888762616961134e+18,2.6451131998697917,-2.391995628674825,-0.2226094702879587,-0.8935940464337667,,,,,,,,,,,,1.6888762616960335e+18,2.645033642578125,-18.44151954650879,38.378759765625,27.991679763793947,1.6888762616960335e+18,2.645033642578125,-274.068115234375,133.23375549316407,-105.13471832275393,1.6888762617047636e+18,2.6537637532552085,0.7168788313865662,-0.5498781402905782,-0.3560398519039154,0.2381366888682047,1.0511493682861326,1.280570109685262,2.967637300491333
2.6,1.6888762617480133e+18,2.697013346354167,-1.3542445103327434,0.5481338500976562,-1.662460486094157,1.6888762617480133e+18,2.697013346354167,0.1774676839510599,-8.940981229146322,-3.6504503091176352,1.6888762617480133e+18,2.697013346354167,1.5089106957117715,-9.473369916280111,-2.052703301111857,1.688876261743693e+18,2.6926929524739585,-0.150883720566829,-0.5667302161455154,-0.1476257642110189,1.6888762617480133e+18,2.697013346354167,-0.017918715874354,-0.4482223639885584,-0.0963130841652552,,,,,,,,,,,,1.6888762617460342e+18,2.69503427734375,-18.229240036010744,40.67723922729492,24.93435935974121,1.6888762617460342e+18,2.69503427734375,-273.8558349609375,135.53223571777343,-108.1920379638672,1.6888762617566682e+18,2.705668212890625,0.7152703404426575,-0.5646026531855265,-0.3372514943281809,0.2363639523585637,1.011245807011922,1.313646713892619,2.973028580347697
2.65,1.6888762617999206e+18,2.7489207356770833,0.3927526473999025,7.963212490081787,-4.462673981984456,1.6888762617999206e+18,2.7489207356770833,2.122234344482422,-1.5060823758443196,-6.380860249201457,1.6888762617999206e+18,2.7489207356770833,1.7066802978515625,-9.45354970296224,-1.9828996260960896,1.6888762617955963e+18,2.7445965983072917,-0.5027421067158381,0.081041465823849,0.4705189565817515,1.6888762617999206e+18,2.7489207356770833,-0.5270749032497406,0.1836668401956558,0.3715587854385376,,,,,,,,,,,,1.6888762617960346e+18,2.7450344726562497,-19.083239364624024,40.206320190429686,24.534199523925786,1.6888762617960346e+18,2.7450344726562497,-274.7098388671875,135.06131591796876,-108.59219818115234,1.6888762618085722e+18,2.757571940104167,0.7191042900085449,-0.558130701382955,-0.3325728873411814,0.2464251319567362,0.9169071912765504,1.31171711285909,3.0759077072143555
2.7,1.6888762618518244e+18,2.8008245442708333,-2.7304372787475586,-1.4203332265218098,-0.556022842725118,1.6888762618518244e+18,2.8008245442708333,-1.4147563775380452,-10.948758761088053,-2.50149667263031,1.6888762618518244e+18,2.8008245442708333,1.2928794225056963,-9.512680371602375,-2.010187268257141,1.6888762618475e+18,2.7965,0.4365141044060389,-0.5618432760238647,-1.400917649269104,1.6888762618518244e+18,2.8008245442708333,0.4505131045977275,-0.8682430982589722,-1.4147129853566487,,,,,,,,,,,,1.6888762618460334e+18,2.795033447265625,-18.02427978515625,41.11643905639649,23.916879653930664,1.6888762618460334e+18,2.795033447265625,-273.65086669921874,135.9714385986328,-109.20951690673829,1.688876261851816e+18,2.800815795898438,0.7065292596817017,-0.5726666748523712,-0.3410028666257858,0.2376599982380866,1.0825697183609009,1.3306376934051514,2.9086614847183228
2.75,1.6888762619037243e+18,2.852724609375,4.044945398966472,-1.5881471633911133,-2.4556721846262612,1.6888762619037243e+18,2.852724609375,5.076572736104329,-11.182058970133465,-4.250650087992351,1.6888762619037243e+18,2.852724609375,1.008825997511546,-9.578166643778482,-1.859691381454468,1.6888762618994033e+18,2.8484033203125,-0.5697845655182997,-1.8321885267893472,-0.6091344604889551,1.6888762619037243e+18,2.852724609375,-0.6720535755157471,-1.6762651205062866,-0.5153666436672211,,,,,,,,,,,,1.6888762618960358e+18,2.845035888671875,-17.431359481811523,41.90211791992188,23.14339942932129,1.6888762618960358e+18,2.845035888671875,-273.0579528808594,136.75711975097656,-109.98299713134766,1.688876261895078e+18,2.8440777994791664,0.7080511649449667,-0.5982571442921957,-0.3149820566177368,0.2032599548498789,1.1718796491622925,1.3488077720006306,2.725087324778239
2.8,1.6888762619556314e+18,2.904631510416667,1.057487885157267,-3.6263996760050454,-4.928425629933675,1.6888762619556314e+18,2.904631510416667,2.095913211504618,-13.266606330871582,-6.467600345611572,1.6888762619556314e+18,2.904631510416667,1.0156238079071045,-9.62446149190267,-1.6038880745569866,1.688876261951309e+18,2.900309000651042,0.0548760617772737,-1.5725707411766052,-0.203978086511294,1.6888762619556314e+18,2.904631510416667,0.1829541424910227,-1.686446189880371,-0.1988366345564524,,,,,,,,,,,,1.688876261946034e+18,2.895034033203125,-18.497639083862303,42.80979919433594,20.400839614868165,1.688876261946034e+18,2.895034033203125,-274.1242370605469,137.6647979736328,-112.72555847167968,1.688876261946982e+18,2.895982096354167,0.7115575671195984,-0.6141495108604431,-0.2834730545679728,0.1897347172101338,1.10891592502594,1.379307230313619,2.718378225962321
2.85,1.6888762620075356e+18,2.95653564453125,0.7177683115005493,-0.2657705942789714,-3.4098644256591797,1.6888762620075356e+18,2.95653564453125,1.940579096476237,-9.83190886179606,-5.233900547027588,1.6888762620075356e+18,2.95653564453125,1.2000093062718709,-9.550393104553224,-1.888749599456787,1.6888762620032082e+18,2.9522080078125,0.9870055317878724,-2.5190045833587646,0.0612901461621125,1.6888762620075356e+18,2.95653564453125,1.0242174069086711,-2.579225778579712,0.0670933673779169,,,,,,,,,,,,1.6888762619960348e+18,2.9450349121093753,-20.025080108642577,42.50235824584961,19.429719161987304,1.6888762619960348e+18,2.9450349121093753,-275.65167846679685,137.35735778808595,-113.6966781616211,1.6888762619988846e+18,2.9478846028645833,0.7278601129849752,-0.6201174060503641,-0.2552814334630965,0.1418910498420397,1.097034494082133,1.3491274118423462,2.6176013946533203
2.9,1.6888762620507832e+18,2.999783447265625,0.2625615000724793,2.436241388320923,-2.9968291521072388,1.6888762620507832e+18,2.999783447265625,1.6986050009727478,-7.031309366226196,-5.145166873931885,1.6888762620507832e+18,2.999783447265625,1.413241982460022,-9.451805591583252,-2.213051199913025,1.6888762620551127e+18,3.0041124674479165,1.209716796875,-3.4866151809692383,-0.262366622686386,1.6888762620507832e+18,2.999783447265625,1.2007319927215576,-3.435353398323059,-0.3562107980251312,1.6888762620594286e+18,3.0084287109375,0.0,0.0,1.677254319190979,7.592999935150147,0.0004481497162487,0.0,20.48732461020719,-122.7500577,49.1929791,1.6888762620460332e+18,2.99503310546875,-22.56511993408203,41.72643966674805,18.65624008178711,1.6888762620460332e+18,2.99503310546875,-278.19171752929685,136.5814422607422,-114.47015533447264,1.688876262050786e+18,2.999785970052083,0.7479271491368612,-0.6229292154312134,-0.2167004644870757,0.0699470316370327,1.070392648379008,1.2972555955251055,2.483415126800537
2.95,1.688876262094041e+18,3.0430409342447917,1.7040571769078572,0.2392975489298502,-0.9035388628641764,1.688876262094041e+18,3.0430409342447917,3.514458258946737,-9.101699511210125,-3.2973095575968423,1.688876262094041e+18,3.0430409342447917,1.7875997225443525,-9.325251897176107,-2.458484172821045,1.6888762621070193e+18,3.056019287109375,0.98359485467275,-3.202766497929891,0.5667302409807841,1.688876262094041e+18,3.0430409342447917,1.128369927406311,-3.364849408467611,0.315970038374265,,,,,,,,,,,,1.6888762620960364e+18,3.045036474609375,-25.56144027709961,40.835839080810544,16.767679595947264,1.6888762620960364e+18,3.045036474609375,-281.1880310058594,135.6908386230469,-116.35871887207033,1.688876262102694e+18,3.051693766276042,-0.2610221902529399,0.2023122509320577,0.0456718057394027,0.0185141591355204,0.9797982970873514,1.2413057088851929,2.38838537534078
3.0,1.6888762621459448e+18,3.0949451497395835,1.7023335297902424,-0.3389113744099934,0.2111668189366657,1.6888762621459448e+18,3.0949451497395835,4.356731812159221,-9.49970531463623,-2.084148526191711,1.6888762621459448e+18,3.0949451497395835,2.631596883138021,-9.14504877726237,-2.3600288232167563,1.6888762621502725e+18,3.0992724609375,-0.1590540446341037,-3.4552828073501587,1.3060298562049866,1.6888762621459448e+18,3.0949451497395835,0.0116573373476664,-3.3775248527526855,1.2481504082679749,,,,,,,,,,,,1.6888762621460306e+18,3.0950306640625,-29.84607963562012,39.21567840576172,13.817719841003418,1.6888762621460306e+18,3.0950306640625,-285.4726623535156,134.0706787109375,-119.30867767333984,1.688876262154597e+18,3.1035970052083335,-0.796212375164032,0.5913164218266805,0.107283758620421,0.0644496977329254,0.7307723164558411,1.1894323031107583,2.4724860191345215
3.05,1.6888762621978437e+18,3.1468436686197916,2.5963992277781167,0.3211278915405273,-2.4014341831207275,1.6888762621978437e+18,3.1468436686197916,6.382654984792073,-8.603792508443197,-3.933401505152384,1.6888762621978437e+18,3.1468436686197916,3.763454357782999,-8.909175237019857,-1.5966808398564656,1.688876262193523e+18,3.1425230305989587,-0.5694282054901123,-3.3453526496887207,1.7234035730361938,1.6888762621978437e+18,3.1468436686197916,-0.5859724879264832,-3.2946507136027017,1.716022292772929,,,,,,,,,,,,1.6888762621960338e+18,3.1450337890625,-35.06523895263672,36.858639526367185,7.459079742431641,1.6888762621960338e+18,3.1450337890625,-290.69183349609375,131.71363830566406,-125.66731567382811,1.6888762622064996e+18,3.1554995930989578,-0.8286485473314921,0.5490509867668152,0.0330908742422858,0.1005573272705077,0.3993072112401326,1.1281108458836873,2.644338925679525
3.1,1.6888762622497544e+18,3.198754150390625,2.0537641843159995,0.7219576835632324,-1.2852389911810558,1.6888762622497544e+18,3.198754150390625,6.705087820688884,-7.910871028900147,-1.902493417263031,1.6888762622497544e+18,3.198754150390625,4.628522237141927,-8.617083549499512,-0.6819679041703542,1.6888762622454254e+18,3.194425537109375,-0.4397720793883006,-2.9959376653035483,1.326341152191162,1.6888762622497544e+18,3.198754150390625,-0.3973678350448608,-2.9487482706705728,1.2809335390726726,,,,,,,,,,,,1.688876262246034e+18,3.1950337890625,-38.61055908203125,34.155120086669925,0.3635599616914987,1.688876262246034e+18,3.1950337890625,-294.2371520996094,129.01011810302734,-132.76283569335936,1.688876262258405e+18,3.207405110677083,-0.849411149819692,0.5092207292715708,-0.0354794217273592,0.1322513595223426,0.1552368228634198,1.0649678707122805,2.740612268447876
3.15,1.688876262301658e+18,3.2506577148437503,3.7102810541788735,3.840500831604004,1.574913779894511,1.688876262301658e+18,3.2506577148437503,8.85105069478353,-4.542773803075154,1.5324035038550694,1.688876262301658e+18,3.2506577148437503,5.117968241373698,-8.36752955118815,-0.107223713149627,1.688876262297333e+18,3.2463329264322915,-0.0196495006481806,-1.2845986982186637,0.7853690584500631,1.688876262301658e+18,3.2506577148437503,0.0010690093040466,-1.1031208237012229,0.7282022635142008,,,,,,,,,,,,1.6888762622960315e+18,3.245031591796875,-40.36491928100586,32.359279251098634,-4.653079891204834,1.6888762622960315e+18,3.245031591796875,-295.99151611328125,127.2142776489258,-137.77947998046875,1.6888762623016576e+18,3.250657470703125,-0.8584026992321014,0.4851357489824294,-0.0697265677154063,0.1513394564390182,0.0522218942642211,1.0236398577690125,2.7632066011428833
3.2,1.6888762623535578e+18,3.3025577799479167,0.6074518362681071,6.949630260467529,3.230408032735189,1.6888762623535578e+18,3.3025577799479167,5.820740461349487,-1.3894323368246355,3.193819999694824,1.6888762623535578e+18,3.3025577799479167,5.190487225850423,-8.323317527770996,-0.1013015508651733,1.6888762623492352e+18,3.2982352701822912,0.2479603886604308,0.1128064530591169,-0.3184135158856709,1.6888762623535578e+18,3.3025577799479167,0.2775364418824513,0.2444479006032149,-0.4404847398400306,,,,,,,,,,,,1.688876262346032e+18,3.2950318359375004,-40.83827896118164,31.80783920288086,-5.543679904937744,1.688876262346032e+18,3.2950318359375004,-296.4648742675781,126.66283721923828,-138.67007446289062,1.6888762623449098e+18,3.2939098307291665,-0.8602218429247538,0.4797341823577881,-0.0723447029789288,0.1569523115952809,0.0493560458223024,1.0123265186945598,2.7532742818196616
3.25,1.6888762624054628e+18,3.354462890625,-5.6540506680806475,9.580174763997396,7.4492848714192705,1.6888762624054628e+18,3.354462890625,-1.146361490090688,0.8961120446523031,6.653243223826091,1.6888762624054628e+18,3.354462890625,4.484887758890788,-8.668317476908365,-0.8607551058133444,1.688876262401141e+18,3.3501409505208333,0.5044728914896647,3.994600454966227,-1.925905426343282,1.6888762624054628e+18,3.354462890625,0.4130467077096303,4.287255843480428,-1.9117027521133425,,,,,,,,,,,,1.6888762623960356e+18,3.3450355468750006,-39.25959854125976,33.7622787475586,-2.5863999366760253,1.6888762623960356e+18,3.3450355468750006,-294.8861938476563,128.61727752685547,-135.71279602050782,1.6888762623968105e+18,3.345810791015625,-0.8455419341723124,0.5123237470785776,-0.0345584545284509,0.142302930355072,0.1862467775742212,1.0694937308629353,2.696101347605387
3.3,1.6888762624573688e+18,3.406368977864583,1.942715009053548,-15.055201212565104,-8.874799966812134,1.6888762624573688e+18,3.406368977864583,5.735994974772136,-23.89313189188639,-10.803793589274088,1.6888762624573688e+18,3.406368977864583,3.7704786459604898,-8.822185516357422,-1.9937071800231936,1.6888762624530442e+18,3.4020441080729165,0.3656537433465321,5.1761157512664795,-0.1774563565850258,1.6888762624573688e+18,3.406368977864583,0.4091269896210481,5.049768447875977,-0.0771217445532481,,,,,,,,,,,,1.6888762624460324e+18,3.395032373046875,-36.25107955932617,36.32671966552734,6.217119979858398,1.6888762624460324e+18,3.395032373046875,-291.87767333984374,131.1817169189453,-126.90927734375,1.688876262448713e+18,3.397712890625,-0.8280526399612427,0.5492752989133199,0.0675091228137413,0.0800450605650742,0.4774131774902344,1.1201100746790569,2.6460094451904297
