seconds_elapsed_rounded,accelerometer_time,accelerometer_seconds_elapsed,accelerometer_z,accelerometer_y,accelerometer_x,accelerometeruncalibrated_time,accelerometeruncalibrated_seconds_elapsed,accelerometeruncalibrated_z,accelerometeruncalibrated_y,accelerometeruncalibrated_x,gravity_time,gravity_seconds_elapsed,gravity_z,gravity_y,gravity_x,gyroscope_time,gyroscope_seconds_elapsed,gyroscope_z,gyroscope_y,gyroscope_x,gyroscopeuncalibrated_time,gyroscopeuncalibrated_seconds_elapsed,gyroscopeuncalibrated_z,gyroscopeuncalibrated_y,gyroscopeuncalibrated_x,location_time,location_seconds_elapsed,location_bearingAccuracy,location_speedAccuracy,location_verticalAccuracy,location_horizontalAccuracy,location_speed,location_bearing,location_altitude,location_longitude,location_latitude,magnetometer_time,magnetometer_seconds_elapsed,magnetometer_z,magnetometer_y,magnetometer_x,magnetometeruncalibrated_time,magnetometeruncalibrated_seconds_elapsed,magnetometeruncalibrated_z,magnetometeruncalibrated_y,magnetometeruncalibrated_x,orientation_time,orientation_seconds_elapsed,orientation_qz,orientation_qy,orientation_qx,orientation_qw,orientation_roll,orientation_pitch,orientation_yaw
0.0,1.6888762282266757e+18,14.993675699869792,4.165242433547974,6.946610450744629,4.385943492253621,1.6888762282266757e+18,14.993675699869792,8.668000082174936,-0.5000999470551809,8.89033309618632,1.6888762282266757e+18,14.993675699869792,4.479956070582072,-7.430965105692546,4.43967604637146,1.6888762282353293e+18,15.002329182942708,3.445330858230591,4.192571838696797,-7.0434292157491045,1.6888762282396562e+18,15.006656087239584,3.443549156188965,4.121609608332316,-6.603962421417236,,,,,,,,,,,,1.6888762282290235e+18,14.996023779296875,-12.017000007629395,45.63287887573242,-16.10887966156006,1.6888762282290235e+18,14.996023779296875,-267.6435913085937,140.48787841796874,-149.2352783203125,1.6888762282266757e+18,14.993675699869792,-0.0219568784038225,-0.1644234756628672,-0.4773081044356028,0.8598447640736898,-0.5581738352775574,0.958357055981954,0.3441895842552185
0.05,1.688876228278582e+18,15.04558203125,11.795388539632162,-8.295088132222494,5.041236321131389,1.688876228278582e+18,15.04558203125,15.021541873613993,-17.058631499608357,8.172885258992514,1.688876228278582e+18,15.04558203125,3.203352689743042,-8.747797648111979,3.066935380299886,1.6888762282872307e+18,15.054230794270834,-0.1860084533691406,0.1758273839950562,0.6157521021862825,1.6888762282829107e+18,15.049910766601563,-0.0603992938995361,0.2876412272453308,-0.4544837474822998,,,,,,,,,,,,1.6888762282790236e+18,15.046023583984375,-0.6758799910545349,49.146478271484376,-8.232559776306152,1.6888762282790236e+18,15.046023583984375,-256.30247497558594,144.00147705078126,-141.35895385742188,1.688876228278582e+18,15.04558203125,-0.0182762229815125,-0.0854317198197046,-0.5750333269437155,0.8133630156517029,-0.4593511422475179,1.2010679642359416,0.3627105752627054
0.1,1.688876228330486e+18,15.097486083984371,-21.58894157409668,-23.550232251485188,15.444456736246744,1.688876228330486e+18,15.097486083984371,-18.54417673746745,-32.4628267288208,18.15115451812744,1.688876228330486e+18,15.097486083984371,3.021963119506836,-8.896847407023111,2.641983906428019,1.6888762283391368e+18,15.106136881510416,2.14540958404541,4.859992901484172,-7.039407571156819,1.6888762283261645e+18,15.093164306640626,0.6230315764745077,4.230496386686961,-3.9496509234110513,,,,,,,,,,,,1.6888762283290232e+18,15.09602333984375,-1.285880023241043,48.43399887084961,-9.091439819335935,1.6888762283290232e+18,15.09602333984375,-256.9124725341797,143.28899841308595,-142.21783142089845,1.688876228330486e+18,15.097486083984371,-0.071226122478644,-0.020489544297258,-0.5969445109367371,0.7957825859387716,-0.3928138613700866,1.2591851154963176,0.4649182458718617
0.15,1.6888762283823903e+18,15.149390625,-10.981617450714111,21.230011622111004,-3.907834053039551,1.6888762283823903e+18,15.149390625,-11.883554697036743,11.567701975504557,-3.4739797115325928,1.6888762283823903e+18,15.149390625,-0.9247390230496724,-9.64656416575114,0.3691407640775044,1.6888762283823846e+18,15.149384765625,4.369442820549011,-0.6454555094242096,-9.575007438659668,1.6888762283780662e+18,15.14506640625,4.296724319458008,0.0215839246908823,-9.1483686765035,,,,,,,,,,,,1.688876228379025e+18,15.146025048828124,20.105599784851073,44.66907958984375,0.5538799762725831,1.688876228379025e+18,15.146025048828124,-235.52099609375,139.52407836914062,-132.57251892089843,1.6888762283823903e+18,15.149390625,-0.0178561061620712,0.1044737994670867,-0.746992270151774,0.6519825061162313,2.0214298566182456,1.37408709526062,-1.847095151742299
0.2,1.688876228434298e+18,15.2012978515625,-5.405083656311035,-32.62075901031494,-7.135579029719035,1.688876228434298e+18,15.2012978515625,-9.719246864318846,-41.24328764279684,-5.638487100601195,1.688876228434298e+18,15.2012978515625,-4.336964925130208,-8.606782595316568,1.432378354171912,1.68887622842564e+18,15.192639892578123,-2.8644998421271644,5.995897054672241,-5.920251369476318,1.6888762284299697e+18,15.196969807942708,-3.1467195749282837,6.948693752288818,-5.457622925440471,,,,,,,,,,,,1.688876228429027e+18,15.1960271484375,36.5536392211914,33.469479370117185,-3.115880012512207,1.688876228429027e+18,15.1960271484375,-219.0729553222656,128.32447814941406,-136.24227905273438,1.688876228434298e+18,15.2012978515625,-0.0806162361986935,0.1369478901227314,-0.8571750521659851,0.4843344688415527,-1.0529300371805828,1.022801438967387,-2.8134759267171225
0.25,1.688876228486199e+18,15.253198974609376,27.79166603088379,-9.832643508911133,6.054943879445394,1.688876228486199e+18,15.253198974609376,21.379870732625324,-17.003397464752197,7.967102527618408,1.688876228486199e+18,15.253198974609376,-6.434596697489421,-7.155008157094319,1.8474451303482056,1.6888762284775434e+18,15.244543538411458,-0.5550728663802147,-2.7768406867980957,-4.3577598333358765,1.6888762284818708e+18,15.248870930989582,-0.5650503635406494,-3.4581080277760825,-3.929747025171915,,,,,,,,,,,,1.688876228479024e+18,15.246023828125,44.65931854248047,22.63343925476074,-9.96495990753174,1.688876228479024e+18,15.246023828125,-210.96727600097657,117.48843841552734,-143.091357421875,1.688876228486199e+18,15.253198974609376,-0.083277616649866,0.1390033910671869,-0.9163043101628622,0.3644178807735443,-3.0698296229044595,0.764304538567861,-2.869811773300171
0.3,1.688876228538101e+18,15.305100992838542,12.863995234171549,8.239286581675211,-9.405027071634928,1.688876228538101e+18,15.305100992838542,7.421738346417745,0.725025494893392,-6.281159321467082,1.688876228538101e+18,15.305100992838542,-5.465057531992595,-7.498516082763672,3.059154431025187,1.6888762285294508e+18,15.29645076497396,-1.0327186038096745,6.2998024225234985,1.3727669219175975,1.6888762285337702e+18,15.300770182291666,-0.8871290429184833,6.934542298316956,1.077973574399948,1.688876228542428e+18,15.309427978515624,0.0,0.0,1.4160712957382202,33.89699935913086,0.8259709477424622,87.64401245117188,22.899999618530273,-122.7500543,49.1925384,1.6888762285290258e+18,15.296025830078126,43.68087921142578,23.150719833374023,-11.30939989089966,1.6888762285290258e+18,15.296025830078126,-211.94571533203128,118.0057159423828,-144.43579711914063,1.688876228538101e+18,15.305100992838542,-0.1635178079207737,0.1393789599339167,-0.8951523701349894,0.3849702278772989,-2.8618582089742026,0.8295655051867167,-2.956666628519694
0.35,1.688876228590006e+18,15.357006022135415,-5.155485947926839,7.199410597483317,-9.70273208618164,1.688876228590006e+18,15.357006022135415,-9.55374320348104,-0.6444669080277284,-5.737191200256348,1.688876228590006e+18,15.357006022135415,-4.421058654785156,-7.828132311503093,3.9008275667826338,1.6888762285813504e+18,15.348350260416666,1.241787274678548,1.4833844502766926,1.200706511735916,1.688876228585678e+18,15.352678222656252,1.4125749468803406,0.3393864830334981,1.584686239560445,,,,,,,,,,,,1.6888762285790257e+18,15.34602587890625,36.226679992675784,23.672879791259767,-22.87987937927246,1.6888762285790257e+18,15.34602587890625,-219.39991760253903,118.5278778076172,-156.00627746582032,1.688876228590006e+18,15.357006022135415,-0.2557995667060215,0.1914640665054321,-0.8630183736483256,0.3903699219226837,-2.665125528971354,0.8822445670763651,-2.9323301315307617
0.4,1.6888762286332585e+18,15.400258544921876,11.29360318183899,4.868236541748047,-3.272352457046509,1.6888762286332585e+18,15.400258544921876,7.6049888134002686,-3.844368577003479,-0.6158528327941895,1.6888762286332585e+18,15.400258544921876,-3.711416482925415,-8.69685983657837,2.591786026954651,1.6888762286332593e+18,15.400259358723956,-0.2597195506095886,-5.458640972773234,4.984762191772461,1.6888762286375826e+18,15.404582845052085,-0.609541654586792,-4.959513028462728,5.098586559295654,,,,,,,,,,,,1.6888762286290273e+18,15.396027197265624,35.106719207763675,28.64315910339355,-15.696519660949708,1.6888762286290273e+18,15.396027197265624,-220.5198760986328,123.49815673828124,-148.82291564941406,1.6888762286332585e+18,15.400258544921876,-0.1639588102698325,0.1441034004092216,-0.8442330360412598,0.4881386160850525,-2.857582926750183,1.0607674717903135,-2.970823884010315
0.45,1.6888762286765125e+18,15.443512532552084,5.727050304412842,-30.098745981852215,-0.6352251768112183,1.6888762286765125e+18,15.443512532552084,4.304288943608602,-39.38426653544108,2.103689879179001,1.6888762286765125e+18,15.443512532552084,-1.4455634852250416,-9.269773801167808,2.674201567967733,1.688876228685159e+18,15.452158854166669,1.1565206050872805,0.6459390719731649,7.142949263254802,1.6888762286894886e+18,15.456488525390624,1.3027210434277852,0.336739460627238,7.292152881622315,,,,,,,,,,,,1.6888762286790236e+18,15.4460236328125,24.885559463500975,35.88263931274414,-11.155679702758787,1.6888762286790236e+18,15.4460236328125,-230.74103698730468,130.73763580322264,-144.28207702636718,1.6888762286765125e+18,15.443512532552084,-0.1686661938826243,0.0998818725347518,-0.7780366142590841,0.5945032238960266,-2.527878681818644,1.2883313496907551,2.914203405380249
0.5,1.6888762287284155e+18,15.495415771484376,1.930775006612142,-39.05126698811849,11.94449520111084,1.6888762287284155e+18,15.495415771484376,4.315056800842285,-48.205804189046226,14.40818214416504,1.6888762287284155e+18,15.495415771484376,2.3614802757898965,-9.138789494832356,2.3989737033843994,1.6888762287370598e+18,15.504059895833334,0.3630066514015198,-1.2576697369416554,8.655553181966146,1.688876228732743e+18,15.499742553710938,-0.7373906970024109,-0.4727333560585975,8.860142230987549,,,,,,,,,,,,1.688876228729028e+18,15.4960283203125,4.304160040616989,41.00419921875,-12.378119850158692,1.688876228729028e+18,15.4960283203125,-251.3224365234375,135.85919799804688,-145.5045196533203,1.6888762287284155e+18,15.495415771484376,-0.1681239505608876,0.0684065235157807,-0.6387377977371216,0.7450468341509501,-0.7769912481307983,1.3523881832758586,1.1154953638712566
0.55,1.6888762287803195e+18,15.54731974283854,-25.99469502766927,2.353357950846354,-3.3354643185933432,1.6888762287803195e+18,15.54731974283854,-20.49312973022461,-5.210172176361084,-0.4199403921763102,1.6888762287803195e+18,15.54731974283854,5.478764057159424,-7.5477854410807295,2.8508103688557944,1.6888762287889695e+18,15.555969401041663,0.0055995931228001,-8.29952065149943,7.779674371083577,1.6888762287759992e+18,15.5429990234375,1.7258979678153992,-7.402821222941081,8.36997365951538,,,,,,,,,,,,1.6888762287790216e+18,15.546021435546876,-10.128439807891846,39.384039306640624,-14.947439575195313,1.6888762287790216e+18,15.546021435546876,-265.755029296875,134.2390380859375,-148.07383728027344,1.6888762287803195e+18,15.54731974283854,-0.0922471024096012,-0.0317798536270856,-0.471635381380717,0.871985912322998,-0.2562170773744582,0.9678277969360352,0.3436464567979176
0.6,1.688876228832219e+18,15.59921875,-31.26085027058919,21.127176602681477,-10.820385615030924,1.688876228832219e+18,15.59921875,-24.820151646931965,15.592629273732504,-5.804987748463948,1.688876228832219e+18,15.59921875,6.417896111806233,-5.518802483876546,4.950684547424316,1.6888762288322258e+18,15.599225952148435,-1.2003501951694489,-1.0468703471124172,2.454151213169098,1.6888762288279e+18,15.594899983723955,-1.71250985066096,-2.3416500637928643,3.0604857802391052,,,,,,,,,,,,1.6888762288290268e+18,15.596026953125,-16.028359603881835,36.285238647460936,-20.681439208984376,1.6888762288290268e+18,15.596026953125,-271.6549560546875,131.14024047851564,-153.80783386230468,1.688876228832219e+18,15.59921875,-0.0559929721057414,-0.1782732357581456,-0.3482208053270976,0.9184717933336892,-0.4858708679676056,0.6685009598731995,0.2933548092842102
0.65,1.6888762288841247e+18,15.651124593098958,-4.5269856452941895,7.8088615735371905,-4.746901035308838,1.6888762288841247e+18,15.651124593098958,0.527019222577413,0.9294121836622556,0.0759720802307128,1.6888762288841247e+18,15.651124593098958,5.031203428904216,-6.8637040456136065,4.758159637451172,1.6888762288754737e+18,15.64247355143229,1.936646471420924,-0.1697696348031361,-6.165004809697469,1.6888762288797996e+18,15.6467998046875,2.2689570983250937,0.0971275873210591,-6.687854448954265,,,,,,,,,,,,1.6888762288790236e+18,15.6460236328125,-11.424079990386964,39.96475982666016,-21.43051986694336,1.6888762288790236e+18,15.6460236328125,-267.05067749023436,134.81976013183595,-154.55691833496093,1.6888762288841247e+18,15.651124593098958,-0.0572860315442085,-0.166756252447764,-0.4437097410360972,0.8765899936358134,-0.5656426350275675,0.8654658397038778,0.399597813685735
0.7,1.6888762289360292e+18,15.703029215494787,0.3175648848215739,5.712506453196208,3.622772773106893,1.6888762289360292e+18,15.703029215494787,3.7922249833742776,-2.9958139260609946,6.621339003245036,1.6888762289360292e+18,15.703029215494787,3.4518585999806723,-8.692575136820475,2.933852752049764,1.6888762289273807e+18,15.694380696614582,3.072855750719706,2.70542041460673,-3.877314488093058,1.6888762289317097e+18,15.698709716796875,2.72171014547348,2.1277453899383545,-3.309311588605245,,,,,,,,,,,,1.6888762289290212e+18,15.69602109375,2.6059199810028075,47.074919891357425,-14.029999732971191,1.6888762289290212e+18,15.69602109375,-253.0206726074219,141.92992248535157,-147.15639953613282,1.6888762289360292e+18,15.703029215494787,-0.0509458929300307,-0.0554863773286342,-0.5683544874191284,0.8190544446309408,-0.4015517731507619,1.1827573776245115,0.3949884970982869
0.75,1.688876228987935e+18,15.754935139973956,10.922079881032309,-18.29809347788493,3.0943540732065835,1.688876228987935e+18,15.754935139973956,13.975878715515137,-27.01436996459961,6.524031162261963,1.688876228987935e+18,15.754935139973956,3.030997355779012,-8.700530370076498,3.3649636109670005,1.688876228979283e+18,15.746283040364585,-1.2507465879122417,-1.7895297606786091,0.0944295997420946,1.6888762289836145e+18,15.750614339192708,-1.1502592489123344,-0.9776389201482136,-0.1625919540723165,,,,,,,,,,,,1.688876228979023e+18,15.746022998046874,5.1239999294281,49.08791885375977,-11.385039710998536,1.688876228979023e+18,15.746022998046874,-250.50259704589843,143.9429168701172,-144.51143798828124,1.688876228987935e+18,15.754935139973956,-0.0452062723537285,-0.0880239705244699,-0.5790320038795471,0.8092013994852701,-0.5549690922101339,1.192306717236837,0.4932865997155507
0.8,1.68887622903984e+18,15.80683976236979,-27.137298583984375,-10.874133427937826,12.943514784177143,1.68887622903984e+18,15.80683976236979,-25.40001169840495,-20.34058729807536,14.63569994767507,1.68887622903984e+18,15.80683976236979,1.714485585689545,-9.450707753499348,1.6274723211924236,1.688876229031183e+18,15.798182942708332,3.237433075904846,7.233153581619263,-6.141079107920329,1.6888762290355156e+18,15.802515462239583,3.515376726786295,6.976131995519002,-6.565579732259114,,,,,,,,,,,,1.6888762290290204e+18,15.7960205078125,7.986119937896729,49.06595916748047,-8.825479793548585,1.6888762290290204e+18,15.7960205078125,-247.6404754638672,143.92095642089845,-141.9518798828125,1.68887622903984e+18,15.80683976236979,-0.093669407069683,0.0693968070360521,-0.6525390942891439,0.7455656925837199,0.3255090291301409,1.4114193518956502,-0.0935483972231547
0.85,1.688876229083092e+18,15.850092041015625,-12.24821138381958,13.761237144470217,-5.261961340904236,1.688876229083092e+18,15.850092041015625,-14.21067476272583,4.186841517686844,-4.999204754829407,1.688876229083092e+18,15.850092041015625,-1.9852651953697205,-9.558650493621826,0.1980428621172904,1.6888762290830922e+18,15.850092203776043,0.875929832458496,1.9693786303202312,-9.50816853841146,1.6888762290874186e+18,15.854418782552084,0.1013018091519673,1.880904992421468,-9.313149770100912,1.6888762290614666e+18,15.828466552734374,0.0,0.0,1.4160712957382202,35.42499923706055,1.347673773765564,93.76581573486328,22.899999618530273,-122.7500469,49.1925388,1.68887622907903e+18,15.846030078125,27.171839904785156,43.00987930297852,-2.4277999639511108,1.68887622907903e+18,15.846030078125,-228.4547576904297,137.86487731933593,-135.5541961669922,1.688876229083092e+18,15.850092041015625,-0.0627032201737165,0.179379440844059,-0.7728936970233917,0.6034810245037079,2.670855760574341,1.2759298086166382,-2.322601318359375
0.9,1.688876229126344e+18,15.893344156901042,-8.615791161855062,-26.87761465708415,-0.6707644065221151,1.688876229126344e+18,15.893344156901042,-13.21615743637085,-35.343186696370445,1.0528418620427449,1.688876229126344e+18,15.893344156901042,-4.623167991638184,-8.449825922648111,1.658892850081126,1.6888762291349926e+18,15.901992594401042,-2.379930953184763,-0.7950411637624105,-5.8005218505859375,1.6888762291393208e+18,15.906321044921874,-1.97009136279424,-1.6323847770690925,-5.449325243631999,,,,,,,,,,,,1.6888762291290202e+18,15.896020263671875,40.86023864746094,30.944079208374024,-8.801079845428466,1.6888762291290202e+18,15.896020263671875,-214.766357421875,125.79907836914064,-141.92747802734374,1.688876229126344e+18,15.893344156901042,-0.1056607986489931,0.1593791693449019,-0.8608474532763163,0.4694473644097646,-0.9972333113352456,1.0015108585357666,-2.797988255818685
0.95,1.6888762291782492e+18,15.945249186197918,43.58166631062826,-1.2311331431070964,7.271320899327596,1.6888762291782492e+18,15.945249186197918,37.29971885681152,-8.618149280548096,8.717451731363932,1.6888762291782492e+18,15.945249186197918,-6.304749011993408,-7.371270974477132,1.3814172347386675,1.6888762291869002e+18,15.953900390625,-1.0831149717171986,2.9832621415456138,0.9972883860270182,1.688876229182576e+18,15.949576171875,-1.2366203367710114,2.3006713539361954,1.5533539652824402,,,,,,,,,,,,1.6888762291790236e+18,15.946023583984376,48.6731201171875,22.391879653930665,-5.219159936904907,1.6888762291790236e+18,15.946023583984376,-206.95347900390624,117.24687805175782,-138.3455596923828,1.6888762291782492e+18,15.945249186197918,-0.0537126796940961,0.126926024754842,-0.9096545577049256,0.3909838497638702,1.0463944276173909,0.8111129403114319,-2.864957014719645
1.0,1.6888762292301537e+18,15.997153645833334,-4.710945288340251,0.7418100039164225,-13.73777198791504,1.6888762292301537e+18,15.997153645833334,-9.720243771870932,-6.964111089706421,-10.266605059305826,1.6888762292301537e+18,15.997153645833334,-5.032100359598796,-7.690175851186116,3.4064536889394126,1.6888762292388065e+18,16.00580607096354,1.1630365699529648,4.377561966578166,0.380110889673233,1.6888762292258284e+18,15.992828287760418,0.2589559555053711,7.071935971577962,0.1606575498978296,,,,,,,,,,,,1.6888762292290214e+18,15.996021337890625,42.38035888671875,25.168599700927736,-17.519199752807616,1.6888762292290214e+18,15.996021337890625,-213.2462371826172,120.02359771728516,-150.64559631347657,1.6888762292301537e+18,15.997153645833334,-0.2090557167927423,0.177542840441068,-0.8774736920992533,0.3913647532463074,-2.781128485997518,0.8672119379043579,-2.91058349609375
1.05,1.6888762292820562e+18,16.04905607096354,5.232455253601074,10.18993854522705,-6.114386399586995,1.6888762292820562e+18,16.04905607096354,0.8129614194234213,1.7922242085138955,-3.6269208590189614,1.6888762292820562e+18,16.04905607096354,-4.442295074462891,-8.381969134012857,2.422752022743225,1.6888762292820424e+18,16.04904248046875,1.9433913826942444,-4.9174652099609375,3.005151629447937,1.688876229277734e+18,16.044734375,1.875916302204132,-4.116824467976888,2.815070629119873,,,,,,,,,,,,1.6888762292790277e+18,16.046027880859377,40.27219848632812,29.70699996948242,-16.567599868774415,1.6888762292790277e+18,16.046027880859377,-215.35439453125,124.56199645996094,-149.693994140625,1.6888762292820562e+18,16.04905607096354,-0.1751905182997385,0.1974510451157887,-0.8548259735107422,0.4446136554082234,-2.9207421938578286,0.980156421661377,-2.80338716506958
1.1,1.688876229333964e+18,16.10096394856771,9.734152793884276,-9.999906222025556,-1.5071504910786946,1.688876229333964e+18,16.10096394856771,6.998208681742351,-19.150556564331055,0.6971089939276377,1.688876229333964e+18,16.10096394856771,-2.758745630582174,-9.134904543558756,2.1395460764567056,1.6888762293253102e+18,16.092310302734376,-1.7349082032839458,-1.7449365854263306,4.721377531687419,1.688876229329633e+18,16.09663289388021,-1.75776473681132,-1.1699087619781494,4.919806877772014,,,,,,,,,,,,1.6888762293290202e+18,16.096020068359376,35.960719680786134,36.724439239501955,-10.279719734191897,1.6888762293290202e+18,16.096020068359376,-219.66587524414064,131.57943725585938,-143.40611877441407,1.688876229333964e+18,16.10096394856771,-0.1397170225779215,0.1299948294957478,-0.8121623595555624,0.5497557918230692,-2.8870345751444497,1.1945154666900637,-0.9106763203938802
1.15,1.6888762293858644e+18,16.152864664713544,0.7593048413594564,-44.89674631754557,7.842394987742106,1.6888762293858644e+18,16.152864664713544,1.6201404730478923,-54.3988291422526,10.010971943537394,1.6888762293858644e+18,16.152864664713544,0.8380341827869415,-9.486334800720217,2.103863755861918,1.6888762293772168e+18,16.144216796875,0.5662720600763956,0.0840957760810852,7.768831570943196,1.688876229381541e+18,16.148541259765626,0.3264056444168091,-0.200669248898824,7.8933461507161455,,,,,,,,,,,,1.6888762293790216e+18,16.14602177734375,21.26460018157959,45.32543869018555,-10.257760047912598,1.6888762293790216e+18,16.14602177734375,-234.36199340820312,140.18043823242186,-143.3841552734375,1.6888762293858644e+18,16.152864664713544,-0.1650667339563369,0.1058871150016784,-0.6926877697308859,0.6917008757591248,-1.445176124572754,1.4395970503489175,1.831722855567932
1.2,1.6888762294377687e+18,16.204768798828127,-17.029701232910156,-15.225923697153728,7.804813782374064,1.6888762294377687e+18,16.204768798828127,-12.468998829523722,-23.51985200246175,10.357332626978556,1.6888762294377687e+18,16.204768798828127,4.53790020942688,-8.27818250656128,2.487805207570394,1.688876229429118e+18,16.196117919921875,0.9619091749191284,-2.762179970741272,8.8625857035319,1.6888762294334464e+18,16.200446289062498,1.4635312954584758,-3.3254994551340737,8.807607809702555,,,,,,,,,,,,1.6888762294290225e+18,16.196022509765623,0.4904399514198303,49.114759063720705,-10.770159721374512,1.6888762294290225e+18,16.196022509765623,-255.1361541748047,143.96975708007812,-143.89655456542968,1.6888762294377687e+18,16.204768798828127,-0.1402020057042439,0.0220409790053963,-0.5325261652469635,0.8316832780838013,-0.2855768700440724,1.1081013480822246,0.5214810272057852
1.25,1.6888762294896714e+18,16.25667154947917,-22.66217104593913,24.354714075724285,-15.559021631876629,1.6888762294896714e+18,16.25667154947917,-16.681363423665363,17.882361729939777,-11.205588658650717,1.6888762294896714e+18,16.25667154947917,5.958005587259929,-6.456607182820638,4.288719177246094,1.688876229481017e+18,16.248017496744794,-0.8900307019551595,-7.484575430552165,5.59913984934489,1.6888762294853489e+18,16.252348958333332,-1.0900890628496809,-6.874728441238403,5.176217635472615,,,,,,,,,,,,1.688876229479023e+18,16.24602314453125,-17.01899948120117,46.14527969360351,-10.692079734802244,1.688876229479023e+18,16.24602314453125,-272.6455932617188,141.00027770996093,-143.8184783935547,1.6888762294896714e+18,16.25667154947917,-0.0469127347071965,-0.1439150447646776,-0.3969877362251282,0.9037777185440063,-0.4319368402163188,0.7838099996248881,0.282008538643519
1.3,1.688876229532926e+18,16.299925903320315,-24.573046684265137,7.77162492275238,-8.249676704406738,1.688876229532926e+18,16.299925903320315,-18.714864253997803,1.5424731969833374,-3.3388848304748535,1.688876229532926e+18,16.299925903320315,5.835380554199219,-6.213406562805176,4.846078395843506,1.688876229532925e+18,16.299924804687503,1.1698069504151742,-0.1313360258936881,-2.284126897652944,1.688876229537249e+18,16.3042490234375,1.4207198172807691,-0.040877066552639,-3.0183869351943335,,,,,,,,,,,,1.6888762295290255e+18,16.2960255859375,-22.01123924255371,42.71463851928711,-15.989319992065427,1.6888762295290255e+18,16.2960255859375,-277.637841796875,137.56963806152345,-149.11571655273437,1.688876229532926e+18,16.299925903320315,-0.0336472205817699,-0.1832014992833137,-0.3829196542501449,0.9046733379364014,-0.5096358954906464,0.7486759722232819,0.2783713936805725
1.35,1.6888762295761787e+18,16.3431787109375,4.42391061782837,9.989172299702965,-0.3354370594024658,1.6888762295761787e+18,16.3431787109375,8.57109022140503,2.0301106770833335,3.6253256797790527,1.6888762295761787e+18,16.3431787109375,4.124378045399983,-7.943316459655762,3.89604918162028,1.6888762295848243e+18,16.351824381510415,3.1693215370178223,3.000519140313069,-6.060648600260417,1.6888762295891569e+18,16.356156819661457,3.0895018577575684,3.453119446833929,-5.6834901968638105,1.6888762295805082e+18,16.347508056640624,0.0,0.0,1.3869662284851074,39.132999420166016,2.894136905670166,95.69847869873048,20.719229442255575,-122.7500207,49.1925396,1.688876229579027e+18,16.3460271484375,-8.749839687347412,48.0972785949707,-10.135759830474854,1.688876229579027e+18,16.3460271484375,-264.3764404296875,142.95227661132813,-143.26215515136718,1.6888762295761787e+18,16.3431787109375,-0.0110109021576741,-0.1423638239502906,-0.5020615458488464,0.8511838316917419,-0.5097770988941193,1.0239512920379636,0.3157824079195658
1.4,1.6888762296280788e+18,16.395078776041668,-2.062167843182882,1.607770601908366,4.918697754542033,1.6888762296280788e+18,16.395078776041668,1.050848166147868,-7.329614485303561,7.637491067250569,1.6888762296280788e+18,16.395078776041668,3.090214729309082,-8.921639760335287,2.6540798346201577,1.6888762296367288e+18,16.403728922526042,-0.8970047235488892,-0.0466803312301635,-0.2160426576932271,1.6888762296324045e+18,16.39940466308594,-0.8151233121752739,-0.5021312236785889,-0.7372379899024963,,,,,,,,,,,,1.6888762296290212e+18,16.396021191406252,-0.2098399996757507,50.51043930053711,-5.245999908447265,1.6888762296290212e+18,16.396021191406252,-255.8364379882813,145.3654327392578,-138.37239685058594,1.6888762296280788e+18,16.395078776041668,-0.0272370365758736,-0.0559469858805337,-0.5826879739761353,0.8102233409881592,-0.3716406325499217,1.2258998155593872,0.330423504114151
1.45,1.688876229679987e+18,16.446986979166667,2.291112740834554,-27.807769457499187,15.449044863382976,1.688876229679987e+18,16.446986979166667,5.537190914154053,-36.53919919331869,18.62473424275716,1.688876229679987e+18,16.446986979166667,3.2232772509256997,-8.715682983398438,3.1109763781229653,1.688876229688637e+18,16.455636800130208,0.7835874160130819,5.143179893493652,-2.5568783283233643,1.6888762296756626e+18,16.442662841796874,-0.4453207453091939,2.959642052650452,-0.2424625953038533,,,,,,,,,,,,1.688876229679023e+18,16.44602314453125,-1.3688399702310563,50.06147918701172,-7.632320022583008,1.688876229679023e+18,16.44602314453125,-256.9954376220703,144.91647644042968,-140.75871887207032,1.688876229679987e+18,16.446986979166667,-0.0520866041382153,-0.0690691759809851,-0.5739261507987976,0.8127550482749939,-0.4781378209590912,1.18936554590861,0.4533806542555491
1.5,1.6888762297318904e+18,16.498890462239583,-18.18813355763753,7.991010030110677,-1.2152323722839355,1.6888762297318904e+18,16.498890462239583,-17.67837365468343,-1.6420744260152187,-0.0444666147232055,1.6888762297318904e+18,16.498890462239583,0.4869589805603027,-9.617339452107748,1.106052319208781,1.688876229740542e+18,16.50754207356771,3.586848020553589,1.9309959212938943,-9.991159121195476,1.688876229727561e+18,16.494561197916667,3.615202267964681,2.675284286340078,-9.394903818766275,,,,,,,,,,,,1.6888762297290286e+18,16.496028515625,12.678239870071412,48.375439453125,-1.6665200352668763,1.6888762297290286e+18,16.496028515625,-242.94835510253907,143.23043518066407,-134.792919921875,1.6888762297318904e+18,16.498890462239583,-0.0696009111901124,0.0902254146834213,-0.6966291864713033,0.7040062546730042,1.1704411158959072,1.4322410424550374,-0.9431976874669392
1.55,1.6888762297837888e+18,16.550788899739583,-19.236811955769856,-11.420514742533364,-7.587141235669454,1.6888762297837888e+18,16.550788899739583,-22.822741826375324,-20.460427522659305,-6.518846794962883,1.6888762297837888e+18,16.550788899739583,-3.608731508255005,-9.024166742960611,1.0035808583100636,1.688876229783788e+18,16.550788208007813,-3.3480759859085083,2.823648154735565,-5.370498180389404,1.6888762297794662e+18,16.546466389973958,-1.900503635406494,3.1336368123690286,-6.406245708465576,,,,,,,,,,,,1.6888762297790223e+18,16.54602216796875,33.80863914489746,38.537359619140624,-0.814959990978241,1.6888762297790223e+18,16.54602216796875,-221.81795349121097,133.3923583984375,-133.94135437011718,1.6888762297837888e+18,16.550788899739583,-0.0787770003080367,0.1556839893261591,-0.8289804061253866,0.5293605426947275,0.9462250073750814,1.1248966058095295,-2.698632796605428
1.6,1.6888762298356918e+18,16.602691731770832,38.78007253011068,-20.118064244588215,10.008268117904665,1.6888762298356918e+18,16.602691731770832,32.68037271499634,-27.617360432942707,11.43549919128418,1.6888762298356918e+18,16.602691731770832,-6.122503439585368,-7.483550389607747,1.362517277399699,1.688876229827045e+18,16.594045084635415,-0.4232277870178222,-2.323578635851542,-6.306420008341472,1.688876229831372e+18,16.59837223307292,-0.3264056841532389,-1.8700111309687295,-5.421989043553669,,,,,,,,,,,,1.688876229829025e+18,16.596025048828125,45.04483871459961,26.95711898803711,-4.413959932327271,1.688876229829025e+18,16.596025048828125,-210.58175354003907,121.81211853027344,-137.54035339355468,1.6888762298356918e+18,16.602691731770832,-0.0596126976112524,0.1316765372951825,-0.9040276408195496,0.3991095026334126,1.0548075834910076,0.8316371043523153,-2.858528852462769
1.65,1.6888762298876014e+18,16.654601399739583,8.08948040008545,4.284021298090617,-7.546073277791341,1.6888762298876014e+18,16.654601399739583,2.438086827596029,-3.286143064498902,-4.910869757334392,1.6888762298876014e+18,16.654601399739583,-5.674194812774658,-7.554419199625651,2.5704901218414307,1.688876229878952e+18,16.645951985677083,-0.9742791553338368,5.288260459899902,1.8229745427767436,1.688876229883275e+18,16.650274983723957,-0.7923940246303878,5.442809422810872,1.736384431521098,,,,,,,,,,,,1.6888762298790252e+18,16.646025390625002,47.418958282470705,23.809519958496093,-7.451759767532349,1.6888762298790252e+18,16.646025390625002,-208.20763244628907,118.66451568603516,-140.57815551757812,1.6888762298876014e+18,16.654601399739583,-0.1344262411197025,0.1368105262517928,-0.8967639406522115,0.3967111508051554,-2.938704490661621,0.8469316164652506,-2.931286573410034
1.7,1.6888762299395028e+18,16.706502766927084,-0.03451935450236,9.144497235616049,-9.846693515777588,1.6888762299395028e+18,16.706502766927084,-4.71306308110555,1.0596215724945068,-6.808976332346599,1.6888762299395028e+18,16.706502766927084,-4.701345125834147,-8.069130420684814,2.973003625869751,1.6888762299308554e+18,16.69785555013021,1.853110671043396,1.7422895431518557,1.346041560173035,1.6888762299351818e+18,16.702181966145833,1.9523762464523315,0.9232209722201028,1.4332425793011982,,,,,,,,,,,,1.6888762299290235e+18,16.6960236328125,42.15099945068359,26.8351188659668,-16.621279335021974,1.6888762299290235e+18,16.6960236328125,-213.47559509277343,121.69011840820312,-149.7476776123047,1.6888762299395028e+18,16.706502766927084,-0.2000569850206374,0.1895594845215479,-0.8654252688090006,0.4178108672300973,-2.8254822889963784,0.9257554014523824,-2.8681082725524902
1.75,1.6888762299827597e+18,16.74975964355469,8.514825344085693,5.513775587081909,-3.4440141916275024,1.6888762299827597e+18,16.74975964355469,4.448556542396545,-3.1944182962179184,-1.4144572466611862,1.6888762299827597e+18,16.74975964355469,-4.0890703201293945,-8.692448616027832,1.9648435711860657,1.688876229982756e+18,16.749756103515626,-0.1280271410942077,-3.202308416366577,3.4597880442937217,1.6888762299870897e+18,16.754089599609376,-0.4593706925710042,-3.050711909929911,3.786397298177083,,,,,,,,,,,,1.688876229979025e+18,16.746024853515625,40.15263900756836,31.861519622802735,-12.339079666137696,1.688876229979025e+18,16.746024853515625,-215.4739562988281,126.71651763916016,-145.465478515625,1.6888762299827597e+18,16.74975964355469,-0.1435407474637031,0.1745826974511146,-0.8468222618103027,0.4809209853410721,-2.990578293800354,1.0453605651855469,-2.8221365213394165
1.8,1.6888762300260068e+18,16.793006917317708,7.915149052937825,-14.355365435282389,-1.599345604578654,1.6888762300260068e+18,16.793006917317708,5.813761313756307,-23.641088167826336,0.7222336083650589,1.6888762300260068e+18,16.793006917317708,-2.124188780784607,-9.2699769337972,2.2568657398223877,1.6888762300346606e+18,16.801660481770835,-0.3829106688499451,0.2436334292093912,6.275215148925781,1.6888762300389875e+18,16.805987223307294,-0.0093156645695366,0.3954334259033203,6.479244073232015,,,,,,,,,,,,1.688876230029018e+18,16.7960181640625,32.76675910949707,38.705718994140625,-10.921439933776856,1.688876230029018e+18,16.7960181640625,-222.85983581542968,133.5607177734375,-144.04783935546874,1.6888762300260068e+18,16.793006917317708,-0.1502021104097366,0.1191196342309316,-0.7940859397252401,0.5751182834307352,-2.772657791773478,1.2535921732584636,-1.027674357096354
1.85,1.6888762300779128e+18,16.844912679036458,-0.9772806167602534,-41.17914708455404,7.149089097976685,1.6888762300779128e+18,16.844912679036458,0.2869393030802409,-50.6566530863444,9.303493738174438,1.6888762300779128e+18,16.844912679036458,1.2414186050494511,-9.461757977803549,2.089691241582235,1.6888762300865595e+18,16.85355965169271,-0.3075706263383229,-0.6513351003328959,7.096879800160726,1.6888762300822318e+18,16.84923193359375,-0.8313111960887909,0.2122756540775299,6.452493190765381,1.6888762300995346e+18,16.86653466796875,0.0,0.0,1.3869662284851074,39.21200180053711,3.2804934978485107,96.48715209960938,20.719229442255575,-122.7500101,49.1925398,1.6888762300790216e+18,16.846021728515627,17.575319671630858,46.46003875732422,-10.68231964111328,1.6888762300790216e+18,16.846021728515627,-238.05127868652343,141.3150390625,-143.8087188720703,1.6888762300779128e+18,16.844912679036458,-0.1753078152736028,0.1064867277940114,-0.6787725687026978,0.7035786310831705,-1.2355158925056458,1.4404582977294922,1.6377004186312358
1.9,1.6888762301298102e+18,16.896810302734377,-15.39478079477946,-9.272345383961996,5.523067394892375,1.6888762301298102e+18,16.896810302734377,-11.026126464207968,-17.742979208628338,7.807182232538859,1.6888762301298102e+18,16.896810302734377,4.345852375030518,-8.454888661702475,2.2194015185038247,1.6888762301384635e+18,16.905463541666666,2.2965988318125405,-5.408702691396077,7.270416259765625,1.688876230125486e+18,16.89248624674479,2.1146119038263955,-3.676848808924357,7.777180194854736,,,,,,,,,,,,1.688876230129017e+18,16.8960173828125,0.1268799543380737,49.19283905029297,-10.870199584960938,1.688876230129017e+18,16.8960173828125,-255.49972229003907,144.04783935546874,-143.99659729003906,1.6888762301298102e+18,16.896810302734377,-0.141672171652317,0.0388935660012065,-0.5438114007314047,0.8232338031133016,-0.2569299191236496,1.1419496138890584,0.5187205175558726
1.95,1.6888762301817147e+18,16.948714680989585,-19.864146232604977,24.770142873128258,-9.921915372212728,1.6888762301817147e+18,16.948714680989585,-14.029916604359943,17.864415486653645,-6.033103505770366,1.6888762301817147e+18,16.948714680989585,5.811427593231201,-6.889982223510742,3.824098269144694,1.6888762301903667e+18,16.957366536458334,-1.0381655097007751,-4.128481904665629,2.829171488682429,1.688876230177392e+18,16.944391927083334,-0.6534221768379211,-6.421975374221802,4.4847690264383955,,,,,,,,,,,,1.6888762301790216e+18,16.94602177734375,-14.901079559326172,46.633279418945314,-11.316719913482666,1.6888762301790216e+18,16.94602177734375,-270.5276794433594,141.4882781982422,-144.443115234375,1.6888762301817147e+18,16.948714680989585,-0.0415815524756908,-0.1205880567431449,-0.4212823907534281,0.8969895641009012,-0.3867833813031514,0.8435982267061869,0.2664515475432077
2.0,1.6888762302336192e+18,17.000619140625002,-20.377370834350582,9.891411304473875,-8.039926687876383,1.6888762302336192e+18,17.000619140625002,-15.112070560455322,2.893520772457123,-3.550350626309713,1.6888762302336192e+18,17.000619140625002,5.2424977620442705,-6.982145309448242,4.424862543741862,1.6888762302336184e+18,17.00061853027344,0.771828256547451,-0.5119814500212669,-3.7906479835510254,1.688876230229295e+18,16.996295166015624,0.4916956226030984,-0.5879577845335006,-3.048624793688456,,,,,,,,,,,,1.6888762302290168e+18,16.996016748046877,-13.89579963684082,45.80856018066406,-14.942559814453125,1.6888762302290168e+18,16.996016748046877,-269.52239379882815,140.66355895996094,-148.06895446777344,1.6888762302336192e+18,17.000619140625002,-0.0315198333313067,-0.1626059263944625,-0.4350441296895345,0.8843851685523987,-0.5092992186546326,0.8632748126983643,0.311218500137329
2.05,1.6888762302855242e+18,17.052524169921877,12.71615195274353,4.933401107788086,3.810101032257081,1.6888762302855242e+18,17.052524169921877,15.995022257169088,-3.710270802179972,7.136194626490275,1.6888762302855242e+18,17.052524169921877,3.256068229675293,-8.62792682647705,3.261380195617676,1.688876230276872e+18,17.043871907552084,2.718961238861084,3.4352007309595742,-5.643987655639648,1.6888762302811996e+18,17.048199544270833,2.8083511193593345,3.690236846605937,-5.129282633463542,,,,,,,,,,,,1.688876230279018e+18,17.04601796875,-0.0195199966430664,48.8414794921875,-11.304519844055177,1.688876230279018e+18,17.04601796875,-255.64611206054687,143.69647827148438,-144.43091735839843,1.6888762302855242e+18,17.052524169921877,-0.0323529516657193,-0.0934010955194631,-0.5655050079027811,0.8171599904696146,-0.5000008543332418,1.1689676841100056,0.4112940927346546
2.1,1.6888762303374223e+18,17.104422444661456,13.249237378438314,-16.670616785685223,8.080995241800943,1.6888762303374223e+18,17.104422444661456,16.551153898239136,-25.492135365804035,10.94217840830485,1.6888762303374223e+18,17.104422444661456,3.2791155179341636,-8.805773417154947,2.7964699268341064,1.688876230328777e+18,17.095777018229168,-0.2113593618075052,-2.187508543332418,1.4703017075856526,1.6888762303331034e+18,17.100103352864583,-0.5351688464482626,-2.7525078852971396,1.2530373334884644,,,,,,,,,,,,1.6888762303290168e+18,17.096016650390624,1.886119967699051,49.53687973022461,-8.300879859924317,1.6888762303290168e+18,17.096016650390624,-253.74047241210937,144.39187927246093,-141.42727966308593,1.6888762303374223e+18,17.104422444661456,-0.0280900734166303,-0.0671819684406121,-0.5724385579427084,0.8162279725074768,-0.3973223368326822,1.1980330149332683,0.3409147361914317
2.15,1.6888762303893348e+18,17.156334716796874,-33.44857279459635,-10.585117022196451,11.093932231267294,1.6888762303893348e+18,17.156334716796874,-31.09951623280843,-19.86940066019694,13.118849515914915,1.6888762303893348e+18,17.156334716796874,2.326254685719808,-9.268537839253744,1.960203766822815,1.6888762303806822e+18,17.147682291666666,1.4588989814122515,6.646926720937093,-5.313356876373291,1.6888762303850117e+18,17.152011555989585,2.002619902292887,6.932149728139241,-5.9363884925842285,,,,,,,,,,,,1.6888762303790182e+18,17.14601826171875,2.820639964938164,48.673118591308594,-10.299239921569823,1.6888762303790182e+18,17.14601826171875,-252.8059509277344,143.52811584472656,-143.425634765625,1.6888762303893348e+18,17.156334716796874,-0.0911859398086865,0.0358240995556116,-0.6283215880393982,0.7692448496818542,-0.1683394958575566,1.3515115181605022,0.3492647514988978
2.2,1.6888762304325834e+18,17.19958337402344,-4.997640609741211,19.31545639038086,-6.246776700019836,1.6888762304325834e+18,17.19958337402344,-6.299105405807495,9.630812168121338,-6.334399700164795,1.6888762304325834e+18,17.19958337402344,-1.3242660909891129,-9.668899536132812,-0.1523366309702396,1.6888762304325898e+18,17.199590087890623,3.2594751715660095,3.105587959289551,-9.734137852986654,1.6888762304369203e+18,17.20392032877604,2.3636922041575112,3.223943074544271,-9.359320799509684,,,,,,,,,,,,1.6888762304290278e+18,17.1960279296875,21.159679412841797,44.94723892211914,-1.9422400042414665,1.6888762304290278e+18,17.1960279296875,-234.46691284179687,139.80223693847657,-135.06863708496093,1.6888762304325834e+18,17.19958337402344,-0.0424476545304059,0.1695862710475921,-0.7505918741226196,0.6350644826889038,2.39133358001709,1.3234663605690002,-2.087508201599121
2.25,1.6888762304758444e+18,17.242844401041665,-16.348862489064533,-20.363879680633545,-9.176602522532145,1.6888762304758444e+18,17.242844401041665,-20.249659697214764,-29.26581557591756,-8.044868956009546,1.6888762304758444e+18,17.242844401041665,-3.923598686854045,-8.886189778645834,1.0670205354690552,1.6888762304844977e+18,17.25149755859375,-3.785022815068563,1.9283488591512044,-4.539543231328328,1.6888762304888248e+18,17.25582478841146,-3.122794020920992,0.6653340260187784,-5.508986234664917,1.688876230463623e+18,17.230622802734374,180.0,1.1201260089874268,1.366249918937683,41.04399871826172,4.317529678344727,56.490570068359375,20.68286242810789,-122.7499919,49.192563,1.6888762304790246e+18,17.246024609375002,35.787479400634766,35.31411895751953,-7.180919981002807,1.6888762304790246e+18,17.246024609375002,-219.83911743164063,130.16911773681642,-140.30731506347655,1.6888762304758444e+18,17.242844401041665,-0.0930459524194399,0.1736038774251938,-0.8362836241722107,0.5097861289978027,0.986209789911906,1.0846941868464153,-2.689415375391642
2.3,1.6888762305277514e+18,17.294751708984375,28.6199951171875,-13.560797373453775,14.8438450495402,1.6888762305277514e+18,17.294751708984375,22.399611790974937,-21.01835536956787,16.157933553059895,1.6888762305277514e+18,17.294751708984375,-6.243185361226399,-7.441811879475911,1.2493752042452495,1.688876230536398e+18,17.30339835611979,-0.274787535270055,-2.013615449269613,-1.9607756038506825,1.688876230532073e+18,17.299072875976563,0.0256563425064088,-3.017521619796753,-2.3995549976825714,,,,,,,,,,,,1.6888762305290217e+18,17.29602177734375,45.93299942016601,24.648879623413087,-8.691279888153076,1.6888762305290217e+18,17.29602177734375,-209.69359741210937,119.50387725830078,-141.81767578125,1.6888762305277514e+18,17.294751708984375,-0.0627961096664269,0.1519434452056884,-0.9048154552777607,0.3914985756079356,1.040984312693278,0.8156055212020874,-2.807406028111776
2.35,1.688876230579651e+18,17.34665144856771,16.00464614232381,6.94053300221761,-12.084324061870577,1.688876230579651e+18,17.34665144856771,10.464810689290363,-0.688933531443278,-9.441280821959175,1.688876230579651e+18,17.34665144856771,-5.562637488047282,-7.613721370697021,2.578330397605896,1.6888762305883054e+18,17.35530558268229,-0.905811329682668,7.11963431040446,0.8954775333404541,1.6888762305753303e+18,17.342330240885417,-1.504153847694397,6.078465620676677,1.4233160217603047,,,,,,,,,,,,1.6888762305790234e+18,17.346023583984376,43.69795837402344,24.905079650878907,-12.561119842529298,1.6888762305790234e+18,17.346023583984376,-211.9286346435547,119.76007537841797,-145.68751525878906,1.688876230579651e+18,17.34665144856771,-0.1454362074534098,0.1526301056146621,-0.8913833300272623,0.3974113265673319,-2.9278923670450845,0.8547664086023966,-2.900912364323934
2.4,1.6888762306315584e+18,17.398558512369792,-4.007831573486328,6.545480887095134,-10.461163520812988,1.6888762306315584e+18,17.398558512369792,-8.635098457336426,-1.3746766448020935,-6.932007312774658,1.6888762306315584e+18,17.398558512369792,-4.650068283081055,-7.904412428538005,3.464442729949951,1.6888762306402092e+18,17.407209147135415,1.2705997029940288,-2.540741284688314,1.29854683081309,1.688876230627236e+18,17.394236165364585,1.190474549929301,0.5619451701641083,0.7568620443344116,,,,,,,,,,,,1.688876230629025e+18,17.396025048828125,37.73216018676758,27.179159545898436,-22.44311943054199,1.688876230629025e+18,17.396025048828125,-217.89443664550785,122.0341583251953,-155.56951599121095,1.6888762306315584e+18,17.398558512369792,-0.2339411328236261,0.1987707962592442,-0.8630957206090292,0.4004314243793487,-2.7368215719858804,0.901637355486552,-2.8863816261291504
2.45,1.688876230683463e+18,17.450462646484375,9.030065854390465,0.1026582717895501,-2.6324971119562783,1.688876230683463e+18,17.450462646484375,5.002594540516536,-8.522236943244934,-0.2334996263186136,1.688876230683463e+18,17.450462646484375,-4.050272623697917,-8.609149932861328,2.334283987681071,1.6888762306834614e+18,17.45046142578125,-1.1268172860145569,-3.912515521049499,4.144720792770386,1.6888762306791352e+18,17.44613517252604,-0.6877833604812622,-3.9860994021097818,3.8248308499654136,,,,,,,,,,,,1.6888762306790223e+18,17.446022509765623,37.62479934692383,31.685839080810545,-15.70627956390381,1.6888762306790223e+18,17.446022509765623,-218.00179748535157,126.54083862304688,-148.83267822265626,1.688876230683463e+18,17.450462646484375,-0.1508359263340631,0.149663468201955,-0.8484554092089335,0.4831279714902242,-2.9118638833363852,1.047507067521413,-2.927032232284546
2.5,1.688876230735363e+18,17.502363118489583,-4.1737189292907715,-31.28244082132975,2.9734432697296143,1.688876230735363e+18,17.502363118489583,-5.50787878036499,-40.69313939412435,5.2815577785174055,1.688876230735363e+18,17.502363118489583,-1.3569612403710682,-9.394951502482096,2.2434009313583374,1.688876230726717e+18,17.49371687825521,0.8503753344217936,-0.4493932525316874,6.725931803385417,1.6888762307310387e+18,17.49803857421875,1.0656544367472331,-1.0240647792816164,7.01853624979655,,,,,,,,,,,,1.6888762307290235e+18,17.49602373046875,29.57279853820801,38.92287979125977,-13.576159858703614,1.6888762307290235e+18,17.49602373046875,-226.05379638671872,133.7778778076172,-146.70255432128906,1.688876230735363e+18,17.502363118489583,-0.1552457610766092,0.1138432671626408,-0.7677230437596639,0.6080365180969238,-2.621470053990682,1.3347944021224976,0.9136343797047934
2.55,1.688876230787271e+18,17.55427067057292,1.302280108133952,-26.686338424682617,12.243889490763346,1.688876230787271e+18,17.55427067057292,3.4795629183451333,-35.856846491495766,14.876377582550049,1.688876230787271e+18,17.55427067057292,2.154481212298075,-9.15476163228353,2.5677737394968667,1.6888762307786191e+18,17.545619140625003,-1.25441179672877,-3.1076242526372275,8.035423278808594,1.6888762307829473e+18,17.549947102864582,-1.1804970701535542,-2.67396072546641,8.137946764628092,,,,,,,,,,,,1.6888762307790277e+18,17.546027587890627,12.809999752044678,47.00171890258789,-11.409439849853516,1.6888762307790277e+18,17.546027587890627,-242.8165954589844,141.85671691894532,-144.53583679199218,1.688876230787271e+18,17.55427067057292,-0.1215557878216107,0.0188288175656149,-0.6373377243677775,0.7581515510876974,-0.7478315830230713,1.3360224564870198,0.9481552640597024
2.6,1.688876230839175e+18,17.606174804687498,-23.553906122843426,7.698209444681805,-5.927514394124349,1.688876230839175e+18,17.606174804687498,-18.482361793518063,-0.234895467758181,-3.1184460123380027,1.688876230839175e+18,17.606174804687498,5.0487416585286455,-7.917359670003255,2.7443549633026123,1.6888762308305234e+18,17.59752351888021,1.5660039782524109,-3.986048460006714,6.785796642303467,1.6888762308348498e+18,17.60184977213542,1.232267866532008,-4.7456594705581665,6.532949288686116,,,,,,,,,,,,1.6888762308290235e+18,17.596023583984373,-8.754719781875611,48.17047882080078,-9.106079864501954,1.6888762308290235e+18,17.596023583984373,-264.3813171386719,143.02547607421874,-142.23247680664062,1.688876230839175e+18,17.606174804687498,-0.0570404840012391,-0.0483570680953561,-0.4877265791098277,0.8674577871958414,-0.2656184434890746,1.0053380330403645,0.2772358705600102
2.65,1.6888762308824238e+18,17.649423583984372,-20.651877403259277,22.858311653137207,-11.444772720336914,1.6888762308824238e+18,17.649423583984372,-15.099607944488524,16.155141830444336,-6.81087064743042,1.6888762308824238e+18,17.649423583984372,5.529467344284058,-6.687424182891846,4.569188833236694,1.6888762308824282e+18,17.649428141276044,-1.6118697722752888,-4.428212960561116,2.3071361581484475,1.6888762308867543e+18,17.65375431315104,-1.3656910757223766,-3.66615871588389,1.6283630927403767,,,,,,,,,,,,1.6888762308790246e+18,17.646024755859376,-17.94131965637207,44.63247833251953,-14.313039779663086,1.6888762308790246e+18,17.646024755859376,-273.567919921875,139.48747863769532,-147.43944091796874,1.6888762308824238e+18,17.649423583984372,-0.0115711237303912,-0.1815771758556365,-0.4044016450643539,0.8961677253246307,-0.5039362758398056,0.804909348487854,0.2438925355672836
2.7,1.68887623092568e+18,17.692679931640626,-16.08398151397705,11.4457368850708,-8.96188481648763,1.68887623092568e+18,17.692679931640626,-11.399606506029764,4.244468450546265,-4.163311978181203,1.68887623092568e+18,17.692679931640626,4.66157325108846,-7.185523351033528,4.733859062194824,1.6888762309343283e+18,17.701328206380207,1.8615100781122844,0.6553056637446085,-4.989801963170369,1.6888762309386586e+18,17.70565852864583,2.0437515576680503,1.0675379037857056,-5.331224679946899,,,,,,,,,,,,1.6888762309290245e+18,17.6960244140625,-13.183319664001464,45.57187957763672,-15.606239891052246,1.6888762309290245e+18,17.6960244140625,-268.809912109375,140.4268798828125,-148.73263549804688,1.68887623092568e+18,17.692679931640626,-0.0026931274721088,-0.2006655335426329,-0.4442989726861318,0.8723357121149699,-0.5952064792315165,0.8867523868878683,0.2965930700302124
2.75,1.6888762309775852e+18,17.744585367838543,7.6872202555338545,3.473893483479818,2.0832033157348633,1.6888762309775852e+18,17.744585367838543,10.935797333717346,-5.219144940376282,5.333601633707683,1.6888762309775852e+18,17.744585367838543,3.225775241851806,-8.677293141682943,3.18568483988444,1.688876230986229e+18,17.753229003906252,2.2512420217196145,2.494671901067098,-2.2751676042874656,1.6888762309905623e+18,17.757562255859373,1.929774189988772,1.9824103911717732,-1.584686239560445,,,,,,,,,,,,1.6888762309790236e+18,17.746023632812502,-1.9275999933481216,48.94395904541015,-9.430599880218503,1.6888762309790236e+18,17.746023632812502,-257.5541961669922,143.79895935058593,-142.55699462890624,1.6888762309775852e+18,17.744585367838543,-0.0146990270974735,-0.1025755902131398,-0.5620164076487223,0.819401741027832,-0.4826526443163554,1.1669479211171467,0.3552100757757823
2.8,1.6888762310294853e+18,17.796485188802084,9.951023896535238,-23.521363894144695,8.781931559244791,1.6888762310294853e+18,17.796485188802084,13.316855748494469,-32.23391342163086,11.902697086334229,1.6888762310294853e+18,17.796485188802084,3.3430303732554116,-8.69680372873942,3.0560525258382163,1.6888762310381396e+18,17.8051396484375,-0.7435248295466105,2.916016101837158,-0.6645705203215281,1.688876231033816e+18,17.800815917968748,-1.4604260921478271,-0.5001459121704102,0.9252316951751708,,,,,,,,,,,,1.6888762310290258e+18,17.79602587890625,-1.8641599357128145,49.27579879760742,-7.825079917907715,1.6888762310290258e+18,17.79602587890625,-257.4907531738281,144.13079833984375,-140.95147705078125,1.6888762310294853e+18,17.796485188802084,-0.0004524617300679,-0.1043717165788014,-0.5566159884134928,0.8239101767539978,-0.4474606017271678,1.1615766286849976,0.2971292436122894
2.85,1.688876231081394e+18,17.848393717447916,-27.758095264434814,-1.3141037623087566,10.42047385374705,1.688876231081394e+18,17.848393717447916,-25.677181084950764,-10.768299539883932,11.681161542733513,1.688876231081394e+18,17.848393717447916,2.0581130584081015,-9.43845049540202,1.1959747076034546,1.6888762310900416e+18,17.857041666666667,4.5944193204243975,4.279263734817505,-7.761093775431315,1.688876231077069e+18,17.844069091796875,4.00620698928833,6.981528123219808,-6.525313536326091,,,,,,,,,,,,1.6888762310790246e+18,17.846024609375,3.7209999024868017,49.15623931884765,-4.733600023388862,1.6888762310790246e+18,17.846024609375,-251.9055969238281,144.01123962402343,-137.85999755859376,1.688876231081394e+18,17.848393717447916,-0.0523070407410462,0.055415212487181,-0.6345794002215067,0.7660760680834452,0.320670984685421,1.359975854555766,-0.1673891209065914
2.9,1.6888762311332966e+18,17.900296712239584,-15.56584628423055,10.640857696533203,-4.386387626330058,1.6888762311332966e+18,17.900296712239584,-18.15873257319133,1.2671990394592292,-4.284348845481873,1.6888762311332966e+18,17.900296712239584,-2.6156869729359946,-9.357913653055826,0.0373253126939138,1.6888762311332966e+18,17.900296752929687,-0.7387651205062866,5.212513208389282,-9.871200561523438,1.6888762311289715e+18,17.89597159830729,0.0342083970705668,4.576704263687134,-9.546398480733236,,,,,,,,,,,,1.6888762311290235e+18,17.896023681640624,25.910359382629395,42.6780387878418,1.190720009803772,1.6888762311290235e+18,17.896023681640624,-229.7162322998047,137.5330383300781,-131.93568115234376,1.6888762311332966e+18,17.900296712239584,-0.0493327695876359,0.1804551432530084,-0.7896837790807089,0.5794242024421692,2.66953174273173,1.206119974454244,-2.336412032445272
2.95,1.6888762311851983e+18,17.95219832356771,9.952968120574951,-31.581677118937176,-1.0281275113423665,1.6888762311851983e+18,17.95219832356771,5.00857659180959,-39.84907150268555,0.6723830699920654,1.6888762311851983e+18,17.95219832356771,-4.967192649841309,-8.251648585001627,1.6357969443003335,1.6888762311765466e+18,17.943546630859377,-2.619899272918701,0.5342016617457072,-4.088164726893107,1.6888762311808778e+18,17.947877766927082,-1.9784398476282756,-0.2492839097976684,-4.98588212331136,,,,,,,,,,,,1.6888762311790216e+18,17.946021679687497,37.65163955688477,33.298679733276366,-8.105679798126221,1.6888762311790216e+18,17.946021679687497,-217.9749542236328,128.15367889404297,-141.2320770263672,1.6888762311851983e+18,17.95219832356771,-0.1044302905599275,0.1579098651806513,-0.8691022793451945,0.4546584983666737,-3.072591702143351,0.9699774583180746,-2.819406270980835
3.0,1.6888762312371057e+18,18.004105631510416,26.179484367370605,2.59142541885376,4.928661187489827,1.6888762312371057e+18,18.004105631510416,19.941983540852863,-4.790829658508301,6.599404613176982,1.6888762312371057e+18,18.004105631510416,-6.260303020477295,-7.366509755452474,1.6060301065444946,1.688876231228454e+18,17.99545418294271,-0.2727004289627074,-0.0970257520675659,-1.1521936655044556,1.6888762312327734e+18,17.999773600260415,-0.5628614127635956,0.4976515769958496,-0.0761545896530149,,,,,,,,,,,,1.6888762312290263e+18,17.99602626953125,46.059878540039065,24.063279724121095,-7.705519962310791,1.6888762312290263e+18,17.99602626953125,-209.56671752929688,118.91827850341797,-140.83191528320313,1.6888762312371057e+18,18.004105631510416,-0.0858342672387758,0.1576715807120005,-0.905243674914042,0.3844129939874013,-0.9963768323262532,0.8083581328392029,-2.819322427113851
3.05,1.6888762312890053e+18,18.056005289713543,0.4039851824442546,3.3327322006225586,-14.706058820088703,1.6888762312890053e+18,18.056005289713543,-4.605385780334472,-4.398207346598308,-11.309676011403402,1.6888762312890053e+18,18.056005289713543,-5.032172203063965,-7.715194384256999,3.331669012705485,1.688876231280358e+18,18.047357991536455,-0.2227622071901957,6.559063911437988,0.8016079266866049,1.6888762312846817e+18,18.051681315104165,0.0103337789575258,6.49695897102356,0.7660250266393026,,,,,,,,,,,,1.6888762312790195e+18,18.04601943359375,42.13880004882813,25.497999572753905,-15.259759902954102,1.6888762312790195e+18,18.04601943359375,-213.48779907226563,120.35299835205078,-148.3861572265625,1.6888762312890053e+18,18.056005289713543,-0.2177902062733968,0.1931940565506616,-0.8729145526885986,0.3891826967398326,-2.7753657499949136,0.8710684378941854,-2.8784427642822266
3.1,1.6888762313322673e+18,18.099267333984372,-0.2528308629989624,8.629283666610718,-8.314234256744385,1.6888762313322673e+18,18.099267333984372,-4.810171663761139,0.4758725762367248,-5.259424209594727,1.6888762313322673e+18,18.099267333984372,-4.580142259597778,-8.137665748596191,2.9900965690612793,1.688876231332263e+18,18.099262939453126,1.19816126426061,-3.16743810971578,1.968462387720744,1.6888762313365906e+18,18.10359073893229,1.0248282700777054,-3.7292305628458657,2.213215708732605,,,,,,,,,,,,1.6888762313290258e+18,18.09602587890625,37.22707901000977,28.762719345092773,-20.879079055786132,1.6888762313290258e+18,18.09602587890625,-218.39951782226564,123.61771697998049,-154.00547485351564,1.6888762313322673e+18,18.099267333984372,-0.2188200801610946,0.2135151475667953,-0.8559241592884064,0.4164341986179352,-2.802795648574829,0.9384006261825562,-2.825174331665039
3.15,1.688876231375515e+18,18.14251497395833,9.400270462036133,1.3224565188090007,-2.529887239138285,1.688876231375515e+18,18.14251497395833,5.7371909618377686,-7.462017138799031,-0.1250250103573005,1.688876231375515e+18,18.14251497395833,-3.685880661010742,-8.768728574117025,2.3401487668355307,1.6888762313841605e+18,18.151160237630208,-0.9518807629744211,-0.5608761111895243,4.157752434412639,1.688876231388494e+18,18.155494140625,-0.839837899703222,0.1263472934563954,4.2742241223653155,,,,,,,,,,,,1.6888762313790218e+18,18.146021826171875,35.50199966430664,34.06483917236328,-14.466759872436525,1.6888762313790218e+18,18.146021826171875,-220.12460021972657,128.91983489990236,-147.5931610107422,1.688876231375515e+18,18.14251497395833,-0.1658757477998733,0.161484271287918,-0.8359821637471517,0.4964286684989929,-2.881580034891764,1.08486274878184,-2.919595003128052
3.2,1.688876231427417e+18,18.194417154947917,-1.8291365305582687,-31.30685297648112,1.3785067001978557,1.688876231427417e+18,18.194417154947917,-2.8354946772257485,-40.79403559366862,3.546761214733124,1.688876231427417e+18,18.194417154947917,-1.0291596055030825,-9.471436500549316,2.1035411755243936,1.6888762314360732e+18,18.203073323567708,1.760157306989034,-2.797813812891642,7.0308553377787275,1.6888762314403963e+18,18.207396402994792,1.3392711480458577,-3.1618894735972085,7.101206620534261,,,,,,,,,,,,1.6888762314290289e+18,18.19602880859375,22.884759521484376,42.202239227294925,-13.005200004577636,1.6888762314290289e+18,18.19602880859375,-232.74183654785156,137.05723571777344,-146.13159790039063,1.688876231427417e+18,18.194417154947917,-0.1771313945452372,0.142603039741516,-0.7538946668306986,0.613214115301768,-2.636380434036255,1.3649919430414836,1.0017435550689695
