seconds_elapsed_rounded,accelerometer_time,accelerometer_seconds_elapsed,accelerometer_z,accelerometer_y,accelerometer_x,accelerometeruncalibrated_time,accelerometeruncalibrated_seconds_elapsed,accelerometeruncalibrated_z,accelerometeruncalibrated_y,accelerometeruncalibrated_x,gravity_time,gravity_seconds_elapsed,gravity_z,gravity_y,gravity_x,gyroscope_time,gyroscope_seconds_elapsed,gyroscope_z,gyroscope_y,gyroscope_x,gyroscopeuncalibrated_time,gyroscopeuncalibrated_seconds_elapsed,gyroscopeuncalibrated_z,gyroscopeuncalibrated_y,gyroscopeuncalibrated_x,location_time,location_seconds_elapsed,location_bearingAccuracy,location_speedAccuracy,location_verticalAccuracy,location_horizontalAccuracy,location_speed,location_bearing,location_altitude,location_longitude,location_latitude,magnetometer_time,magnetometer_seconds_elapsed,magnetometer_z,magnetometer_y,magnetometer_x,magnetometeruncalibrated_time,magnetometeruncalibrated_seconds_elapsed,magnetometeruncalibrated_z,magnetometeruncalibrated_y,magnetometeruncalibrated_x,orientation_time,orientation_seconds_elapsed,orientation_qz,orientation_qy,orientation_qx,orientation_qw,orientation_roll,orientation_pitch,orientation_yaw
0.0,,,,,,,,,,,,,,,,1.6888762133042634e+18,0.071263427734375,0.5285511612892151,0.2919935882091522,0.1313360333442688,,,,,,,,,,,,,,,,,,,,,,,,,,,,,,,,,,,
0.05,1.6888762133562483e+18,0.123248291015625,0.0752973556518554,2.6363556385040283,0.4964450597763061,1.688876213338961e+18,0.1059610595703125,8.875577449798584,0.791725218296051,-2.139781579375267,1.6888762133562483e+18,0.123248291015625,9.379273414611816,-2.378337144851685,-1.615196943283081,1.6888762133389537e+18,0.1059537760416666,0.2521346348027388,0.1148935705423354,0.520406267295281,1.688876213334638e+18,0.1016379394531249,0.0915534272789954,0.4084397703409195,0.9233992099761964,,,,,,,,,,,,1.6888762133340214e+18,0.101021484375,-43.34049892425537,0.0731999948620796,28.755399227142338,1.6888762133340214e+18,0.101021484375,-298.9670944213867,94.9281997680664,-104.37099838256836,,,,,,,,,
0.1,1.6888762133822098e+18,0.1492098388671875,-0.5056111812591553,2.6729103326797485,2.561434268951416,1.6888762133822118e+18,0.1492119954427083,8.454041639963785,-0.0488534967104593,-1.518844207127889,1.6888762133822098e+18,0.1492098388671875,9.346423149108888,-2.4187800884246826,-1.7390087246894836,1.6888762133822098e+18,0.1492098388671875,0.4978551864624023,0.615064948797226,-0.2396882474422454,1.688876213377885e+18,0.1448846028645833,0.3997094829877217,0.403781920671463,-0.191760778427124,,,,,,,,,,,,1.6888762133790234e+18,0.146023193359375,-42.94156036376953,-0.4416399896144867,29.35807991027832,1.6888762133790234e+18,0.146023193359375,-298.5681518554687,94.41335754394532,-103.76831817626952,1.6888762133822118e+18,0.1492119954427083,0.6942541201909384,0.107921319703261,-0.106937917570273,0.7034825086593628,0.3050492207209269,0.0005763472872786,-1.5576889912287395
0.15,1.6888762134254666e+18,0.1924666341145833,-2.722843805948893,-1.1556893189748128,0.2421145439147949,1.688876213434114e+18,0.2011138509114583,7.33200732866923,-3.377469221750895,-1.5998013814290364,1.6888762134254666e+18,0.1924666341145833,9.247602780659994,-2.3003517786661782,-2.3160014152526855,1.6888762134254666e+18,0.1924666341145833,-0.4761694570382436,1.9392426411310832,0.5536984403928121,1.6888762134297935e+18,0.196793701171875,-0.5534439086914062,2.014684478441874,0.4890994355082512,,,,,,,,,,,,1.6888762134290225e+18,0.196022509765625,-41.32871932983399,-1.0443199634552005,31.637038803100587,1.6888762134290225e+18,0.196022509765625,-296.9553161621094,93.81067810058592,-101.48936004638672,1.688876213434114e+18,0.2011138509114583,0.6844009955724081,0.1412550061941146,-0.1295100500186284,0.7032744288444519,0.3855724732081095,-0.0110330587873855,-1.5413893461227417
0.2,1.6888762134773668e+18,0.2443668619791666,-4.7661817868550616,-2.143219788869222,3.0310095945994058,1.6888762134860183e+18,0.2530181477864583,3.3497522672017417,-5.005585511525472,-0.2331007967392603,1.6888762134773668e+18,0.2443668619791666,8.810580889383951,-2.769053300221761,-3.282562653223674,1.6888762134773668e+18,0.2443668619791666,-1.3281737565994265,2.2697716554005942,-1.6270395914713542,1.6888762134816973e+18,0.2486971028645833,-1.3709852298100789,2.166535417238871,-1.6974926789601643,,,,,,,,,,,,1.688876213479024e+18,0.246023876953125,-37.100198364257814,1.190719959139824,35.921678924560545,1.688876213479024e+18,0.246023876953125,-292.72679443359374,96.04571838378908,-97.20471954345705,1.6888762134860183e+18,0.2530181477864583,0.6587952574094137,0.1607497334480285,-0.1936736702919006,0.7086535890897115,0.5053621232509613,0.0628390343238909,-1.5145411888758342
0.25,1.688876213529274e+18,0.2962740071614583,-1.2186133066813152,-0.6394186019897461,1.5308981736501055,1.6888762135379244e+18,0.3049243977864583,7.520641485850017,-4.439284165700276,-2.820340355237325,1.688876213529274e+18,0.2962740071614583,8.262614885965982,-3.623801231384278,-3.841275691986084,1.688876213529274e+18,0.2962740071614583,-1.8655824661254885,2.1998784144719443,-0.5523240193724633,1.6888762135335974e+18,0.3005974934895833,-1.9023870627085369,2.4096088806788125,-0.3827070891857147,,,,,,,,,,,,1.6888762135290255e+18,0.296025537109375,-33.35235939025879,6.3708398818969725,39.19860000610352,1.6888762135290255e+18,0.296025537109375,-288.97894897460935,101.22583923339845,-93.92779846191408,1.6888762135379244e+18,0.3049243977864583,0.6190235018730164,0.1713835100332895,-0.2518494427204132,0.7234449783960978,0.6024007002512614,0.1533544858296712,-1.4634204705556233
0.3,1.688876213581174e+18,0.3481740722656249,-2.989790598551432,-1.119808594385783,-2.129259745279948,1.6888762135898284e+18,0.356828125,4.530211607615153,-4.752145926157634,-7.549953778584798,1.688876213581174e+18,0.3481740722656249,7.663302421569824,-3.832145611445109,-4.770152727762858,1.688876213581174e+18,0.3481740722656249,-1.7660622994105022,3.0710741678873696,1.0914125442504885,1.6888762135855045e+18,0.3525040690104166,-1.734755516052246,2.874884565671285,1.123024861017863,,,,,,,,,,,,1.6888762135790262e+18,0.346026171875,-26.01283988952637,10.182119750976565,43.48567886352539,1.6888762135790262e+18,0.346026171875,-281.6394348144531,105.03711853027345,-89.64071655273438,1.6888762135898284e+18,0.356828125,0.5568771163622538,0.2291726072629292,-0.2952256500720978,0.7414234081904093,0.7482840021451315,0.1840651084979374,-1.3607256412506104
0.35,1.6888762136330783e+18,0.4000784505208333,-0.937199592590332,-0.5082077185312907,-3.6019911766052246,1.6888762136330803e+18,0.4000803222656249,6.689135551452637,-4.364508390426636,-8.620442390441895,1.6888762136330783e+18,0.4000784505208333,7.321579456329346,-3.995490789413452,-5.160632610321045,1.6888762136330783e+18,0.4000784505208333,-2.0395772457122803,1.6144150098164876,0.324776687969764,1.6888762136374047e+18,0.404404541015625,-2.10753603776296,1.6648114522298176,0.2367611800630887,,,,,,,,,,,,1.6888762136290235e+18,0.396023486328125,-21.98927993774414,12.858799743652344,44.76423873901367,1.6888762136290235e+18,0.396023486328125,-277.6158752441406,107.71379699707032,-88.362158203125,1.6888762136330803e+18,0.4000803222656249,0.5124823451042175,0.2546329349279403,-0.313272550702095,0.7577871084213257,0.8092928826808929,0.2155754268169402,-1.2819167375564575
0.4,1.6888762136849856e+18,0.4519855957031249,-2.115175247192383,-0.8947529792785645,-4.950473149617513,1.6888762136763338e+18,0.4433339029947916,5.053442160288493,-5.5517473220825195,-10.197811126708984,1.6888762136849856e+18,0.4519855957031249,6.865057945251465,-4.632674853006999,-5.2544247309366865,1.6888762136849856e+18,0.4519855957031249,-2.073582092920939,1.2032518188158672,-0.1587740642329057,1.6888762136893115e+18,0.4563114420572916,-2.0029253164927163,1.0472775598367057,-0.1116865326960881,,,,,,,,,,,,1.6888762136790298e+18,0.4460298828124999,-18.34391975402832,17.73391990661621,45.196118927001955,1.6888762136790298e+18,0.4460298828124999,-273.9705078125,112.58891906738282,-87.93027801513672,1.6888762136763338e+18,0.4433339029947916,0.4630144039789836,0.2653312186400095,-0.3460318942864736,0.7714569767316183,0.8668817281723022,0.2925646305084228,-1.2173657019933064
0.45,1.688876213736885e+18,0.5038848470052083,-0.3535215059916178,0.8409570852915446,-4.62508757909139,1.6888762137282378e+18,0.4952378743489583,5.95753010114034,-4.428317149480184,-9.570692380269367,1.688876213736885e+18,0.5038848470052083,6.852956453959147,-4.93269141515096,-4.993767897288005,1.688876213736885e+18,0.5038848470052083,-1.3965906699498494,0.3874412675698598,0.6877833604812622,1.6888762137325594e+18,0.4995592041015625,-1.3942235708236694,0.108504943549633,0.7837401032447815,,,,,,,,,,,,1.688876213729025e+18,0.496024951171875,-17.33131980895996,21.20847930908203,43.81507949829101,1.688876213729025e+18,0.496024951171875,-272.9579162597656,116.0634765625,-89.31131744384766,1.6888762137282378e+18,0.4952378743489583,0.4216474294662475,0.2624682784080505,-0.3595341046651204,0.7898916602134705,0.871559202671051,0.3539790411790212,-1.1468250354131062
0.5,1.6888762137887956e+18,0.5557953287760417,-1.9191198348999023,3.2456253369649253,-5.2165398597717285,1.6888762137801413e+18,0.5471415201822917,5.1852467854817705,-1.8265212774276731,-10.084949811299644,1.6888762137887956e+18,0.5557953287760417,6.632312615712483,-5.172652721405029,-5.046782652537028,1.6888762137887956e+18,0.5557953287760417,-1.5386168162027996,1.3390674988428752,0.0381790759662787,1.688876213775818e+18,0.54281787109375,-1.4608333110809326,1.4341588815053303,0.2263764711096883,,,,,,,,,,,,1.6888762137790254e+18,0.54602548828125,-16.013719749450683,23.685079193115236,42.81711959838867,1.6888762137790254e+18,0.54602548828125,-271.64031372070315,118.54007568359376,-90.30927734375,1.6888762137801413e+18,0.5471415201822917,0.379668394724528,0.2760012447834015,-0.3701913555463155,0.8015072743097941,0.9006078044573466,0.3941495418548584,-1.0772608915964763
0.55,1.6888762138406932e+18,0.6076931152343751,-1.6224535306294758,2.0540773073832193,-7.215346972147624,1.6888762138320433e+18,0.5990430501302083,4.6145585378011065,-3.3858439922332764,-11.793823877970375,1.6888762138406932e+18,0.6076931152343751,6.217600504557292,-5.739629904429118,-4.956650416056315,1.6888762138406932e+18,0.6076931152343751,-1.4537574847539263,0.9302459557851156,-0.9900598724683126,1.6888762138277143e+18,0.5947144368489584,-1.5879441897074382,0.9622145692507426,-0.6288857857386271,,,,,,,,,,,,1.6888762138290253e+18,0.5960251953125,-13.293119621276857,27.12547950744629,41.65811996459961,1.6888762138290253e+18,0.5960251953125,-268.9197143554687,121.98047943115236,-91.46827850341796,1.6888762138320433e+18,0.5990430501302083,0.3379220565160115,0.2805783847967784,-0.3986910780270894,0.8049385945002238,0.9420614639918008,0.4693690737088521,-1.0373913049697876
0.6,1.6888762138839488e+18,0.6509488525390625,-0.0608735084533691,2.012383937835694,-6.2931225299835205,1.688876213883946e+18,0.6509458821614583,5.358327547709147,-4.258426745732625,-11.144770622253418,1.6888762138839488e+18,0.6509488525390625,5.558912038803101,-6.367727518081665,-4.974188566207886,1.6888762138839488e+18,0.6509488525390625,-0.5597052723169327,1.1877511143684387,-2.019978642463684,1.688876213879625e+18,0.6466250813802084,-0.6733262240886688,1.129489819208781,-1.9127208789189656,,,,,,,,,,,,1.688876213879023e+18,0.6460232910156251,-8.808399868011474,30.334079360961915,40.882199096679685,1.688876213879023e+18,0.6460232910156251,-264.43499145507815,125.18907775878908,-92.24419860839843,1.688876213883946e+18,0.6509458821614583,0.316853513320287,0.2776484688123067,-0.4469479819138844,0.7889596025149027,1.0175320903460183,0.5576400359471639,-1.0809893608093262
0.65,1.688876213927198e+18,0.6941980794270833,0.6831642786661783,3.576836109161377,-3.62012243270874,1.6888762139358528e+18,0.7028528645833333,5.828317801157634,-3.3413774172465005,-8.518847465515137,1.688876213927198e+18,0.6941980794270833,4.766220251719157,-6.846237023671468,-5.155462423960368,1.688876213927198e+18,0.6941980794270833,-0.3674354453881581,1.2527319192886353,-1.545132756233215,1.688876213931529e+18,0.6985288899739582,-0.3739004234472911,1.2669854164123535,-1.4722870190938313,,,,,,,,,,,,1.68887621392902e+18,0.6960199707031249,-3.1036799430847166,31.7053596496582,40.80411911010742,1.68887621392902e+18,0.6960199707031249,-258.7302734375,126.56035766601562,-92.32227783203123,1.6888762139358528e+18,0.7028528645833333,0.306300808986028,0.2843250135580699,-0.4946718017260234,0.7618847489356995,1.1287035544713335,0.6181507706642151,-1.1637134949366252
0.7,1.6888762139791053e+18,0.7461054687500001,3.334660212198893,4.061751524607341,-3.2871031761169434,1.6888762139877468e+18,0.7547467447916666,7.796414534250896,-3.016751209894816,-8.6837526957194,1.6888762139791053e+18,0.7461054687500001,3.947426954905192,-7.191172281901042,-5.374224503835042,1.6888762139791053e+18,0.7461054687500001,-0.2175189281503359,1.7416277329126997,-0.8483900229136149,1.688876213983435e+18,0.7504349772135416,-0.1810197376956542,1.7896315654118855,-0.7526877919832864,,,,,,,,,,,,1.6888762139790254e+18,0.746025439453125,1.3761599838733674,32.64963912963867,40.342959594726565,1.6888762139790254e+18,0.746025439453125,-254.2504364013672,127.5046371459961,-92.78343811035155,1.6888762139877468e+18,0.7547467447916666,0.2872113188107808,0.3035776019096374,-0.5284943381945292,0.7388160824775696,1.2417654593785603,0.6517429351806641,-1.2159595092137654
0.75,1.6888762140310016e+18,0.798001708984375,3.7749908765157065,4.902022043863933,-3.359034697214762,1.6888762140396562e+18,0.8066560872395833,6.641478697458903,-2.245464642842611,-9.053443908691406,1.6888762140310016e+18,0.798001708984375,3.380675474802653,-7.183984756469727,-5.759322007497151,1.6888762140310016e+18,0.798001708984375,0.1819360281030336,2.0057760079701743,0.4571817467610041,1.6888762140353362e+18,0.8023362630208334,0.2058615858356157,1.998343825340271,0.5044728815555573,,,,,,,,,,,,1.6888762140290235e+18,0.7960233886718749,6.5611598014831545,32.473959350585936,40.235599517822266,1.6888762140290235e+18,0.7960233886718749,-249.0654327392578,127.3289581298828,-92.8907974243164,1.6888762140396562e+18,0.8066560872395833,0.2601495583852132,0.3435843388239543,-0.5380899310112,0.7242364486058553,1.3377029101053874,0.6445428729057312,-1.2056598663330078
0.8,1.688876214082913e+18,0.849912841796875,1.1516788005828855,4.601603031158447,-2.2189278602600098,1.6888762140829128e+18,0.8499127197265626,3.7354953289031982,-2.319243311882019,-8.6739821434021,1.688876214082913e+18,0.849912841796875,3.04187273979187,-6.9732968012491865,-6.191352844238281,1.688876214082913e+18,0.849912841796875,0.5885686576366425,1.2303844094276428,0.2511165210356315,1.6888762140872384e+18,0.8542383626302085,0.5876014729340872,1.1749483942985537,0.2146173225094874,,,,,,,,,,,,1.6888762140790267e+18,0.846026708984375,8.986519813537598,31.995719528198244,40.3673583984375,1.6888762140790267e+18,0.846026708984375,-246.64007568359375,126.85071716308592,-92.75903930664064,1.6888762140829128e+18,0.8499127197265626,0.2456126809120178,0.3759181946516037,-0.5362569093704224,0.7146737277507782,1.3950268030166626,0.6210080981254578,-1.1874268054962158
0.85,1.6888762141348165e+18,0.9018163248697916,2.1811079184214273,1.202173391977946,0.4540546735127767,1.688876214126164e+18,0.8931639811197917,5.434698422749837,-4.756731986999512,-5.730211893717448,1.6888762141348165e+18,0.9018163248697916,2.8250063260396323,-6.786032040913899,-6.496039072672526,1.6888762141348165e+18,0.9018163248697916,0.3793982168038686,0.6818274259567261,0.3655519386132558,1.6888762141391432e+18,0.906143310546875,0.4100942015647888,0.5958990454673767,0.3753257890542348,1.688876214156444e+18,0.92344384765625,0.0,0.0,1.2686283588409424,7.739999771118164,0.0,0.0,30.89081804063681,-122.7500178,49.1921253,1.6888762141290227e+18,0.8960227050781249,10.42367992401123,31.109999465942384,40.247799682617185,1.6888762141290227e+18,0.8960227050781249,-245.20291748046876,125.96499938964844,-92.87859649658203,1.688876214126164e+18,0.8931639811197917,0.239783893028895,0.3972413837909698,-0.5341397523880005,0.7066468199094137,1.432571808497111,0.5997502605120341,-1.1801011164983113
0.9,1.688876214186714e+18,0.9537141927083334,-1.0669904549916585,0.1267679532368977,-1.8329164187113445,1.6888762141780692e+18,0.9450693359375,1.6366906960805256,-6.576074759165446,-8.36570692062378,1.688876214186714e+18,0.9537141927083334,2.752265453338623,-6.5762302080790205,-6.738281726837158,1.688876214186714e+18,0.9537141927083334,0.6588181654612223,0.1134173125028609,-0.4159483301142851,1.6888762141823908e+18,0.949390869140625,0.6825655400753021,0.1290452815592288,-0.3749949038028717,,,,,,,,,,,,1.6888762141790254e+18,0.94602548828125,11.26547966003418,30.155958938598634,40.918799591064456,1.6888762141790254e+18,0.94602548828125,-244.36111450195312,125.01095581054688,-92.2075973510742,1.6888762141780692e+18,0.9450693359375,0.2446040113766987,0.4110735158125559,-0.527745525042216,0.701883335908254,1.4457109769185383,0.570117731889089,-1.1765880187352498
0.95,1.688876214238624e+18,1.0056241048177084,-1.93401571114858,0.2540537516276042,-1.9735530217488608,1.6888762142299717e+18,0.996971435546875,0.7800601869821548,-6.12283452351888,-8.762516657511393,1.688876214238624e+18,1.0056241048177084,2.4314537048339844,-6.511691252390544,-6.9214738210042315,1.688876214238624e+18,1.0056241048177084,0.2903137107690175,0.3925827294588089,-0.7627670566240946,1.6888762142256476e+18,0.9926474609375,0.3788382560014725,0.2624684373537699,-0.7557421326637268,,,,,,,,,,,,1.6888762142290294e+18,0.99602919921875,12.822199630737304,28.2307991027832,41.80207977294922,1.6888762142290294e+18,0.99602919921875,-242.80439453125,123.08579711914062,-91.3243179321289,1.6888762142299717e+18,0.996971435546875,0.2584489782651265,0.4168152014414469,-0.5351612170537313,0.687772532304128,1.477274497350057,0.5476140975952148,-1.219715436299642
1.0,1.688876214290529e+18,1.0575287272135416,-0.0736997922261556,-0.1273088455200195,-2.23561429977417,1.6888762142818762e+18,1.048876220703125,1.5401801466941831,-6.3645094235738116,-8.954141616821289,1.688876214290529e+18,1.0575287272135416,1.871238112449646,-6.510787645975749,-7.0931118329366045,1.688876214290529e+18,1.0575287272135416,0.2927062561114629,1.0373001098632812,-0.6441573897997538,1.688876214277553e+18,1.0445526529947915,0.1954259773095448,0.9960158069928488,-0.7316638628641764,,,,,,,,,,,,1.688876214279023e+18,1.0460230468750005,15.396399879455569,27.38899955749512,41.95335922241211,1.688876214279023e+18,1.0460230468750005,-240.23019714355468,122.2439971923828,-91.17303771972657,1.6888762142818762e+18,1.048876220703125,0.2599792679150898,0.4278644919395447,-0.5510596434275309,0.667520801226298,1.5399493376413982,0.5388655265172323,-1.2661240498224895
1.05,1.688876214333775e+18,1.1007750244140624,0.7701098918914795,1.5215632915496826,-4.0560595989227295,1.6888762143337772e+18,1.1007771809895834,2.515454729398092,-4.847260475158691,-11.516655286153158,1.688876214333775e+18,1.1007750244140624,1.5526530742645264,-6.279200315475464,-7.374262571334839,1.688876214333775e+18,1.1007750244140624,1.2256247401237488,0.7958047091960907,0.3001639023423194,1.688876214329457e+18,1.0964569498697916,1.0897326668103535,0.8402960499127706,0.161217525601387,,,,,,,,,,,,1.6888762143290227e+18,1.096022607421875,17.82907943725586,26.208039855957033,41.87527923583984,1.6888762143290227e+18,1.096022607421875,-237.79751586914065,121.0630386352539,-91.25111694335938,1.6888762143337772e+18,1.1007771809895834,0.2616535623868306,0.4521238406499226,-0.5528492132822672,0.6491098801294962,1.5939355691274006,0.5020342071851095,-1.2795271078745525
1.1,1.688876214377033e+18,1.1440332845052084,-2.1915742556254068,3.871430238087972,-3.30594539642334,1.6888762143856832e+18,1.15268310546875,-1.531406501928965,-1.5050854086875916,-10.48136075337728,1.688876214377033e+18,1.1440332845052084,1.3410554726918538,-5.72727108001709,-7.846709569295247,1.688876214377033e+18,1.1440332845052084,1.607440988222758,1.0116946697235107,0.4305072923501332,1.6888762143813568e+18,1.1483566080729168,1.589369535446167,0.97091939051946,0.399811307589213,,,,,,,,,,,,1.688876214379025e+18,1.14602490234375,19.461439514160155,23.228799438476564,42.96351928710938,1.688876214379025e+18,1.14602490234375,-236.16515502929687,118.08379821777343,-90.16287841796876,1.6888762143856832e+18,1.15268310546875,0.2677874366442362,0.4935300846894582,-0.5330411791801453,0.6327877044677734,1.6318095127741497,0.4228631854057312,-1.2491670846939087
1.15,1.688876214428931e+18,1.1959312337239585,-3.680872042973837,5.064617951711019,1.1586055755615234,1.6888762144375826e+18,1.20458251953125,-2.2681964635849,-0.2580260435740152,-6.3756758371988935,1.688876214428931e+18,1.1959312337239585,1.0714294115702312,-5.201415220896403,-8.247050921122232,1.688876214428931e+18,1.1959312337239585,0.7903069059054056,0.6273076931635538,-0.1550070631007353,1.6888762144332593e+18,1.2002591145833332,0.6949101289113363,0.6167193651199341,-0.2603813012440999,,,,,,,,,,,,1.6888762144290212e+18,1.196021240234375,21.274359512329102,20.70340003967285,44.063958740234376,1.6888762144290212e+18,1.196021240234375,-234.35223693847655,115.55839691162107,-89.06243743896485,1.6888762144375826e+18,1.20458251953125,0.2756574054559071,0.519399623076121,-0.5235801339149475,0.6164836684862772,1.6650540033976238,0.3673951327800751,-1.2437888781229656
1.2,1.6888762144808358e+18,1.2478357747395832,2.8899375995000205,4.403884092966716,3.625989119211833,1.6888762144894917e+18,1.2564912109375,4.197609106699626,-0.804985391596953,-4.826123873392741,1.6888762144808358e+18,1.2478357747395832,0.842596689860026,-5.0908309618632,-8.343147277832031,1.6888762144808358e+18,1.2478357747395832,0.0565050343672434,0.0830776716272036,0.0670933524767557,1.6888762144851648e+18,1.2521647135416667,0.0129299784700075,0.0312559387336174,0.1612175305684407,,,,,,,,,,,,1.688876214479023e+18,1.246023095703125,22.50411949157715,19.76399955749512,43.91511917114258,1.688876214479023e+18,1.246023095703125,-233.1224792480469,114.61899871826172,-89.211279296875,1.6888762144894917e+18,1.2564912109375,0.2775091727574666,0.5243801275889078,-0.5257120728492737,0.6096144318580627,1.6806537707646687,0.3574807941913605,-1.2524305582046509
1.25,1.6888762145327434e+18,1.2997434895833333,-1.1218178669611614,4.738652229309082,0.5416906674702963,1.6888762145327432e+18,1.2997431640625,-0.4115654863417149,-0.2976073026657104,-7.651947498321533,1.6888762145327434e+18,1.2997434895833333,0.957839846611023,-5.17754332224528,-8.276796658833822,1.6888762145327434e+18,1.2997434895833333,-0.4424191613992055,-0.5332853595415751,-0.507730836669604,1.6888762145370678e+18,1.3040679524739582,-0.5051346520582835,-0.5595525602499644,-0.5786930123964945,,,,,,,,,,,,1.6888762145290253e+18,1.29602529296875,21.789199447631837,20.217839431762695,44.03223876953125,1.6888762145290253e+18,1.29602529296875,-233.83739624023437,115.07283782958984,-89.09415893554687,1.6888762145327432e+18,1.2997431640625,0.2794312387704849,0.516752153635025,-0.5273274183273315,0.6138330101966858,1.6676200032234192,0.3667749017477035,-1.2575258016586304
1.3,1.6888762145846487e+18,1.3516487630208334,-2.9774654706319175,4.259884595870972,-1.5589518547058103,1.6888762145759972e+18,1.3429972330729167,-1.49431774020195,-0.851246677339077,-9.22831948598226,1.6888762145846487e+18,1.3516487630208334,0.9724099437395732,-5.543641408284505,-8.03358252843221,1.6888762145846487e+18,1.3516487630208334,-0.9542733232180276,-0.6175338625907898,-0.9949976603190104,1.6888762145889743e+18,1.355974609375,-0.9831366936365764,-0.635198046763738,-1.0268135865529378,,,,,,,,,,,,1.6888762145790228e+18,1.346022802734375,21.132839584350585,20.805879592895508,43.96147918701172,1.6888762145790228e+18,1.346022802734375,-234.49375610351564,115.66087799072264,-89.1649169921875,1.6888762145759972e+18,1.3429972330729167,0.2856844663619994,0.4946142335732778,-0.5430882374445597,0.6153828700383505,1.6569350560506184,0.3961382806301117,-1.300004204114278
1.35,1.688876214636547e+18,1.403547607421875,-4.0917441844940186,2.4860774676005044,-2.4288180669148765,1.6888762146278996e+18,1.3948997395833331,-3.370490074157715,-3.1343982219696045,-10.02313550313314,1.688876214636547e+18,1.403547607421875,0.9165982604026794,-6.1195863087972,-7.60838254292806,1.688876214636547e+18,1.403547607421875,-1.5401440064112346,-1.128828048706055,-1.457728107770284,1.6888762146322268e+18,1.399226806640625,-1.558699071407318,-1.000139147043228,-1.503873884677887,,,,,,,,,,,,1.6888762146290245e+18,1.396024609375,21.115759658813477,22.460199737548827,42.99767990112305,1.6888762146290245e+18,1.396024609375,-234.51083679199215,117.31519775390623,-90.12871856689452,1.6888762146278996e+18,1.3948997395833331,0.2938919961452483,0.4555270671844482,-0.5717519720395406,0.6155786514282227,1.6479551394780476,0.451506366332372,-1.3771710793177288
1.4,1.688876214688456e+18,1.455455810546875,0.0538334647814432,-1.3509198824564617,-0.1402915318806966,1.688876214679801e+18,1.446801188151042,0.2979063987731933,-7.146364053090413,-7.763911883036296,1.688876214688456e+18,1.455455810546875,0.9181811014811198,-6.773318926493327,-7.03190263112386,1.688876214688456e+18,1.455455810546875,-1.5640695492426555,-1.3167709509531658,-1.8496999740600584,1.6888762146754785e+18,1.4424786783854169,-1.4752395550409954,-1.433955232302348,-1.6028085947036743,,,,,,,,,,,,1.6888762146790216e+18,1.446021630859375,19.949439239501952,24.163319778442386,42.0411994934082,1.6888762146790216e+18,1.446021630859375,-235.6771545410156,119.01831817626952,-91.08519744873048,1.688876214679801e+18,1.446801188151042,0.3071788549423217,0.3985197643438975,-0.6021626790364584,0.6195704738299052,1.621065894762675,0.5253988107045492,-1.4716246525446577
1.45,1.6888762147403592e+18,1.5073590494791669,-0.7037566204865774,-5.828193823496501,-1.4853771527608235,1.6888762147317084e+18,1.4987084147135417,-0.4115655024846394,-12.656636238098145,-7.761120319366455,1.6888762147403592e+18,1.5073590494791669,0.450645903746287,-7.436824957529704,-6.376947085062663,1.6888762147403592e+18,1.5073590494791669,-1.442609190940857,-0.734005481004715,-2.0394754807154336,1.6888762147273843e+18,1.4943844401041666,-1.709455490112305,-0.910850981871287,-2.251191178957621,,,,,,,,,,,,1.688876214729024e+18,1.49602392578125,20.21784019470215,25.66391944885254,40.79191970825195,1.688876214729024e+18,1.49602392578125,-235.40875549316405,120.51891784667968,-92.33447875976564,1.6888762147317084e+18,1.4987084147135417,0.3174850543340047,0.336268405119578,-0.6440626382827759,0.6090196569760641,1.6399008830388386,0.6078120072682699,-1.6097649733225503
1.5,1.6888762147836122e+18,1.5506121826171877,1.393629789352417,0.7593755722045896,-0.6840271949768066,1.6888762147836142e+18,1.5506144205729169,1.7391832272211711,-6.76490839322408,-6.392226219177246,1.6888762147836122e+18,1.5506121826171877,0.0626321621239185,-7.71182918548584,-6.062344312667847,1.6888762147836122e+18,1.5506121826171877,-0.8021424114704132,0.1928806994110345,-0.7783186584711075,1.6888762147792886e+18,1.546288492838542,-0.8440121610959371,0.104050708313783,-0.9133453766504924,,,,,,,,,,,,1.6888762147790254e+18,1.546025390625,21.54763984680176,26.66431884765625,39.80127944946289,1.6888762147790254e+18,1.546025390625,-234.0789520263672,121.51931610107422,-93.3251205444336,1.6888762147836142e+18,1.5506144205729169,0.3170365790526072,0.3023048241933186,-0.6729676922162374,0.5959473053614298,1.6830445130666096,0.656584362188975,-1.7062600056330364
1.55,1.688876214826865e+18,1.5938651529947918,-0.6814084947109222,6.603367646535237,-0.5854724248250326,1.688876214835512e+18,1.602511881510417,-1.4514463146527607,-2.0662023226420083,-5.961518128712972,1.688876214826865e+18,1.5938651529947918,-0.0482726655900478,-8.096496423085531,-5.527299722035726,1.688876214826865e+18,1.5938651529947918,-2.3154847224553428,0.3721187462409337,0.3559817324082057,1.688876214831191e+18,1.5981909993489585,-2.5616124868392944,0.3415754760305087,0.4148793220520019,,,,,,,,,,,,1.6888762148290232e+18,1.5960232421875,22.948199844360353,29.46543960571289,36.70735855102539,1.6888762148290232e+18,1.5960232421875,-232.67839965820312,124.32043762207032,-96.41903839111328,1.688876214835512e+18,1.602511881510417,0.2820862134297688,0.277684877316157,-0.6884973247845968,0.6072763005892435,1.7114334106445312,0.7476235628128052,-1.71822992960612
1.6,1.6888762148787658e+18,1.645765625,-1.0068832635879517,5.3500823974609375,-0.8485092322031657,1.6888762148874158e+18,1.654415771484375,-0.0013957818349202,-4.872584501902263,-3.671786348025004,1.6888762148787658e+18,1.645765625,0.274011639257272,-9.024867375691732,-3.7665553092956543,1.6888762148787658e+18,1.645765625,-4.878522555033366,-1.0425942639509838,0.73268194993337,1.6888762148830956e+18,1.650095703125,-5.0411655108133955,-1.1985685229301453,0.7703010737895966,,,,,,,,,,,,1.6888762148790264e+18,1.6460263671875002,21.291439819335935,36.543879699707034,30.392639541625975,1.6888762148790264e+18,1.6460263671875002,-234.33515319824215,131.39887390136718,-102.73375854492188,1.6888762148874158e+18,1.654415771484375,0.2196762412786483,0.1924167225758234,-0.7006988724072775,0.6497295697530111,1.6712016264597576,0.9742089907328289,-1.7113244930903118
1.65,1.688876214930676e+18,1.6976761881510416,5.836602687835693,-0.4279343287150065,-1.2409545183181765,1.6888762149393231e+18,1.7063230794270836,6.869195620218913,-9.453843116760254,-3.4819558560848236,1.688876214930676e+18,1.6976761881510416,0.7240486741065979,-9.679754892985024,-1.2877681255340576,1.688876214930676e+18,1.6976761881510416,-4.668283144632976,0.6026694675286611,0.3152573686093092,1.6888762149349952e+18,1.7019951985677082,-4.603226025899251,1.1104512214660645,0.3127630054950714,,,,,,,,,,,,1.6888762149290255e+18,1.696025390625,18.56107978820801,43.76871871948242,20.861999893188475,1.6888762149290255e+18,1.696025390625,-237.06551818847657,138.62371826171875,-112.26439666748048,1.6888762149393231e+18,1.7063230794270836,0.1360992739597956,0.1004503046472867,-0.7068813443183899,0.6859174768129984,1.635995626449585,1.2331619660059612,-1.6873368819554646
1.7,1.688876214982578e+18,1.7495779622395833,-0.4707798957824707,2.5570457776387534,-2.7784856160481772,1.6888762149825695e+18,1.749569702148437,-0.0484546422958374,-7.352844953536987,-1.0256235972046852,1.688876214982578e+18,1.7495779622395833,1.2717076142628987,-9.65915044148763,0.9323157668113708,1.688876214982578e+18,1.7495779622395833,-4.674188137054443,2.5210408369700112,1.7392351229985554,1.6888762149869028e+18,1.7539029134114583,-4.56484317779541,2.0642154812812805,1.7539977232615154,,,,,,,,,,,,1.688876214979024e+18,1.7460240722656253,17.51187973022461,47.77519912719727,8.276479911804199,1.688876214979024e+18,1.7460240722656253,-238.11471252441407,142.6302001953125,-124.84991912841797,1.6888762149825695e+18,1.749569702148437,0.012656859587878,0.0776657685637474,-0.7022210657596588,0.7071957290172577,1.5157111883163452,1.4414564371109009,-1.423551380634308
1.75,1.6888762150344786e+18,1.8014786783854169,-0.00710129737854,2.303269386291504,-3.068747123082479,1.68887621502583e+18,1.7928297526041668,1.43369955321153,-6.880561510721843,-0.4907280476763844,1.6888762150344786e+18,1.8014786783854169,1.6461151838302612,-9.303479512532553,2.620982567469279,1.6888762150344786e+18,1.8014786783854169,-2.390213926633199,-1.1853330930074055,0.1886555465559165,1.688876215038803e+18,1.8058029785156249,-2.245082457860311,-1.1712323029836018,0.1113301962614059,,,,,,,,,,,,1.6888762150290245e+18,1.7960244140625,14.508239555358887,49.2879997253418,-1.3468799710273742,1.6888762150290245e+18,1.7960244140625,-241.11835632324215,144.14299621582032,-134.47327880859376,1.68887621502583e+18,1.7928297526041668,-0.0359736091146866,0.0181414055793235,-0.6906415025393168,0.7217931747436523,-0.3327810068925222,1.510238250096639,0.4093666176001231
1.8,1.6888762150863762e+18,1.8533763834635415,-0.3038456439971924,-7.794305165608724,-2.9466031392415366,1.6888762150777293e+18,1.8447294108072916,0.5643073469400406,-15.25922966003418,0.7104689280192057,1.6888762150863762e+18,1.8533763834635415,1.353028694788615,-8.92953872680664,3.800534168879191,1.6888762150863762e+18,1.8533763834635415,-2.6387342611948648,-2.671568234761556,0.2555962038071205,1.6888762150820529e+18,1.8490528564453124,-2.605034828186035,-2.753704190254211,0.0724638868123293,,,,,,,,,,,,1.6888762150790254e+18,1.84602548828125,14.547279930114746,49.01715850830078,-5.607119846343994,1.6888762150790254e+18,1.84602548828125,-241.07931518554688,143.87215881347657,-138.73351440429687,1.6888762150777293e+18,1.8447294108072916,-0.0478608359893162,-0.0504688086609045,-0.6905641555786133,0.7194125056266785,-1.2665039698282878,1.4252112706502278,1.262752612431844
1.85,1.6888762151382876e+18,1.9052874348958333,3.712871551513672,-1.973452885945638,-1.1933921972910564,1.6888762151296366e+18,1.8966365559895833,4.233900229136149,-11.585847854614258,3.1918259859085083,1.6888762151382876e+18,1.9052874348958333,1.1060041586558025,-8.43333911895752,4.885210990905762,1.6888762151382876e+18,1.9052874348958333,-1.2280427813529968,-1.5314900775750475,0.701018770535787,1.6888762151253135e+18,1.8923136393229167,-1.8038341999053955,-2.18440318107605,0.7087564071019491,,,,,,,,,,,,1.688876215129023e+18,1.896023095703125,14.588759803771971,48.42667922973633,-9.823439979553225,1.688876215129023e+18,1.896023095703125,-241.03783569335937,143.28167724609375,-142.94983520507813,1.6888762151296366e+18,1.8966365559895833,-0.044046356032292,-0.1402335688471793,-0.6777993043263754,0.7202139894167582,-1.414069374402364,1.3025395075480144,1.2766460577646892
1.9,1.688876215190184e+18,1.9571841634114584,1.3346787691116333,-1.248234748840332,0.8722872734069824,1.68887621518154e+18,1.9485400390625,3.216551860173543,-9.995019594828287,6.334997812906901,1.688876215190184e+18,1.9571841634114584,1.6630595922470093,-8.258855819702148,5.019333044687907,1.688876215190184e+18,1.9571841634114584,0.3446807066599528,0.5088507483402888,1.65473210811615,1.6888762151772155e+18,1.9442155761718751,-0.0990110635757446,0.5548183619976044,1.437264104684194,,,,,,,,,,,,1.6888762151790282e+18,1.946028271484375,12.797799873352051,48.65359954833984,-11.62171974182129,1.6888762151790282e+18,1.946028271484375,-242.82879333496095,143.50859680175782,-144.7481201171875,1.68887621518154e+18,1.9485400390625,-0.046381440013647,-0.1568421870470046,-0.6552398602167765,0.737374464670817,-1.2670026222864788,1.2584600448608398,1.108699123064677
1.95,1.6888762152334438e+18,2.0004437255859377,2.870975971221924,0.4023642539978027,-3.556894302368164,1.68887621523344e+18,2.000440185546875,4.691527605056763,-7.949953873952229,1.4580265879631042,1.6888762152334438e+18,2.0004437255859377,2.3171920776367188,-8.267679691314697,4.742131471633911,1.6888762152334438e+18,2.0004437255859377,0.6376669406890869,0.2104430787730962,1.7476090788841248,1.6888762152291205e+18,1.9961201171875,0.7038185695807139,0.0861829072237014,1.768149495124817,,,,,,,,,,,,1.6888762152290255e+18,1.9960253417968752,8.2862398147583,49.54907913208008,-10.489559745788574,1.6888762152290255e+18,1.9960253417968752,-247.3403533935547,144.4040771484375,-143.61595458984374,1.68887621523344e+18,2.000440185546875,-0.0307823525120814,-0.1435777743657429,-0.6232564051946005,0.767981747786204,-0.9610121448834738,1.2478443384170532,0.799214780330658
2.0,1.6888762152766904e+18,2.0436903483072917,0.8677399158477783,-2.124075730641683,-3.331429243087769,1.688876215285344e+18,2.052343994140625,4.770291328430176,-10.365508397420248,1.8336997826894124,1.6888762152766904e+18,2.0436903483072917,3.085731585820516,-8.059386094411215,4.657543977101644,1.6888762152766904e+18,2.0436903483072917,0.140499001989762,-0.7797185958673557,2.541046698888143,1.68887621528102e+18,2.0480199381510418,0.0975348154703776,-0.9325367212295532,2.5785131454467773,,,,,,,,,,,,1.6888762152790226e+18,2.0460226074218753,2.413159987330437,50.30059967041016,-9.24027976989746,1.6888762152790226e+18,2.0460226074218753,-253.21343383789065,145.15559997558594,-142.3666778564453,1.688876215285344e+18,2.052343994140625,-0.0106812383164651,-0.1483616630236307,-0.576694130897522,0.8030302325884501,-0.7157967487970988,1.1764461199442546,0.5168119569619497
2.05,1.6888762153285998e+18,2.0955997721354165,5.766746838887532,-4.141759713490804,-1.662512938181559,1.688876215337251e+18,2.1042510579427085,9.727222760518393,-11.93779214223226,3.4017961819966636,1.6888762153285998e+18,2.0955997721354165,3.700585762659709,-7.592849572499593,4.984839916229248,1.6888762153285998e+18,2.0955997721354165,-0.2744312087694804,-1.7899369796117146,2.1216877698898315,1.6888762153329242e+18,2.099923990885417,-0.2770783007144927,-1.7943657636642456,2.002772569656372,,,,,,,,,,,,1.688876215329023e+18,2.096022998046875,-3.2891198635101317,50.310359954833984,-9.767319869995116,1.688876215329023e+18,2.096022998046875,-258.91571655273435,145.1653564453125,-142.89371643066406,1.688876215337251e+18,2.1042510579427085,0.0191833696638543,-0.1864893436431884,-0.5258830587069193,0.829450527826945,-0.6548694570859274,1.0754924615224202,0.3535888493061065
2.1,1.688876215380505e+18,2.1475051269531247,4.175999244054158,-0.1546866099039713,-2.5729898611704507,1.688876215389148e+18,2.15614794921875,7.239883740743001,-6.2536420822143555,2.906481901804606,1.688876215380505e+18,2.1475051269531247,3.6648120880126953,-7.360977331797282,5.348357518513997,1.688876215380505e+18,2.1475051269531247,0.0912734486628323,-1.755423108736674,0.4015930000071724,1.68887621538483e+18,2.151829833984375,0.1063414588570594,-1.7412713766098022,0.2989676234622797,,,,,,,,,,,,1.688876215379022e+18,2.1460220703125,-5.768159866333008,49.68083801269531,-10.570079803466797,1.688876215379022e+18,2.1460220703125,-261.39475708007814,144.53583679199218,-143.69648132324218,1.688876215389148e+18,2.15614794921875,0.0464035384356975,-0.2238907068967819,-0.5061734914779663,0.8314801653226217,-0.6988407969474792,1.0405158996582031,0.3000779747962951
2.15,1.6888762154324042e+18,2.199404296875,2.281573216120402,8.377527872721354,-2.789072593053182,1.6888762154324027e+18,2.1994027099609377,5.601298809051514,1.6698910892009735,2.9027929306030273,1.6888762154324042e+18,2.199404296875,3.2118791739145913,-7.432370503743489,5.5373215675354,1.6888762154324042e+18,2.199404296875,0.4179336428642273,-1.3199270764986677,-0.3068579733371734,1.6888762154367355e+18,2.203735921223958,0.4616613984107971,-1.2086478074391682,-0.3700825323661168,,,,,,,,,,,,1.6888762154290253e+18,2.196025244140625,-4.723839855194091,50.11515884399414,-10.421239471435548,1.6888762154290253e+18,2.196025244140625,-260.3504272460938,144.97015686035155,-143.54763488769532,1.6888762154324027e+18,2.1994027099609377,0.068031582981348,-0.2499672323465347,-0.5062400698661804,0.8225407004356384,-0.7569011747837067,1.0488523244857788,0.2871104478836059
2.2,1.6888762154843087e+18,2.251308919270833,-0.2600099245707194,10.025420824686686,-2.3890365759531655,1.6888762154756603e+18,2.2426604817708333,3.5619159936904907,1.8871394793192544,2.564108888308207,1.6888762154843087e+18,2.251308919270833,2.8543582757314048,-7.758826891581218,5.276467959086101,1.6888762154843087e+18,2.251308919270833,0.9572767416636148,1.037249168381095,-1.5013031363487244,1.6888762154886382e+18,2.2556381022135414,0.9790642658869424,1.2962560405333836,-1.6902132034301758,,,,,,,,,,,,1.688876215479026e+18,2.24602587890625,-2.4741599321365357,50.47627868652344,-8.73519983291626,1.688876215479026e+18,2.24602587890625,-258.1007507324219,145.3312774658203,-141.86159973144532,1.6888762154756603e+18,2.2426604817708333,0.0782973120609919,-0.2480562428633371,-0.52281254529953,0.8116981585820516,-0.7711098591486613,1.0923570394515991,0.2913941542307536
2.25,1.6888762155362153e+18,2.30321533203125,-3.39680822690328,9.332324981689451,3.681273937225342,1.6888762155275604e+18,2.2945607096354164,-1.7080765962600708,3.6396826108296714,7.5336025555928545,1.6888762155362153e+18,2.30321533203125,2.1578547159830728,-8.413488388061523,4.5391608874003095,1.6888762155362153e+18,2.30321533203125,1.03190412123998,2.8160378535588584,-4.042604446411133,1.6888762155405422e+18,2.307542073567708,0.991943339506785,2.700075348218282,-4.184477806091309,,,,,,,,,,,,1.6888762155290253e+18,2.296025341796875,3.8893599271774297,50.90571899414063,-6.609959888458252,1.6888762155290253e+18,2.296025341796875,-251.73723754882812,145.7607177734375,-139.73635864257812,1.6888762155275604e+18,2.2945607096354164,0.0514216584463913,-0.1930478115876515,-0.5877511699994405,0.783035139242808,-0.8152586221694946,1.2269376913706462,0.462048848470052
2.3,1.6888762155881157e+18,2.3551156412760417,-3.213143269220988,-10.448277473449709,3.9939544200897217,1.6888762155794683e+18,2.3464685872395834,-1.3024930953979492,-18.532211939493816,8.813164710998535,1.6888762155881157e+18,2.3551156412760417,0.4726935075595975,-8.920034090677897,4.026679913202922,1.6888762155881157e+18,2.3551156412760417,0.5207117199897766,5.038772821426392,-5.937864621480306,1.68887621558379e+18,2.3507900390625,0.5832999497652054,5.248401641845703,-6.758918523788452,,,,,,,,,,,,1.6888762155790252e+18,2.346025146484375,15.698959350585938,48.66823883056641,-6.507479858398438,1.6888762155790252e+18,2.346025146484375,-239.9276336669922,143.52323303222656,-139.63387451171874,1.6888762155794683e+18,2.3464685872395834,-0.0094456349809964,-0.1212761600812275,-0.6918356815973917,0.709154486656189,-1.543185273806254,1.3647323846817017,1.3838374018669128
2.35,1.6888762156400228e+18,2.4070226236979164,-3.7170742551485696,1.915362040201823,-1.56705109278361,1.688876215631371e+18,2.398371012369791,-4.1910287737846375,-7.429913838704427,3.0141588846842446,1.6888762156400228e+18,2.4070226236979164,-0.4518905679384867,-8.79832394917806,4.2979520956675215,1.6888762156400228e+18,2.4070226236979164,-1.866346041361491,4.914563496907552,-3.5470399856567383,1.6888762156270408e+18,2.3940406087239583,-0.9280061225096384,5.324403444925944,-3.824576377868652,,,,,,,,,,,,1.6888762156290273e+18,2.3960273925781252,25.485799407958982,43.91755905151367,-11.419199752807618,1.6888762156290273e+18,2.3960273925781252,-230.1407958984375,138.77255859375,-144.54559631347655,1.688876215631371e+18,2.398371012369791,-0.1249372238914171,-0.0251909595293302,-0.7672156095504761,0.6268603006998698,-2.241083304087321,1.278489629427592,2.384233315785726
2.4,1.6888762156832758e+18,2.4502757568359375,-17.941208362579346,-17.064727783203125,-8.024046421051025,1.688876215683275e+18,2.4502750651041665,-14.740585009256998,-25.67658265431722,-1.6291133960088091,1.6888762156832758e+18,2.4502757568359375,-1.0010442733764648,-8.016945123672485,5.549161911010742,1.6888762156832758e+18,2.4502757568359375,-3.915188074111939,-0.4701371192932129,-2.4021512269973755,1.6888762156789522e+18,2.445952229817708,-3.71716586748759,0.2905173699061076,-2.676302433013916,,,,,,,,,,,,1.6888762156790236e+18,2.44602353515625,28.76027946472168,37.62967987060547,-21.36707992553711,1.6888762156790236e+18,2.44602353515625,-226.86631774902344,132.48468017578125,-154.49347839355468,1.688876215683275e+18,2.4502750651041665,-0.2263042281071344,-0.030528030047814,-0.8021085262298584,0.5506147940953573,-2.200822909673055,1.05641504128774,2.48807946840922
2.45,1.6888762157265236e+18,2.493523681640625,17.64794651667277,-27.319716771443684,-7.003870328267415,1.68887621573518e+18,2.502179768880208,15.178271810213724,-29.556145350138348,0.1443669597307841,1.6888762157265236e+18,2.493523681640625,-3.2147088845570884,-6.928160190582275,6.118219216664632,1.6888762157265236e+18,2.493523681640625,-1.0051787296930947,-1.1290825605392456,-5.4168985684712725,1.6888762157308495e+18,2.497849527994791,-0.6424266025424004,-0.4110105186700821,-5.264080286026001,,,,,,,,,,,,1.6888762157290235e+18,2.496023681640625,38.798439025878906,27.17427978515625,-22.401639938354492,1.6888762157290235e+18,2.496023681640625,-216.82815551757812,122.02927703857422,-155.52803649902344,1.68887621573518e+18,2.502179768880208,-0.2213764389355977,-0.0736036983629067,-0.8700896898905436,0.4324960609277089,-2.4322434266408286,0.804793655872345,2.6586079597473145
2.5,1.6888762157784338e+18,2.545433430989583,3.648698091506958,-0.0996171633402508,1.1152556737263997,1.6888762157870856e+18,2.5540853678385416,2.5483560164769496,-4.824927409489949,6.147759621342022,1.6888762157784338e+18,2.545433430989583,-4.038000186284383,-6.246156215667725,6.386335531870524,1.6888762157784338e+18,2.545433430989583,-0.913650800784429,-0.3075197140375773,-1.8584556976954143,1.6888762157827602e+18,2.5497600097656252,-1.0393363125622272,-0.7296785712242126,-1.6022486090660095,,,,,,,,,,,,1.6888762157790244e+18,2.5460244140625,43.10503921508789,20.18855972290039,-25.34671974182129,1.6888762157790244e+18,2.5460244140625,-212.52155456542968,115.0435577392578,-158.47311706542968,1.6888762157870856e+18,2.5540853678385416,-0.2458487600088119,-0.0589200754960377,-0.8932488361994425,0.3712885876496632,-2.4662539958953857,0.6874736944834391,2.7596269448598227
2.55,1.68887621583033e+18,2.5973301595052085,12.823068857192991,-1.8437517484029131,-20.149477005004883,1.688876215838983e+18,2.6059826660156253,5.76092020670573,-8.56510861714681,-14.307883262634276,1.68887621583033e+18,2.5973301595052085,-4.001400550206502,-6.2659304936726885,6.38764746983846,1.68887621583033e+18,2.5973301595052085,0.8804604113101959,1.0613274772961934,1.6404786109924316,1.688876215834662e+18,2.6016621093750003,1.022384782632192,1.2423981080452602,1.7425439755121868,,,,,,,,,,,,1.6888762158290227e+18,2.59602265625,43.758959197998045,19.102759170532227,-24.07547950744629,1.6888762158290227e+18,2.59602265625,-211.86763610839844,113.95775604248048,-157.20187683105468,1.688876215838983e+18,2.6059826660156253,-0.2458690007527668,-0.0576845047374565,-0.883910596370697,0.3931174178918202,-2.4410110314687095,0.7299603621164957,2.7334696451822915
2.6,1.688876215882239e+18,2.6492389322916665,4.940688451131185,4.21811040242513,-8.277898708979288,1.688876215882233e+18,2.6492333984375,2.9231319343671203,-2.973082184791565,-2.0736799389123917,1.688876215882239e+18,2.6492389322916665,-3.0753533840179443,-7.169066429138184,5.9264445304870605,1.688876215882239e+18,2.6492389322916665,1.6907222668329875,-0.6643668512503306,3.360217014948527,1.688876215886563e+18,2.65356298828125,1.711338996887207,-0.7162904143333435,3.701639811197917,,,,,,,,,,,,1.6888762158790282e+18,2.646028125,40.808999633789064,24.63423957824707,-23.626519393920898,1.6888762158790282e+18,2.646028125,-214.81759643554688,119.48923797607422,-156.75291748046874,1.688876215882233e+18,2.6492333984375,-0.2302413210272788,-0.0402500964701175,-0.8644770681858063,0.4446473568677902,-2.4247677326202393,0.8488009870052338,2.7130786180496216
2.65,1.6888762159341445e+18,2.701144287109375,7.148398399353027,-1.57494036356608,-1.5696419874827068,1.6888762159254856e+18,2.692485677083333,6.050251801808675,-5.260421256224314,3.791626850763957,1.6888762159341445e+18,2.701144287109375,-1.1117752889792123,-8.101641972859701,5.3721286455790205,1.6888762159341445e+18,2.701144287109375,0.5971716986969113,0.3124066491921742,5.671985626220703,1.68887621593847e+18,2.7054700520833332,0.4773911911373337,0.5350161194801331,5.711437225341797,,,,,,,,,,,,1.688876215929023e+18,2.696022802734375,34.17707862854004,34.46011924743652,-20.6911994934082,1.688876215929023e+18,2.696022802734375,-221.44951477050785,129.31511993408202,-153.81759643554688,1.6888762159254856e+18,2.692485677083333,-0.2014216730991998,-0.0447172944744427,-0.8113978505134583,0.5453585783640543,-2.2686281204223633,1.0494518876075745,2.4987525145212808
2.7,1.688876215986043e+18,2.7530427246093745,6.564929167429606,-45.33232498168945,10.211283842722574,1.6888762159773962e+18,2.7443963216145835,8.41396188735962,-50.328636169433594,13.33759339650472,1.688876215986043e+18,2.7530427246093745,1.7309172749519348,-8.039592107137045,5.29429833094279,1.688876215986043e+18,2.7530427246093745,0.3400992279251416,1.926974376042684,5.5948130289713545,1.6888762159903706e+18,2.7573705240885418,0.6749551693598429,2.0225239197413125,5.600361665089925,,,,,,,,,,,,1.688876215979025e+18,2.7460249023437497,21.240199279785156,41.931399536132815,-21.413439559936524,1.688876215979025e+18,2.7460249023437497,-234.3863983154297,136.78639526367186,-154.53983459472656,1.6888762159773962e+18,2.7443963216145835,-0.2151255309581756,-0.0551307412485281,-0.7134383718172709,0.6633297602335612,-1.637690822283427,1.1709704001744587,1.8690768877665205
2.75,1.6888762160379515e+18,2.8049515787760413,-19.20676612854004,-6.463581879933675,4.2445939381917315,1.6888762160293e+18,2.7962999674479168,-11.245069980621338,-21.373090744018555,11.297313372294107,1.6888762160379515e+18,2.8049515787760413,4.6663103103637695,-7.237130006154378,4.593388716379802,1.6888762160379515e+18,2.8049515787760413,1.678759475549062,-3.142698049545288,9.343183676401772,1.6888762160336166e+18,2.8006165771484373,2.4265857934951782,-2.162310302257538,8.823719263076782,,,,,,,,,,,,1.6888762160290253e+18,2.79602529296875,2.9621600151062006,46.7015983581543,-19.28087921142578,1.6888762160290253e+18,2.79602529296875,-252.66443786621093,141.5565948486328,-152.40727844238282,1.6888762160293e+18,2.7962999674479168,-0.1956967910130818,-0.0419979927440484,-0.5855955282847086,0.7825860977172852,-0.7988045414288839,1.11869482199351,1.0220357775688171
2.8,1.688876216089851e+18,2.8568509928385417,-11.085229873657228,20.551557699839275,-8.048158327738443,1.6888762160812004e+18,2.848200358072917,-3.7758740484714512,13.486944993336996,-3.635495106379191,1.688876216089851e+18,2.8568509928385417,5.915067831675212,-4.34138822555542,6.481749216715495,1.688876216089851e+18,2.8568509928385417,-0.6878342727820078,-4.46343978246053,6.939480304718018,1.68887621607688e+18,2.843879801432292,-1.0039570132891336,-6.3233208656311035,9.41989835103353,,,,,,,,,,,,1.6888762160790234e+18,2.846023291015625,-18.095039558410644,42.87567901611328,-21.047439575195312,1.6888762160790234e+18,2.846023291015625,-273.7216369628906,137.73067932128907,-154.17383728027343,1.6888762160812004e+18,2.848200358072917,-0.1024749328692753,-0.2098050117492675,-0.3868320683638255,0.8893356323242188,-0.6438023845354716,0.7060766220092773,0.4736266434192657
2.85,1.688876216133102e+18,2.90010205078125,-16.67884635925293,3.995910882949829,-0.655296802520752,1.6888762161331077e+18,2.9001074218750005,-10.692527294158936,2.3423740267753597,5.898307959238688,1.688876216133102e+18,2.90010205078125,5.844375133514404,-3.7818603515625,6.911523342132568,1.688876216133102e+18,2.90010205078125,-0.2309834212064743,-0.5971207842230797,-0.4791474193334579,1.6888762161287836e+18,2.8957838541666665,-0.1455895503362019,-0.4461861749490102,-0.1337285687526067,,,,,,,,,,,,1.688876216129021e+18,2.8960208007812502,-22.9359992980957,39.67927856445313,-24.57567939758301,1.688876216129021e+18,2.8960208007812502,-278.5625915527344,134.53427734375,-157.70207824707032,1.6888762161331077e+18,2.9001074218750005,-0.0727584088842073,-0.2647657791773478,-0.3280112942059834,0.9038286209106444,-0.6849815845489502,0.5876193046569824,0.3757080535093943
2.9,1.6888762161763566e+18,2.9433567708333332,-5.301658312479655,6.180910587310791,-2.319551865259806,1.6888762161850122e+18,2.9520122070312502,2.2604198455810547,1.9489540259043376,4.366103728612264,1.6888762161763566e+18,2.9433567708333332,5.423223972320557,-4.697766939798991,6.666006882985433,1.6888762161763566e+18,2.9433567708333332,-0.0149152874946594,2.149532993634542,-5.85865577061971,1.6888762161806838e+18,2.9476839192708333,0.1430951977769533,2.3065253496170044,-6.120920817057292,,,,,,,,,,,,1.688876216179021e+18,2.94602109375,-16.423639678955077,42.46087875366211,-24.109639358520507,1.688876216179021e+18,2.94602109375,-272.05023193359375,137.31587829589844,-157.2360382080078,1.6888762161850122e+18,2.9520122070312502,-0.1204333777228991,-0.2235459387302398,-0.4237200816472371,0.868035097916921,-0.743155300617218,0.7519214948018392,0.5828890999158224
2.95,1.6888762162282642e+18,2.9952642415364585,-2.0033857027689614,6.132517019907634,-4.78911034266154,1.688876216236913e+18,3.0039129231770834,-0.5427719950675964,-1.6458632151285808,-0.5334000289440154,1.6888762162282642e+18,2.9952642415364585,4.550276279449463,-6.446981430053711,5.809542020161946,1.6888762162282642e+18,2.9952642415364585,0.6795875827471415,2.1795672178268433,-5.043965180714925,1.6888762162325914e+18,2.999591145833333,0.5659666309754054,2.100154717763265,-4.937369346618652,1.6888762162325903e+18,2.99959033203125,0.0,0.0,1.26854145526886,8.10200023651123,0.0414424613118171,0.0,27.66777167907535,-122.7500166,49.1921192,1.6888762162290235e+18,2.996023779296875,-5.08251986503601,46.496638488769534,-20.903479385375977,1.6888762162290235e+18,2.996023779296875,-260.7091125488281,141.3516387939453,-154.02987976074218,1.688876216236913e+18,3.0039129231770834,-0.1615653584400812,-0.1416693280140558,-0.5407891670862833,0.8125279347101847,-0.830457866191864,0.9852689703305564,0.8596094648043314
3.0,1.6888762162801713e+18,3.0471712239583333,-16.07602596282959,-0.7223091125488281,-1.844441572825114,1.6888762162888192e+18,3.0558193359374997,-3.346362272898356,-9.271788756052652,8.896116097768148,1.6888762162801713e+18,3.0471712239583333,2.7981835206349692,-7.737921555836995,5.282022953033447,1.6888762162801713e+18,3.0471712239583333,1.1004737118879957,1.4318172732988994,-6.439079761505127,1.6888762162844897e+18,3.0514895833333333,1.1342749496301014,1.468418260415395,-6.572910149892171,,,,,,,,,,,,1.688876216279023e+18,3.04602314453125,6.6270398736000065,46.68207931518555,-19.79571990966797,1.688876216279023e+18,3.04602314453125,-248.9995544433594,141.53707275390624,-152.922119140625,1.6888762162888192e+18,3.0558193359374997,-0.1870666941006978,-0.0739195408920446,-0.657522718111674,0.7245072722434998,-1.2595179478327434,1.180582086245219,1.4227192401885986
3.05,1.6888762163320717e+18,3.099071695963542,-12.302178064982096,-6.188499768575032,14.63390858968099,1.6888762163320668e+18,3.099066650390625,-9.575777053833008,-15.825530529022217,22.844576835632324,1.6888762163320717e+18,3.099071695963542,1.150956630706787,-8.282900174458822,5.1065718332926435,1.6888762163320717e+18,3.099071695963542,-1.9807814955711365,4.845688581466675,-6.536258220672607,1.6888762163363942e+18,3.103394124348958,-2.28351612885793,4.018678784370422,-6.514419714609782,,,,,,,,,,,,1.6888762163290263e+18,3.09602626953125,17.345959281921388,43.029398345947264,-22.638319396972655,1.6888762163290263e+18,3.09602626953125,-238.2806365966797,137.8843994140625,-155.76471557617188,1.6888762163320668e+18,3.099066650390625,-0.2730981260538101,0.0153441123547964,-0.729154646396637,0.6258690655231476,-1.7327679991722107,1.1730301976203918,2.152469038963318
3.1,1.688876216383973e+18,3.15097314453125,0.3761494954427095,-28.131331125895183,-6.85049311319987,1.6888762163753208e+18,3.142321044921875,-11.586645444234213,-31.58346430460612,3.383451302846273,1.688876216383973e+18,3.15097314453125,-1.590776006380717,-7.461114724477132,6.093855063120524,1.688876216383973e+18,3.15097314453125,-2.801835219065348,-3.9764782587687177,-5.677330652872722,1.6888762163883028e+18,3.1553028157552085,-2.6878580252329507,-3.528255899747213,-5.795329411824544,,,,,,,,,,,,1.6888762163790193e+18,3.14601923828125,29.319039154052735,33.1473991394043,-27.68179931640625,1.6888762163790193e+18,3.14601923828125,-226.30755920410155,128.0023986816406,-160.80819702148438,1.6888762163753208e+18,3.142321044921875,-0.2926046053568522,-0.001933179795742,-0.8050949573516846,0.5137730439503988,-2.124422868092855,0.9737642606099448,2.557839314142863
3.15,1.688876216435879e+18,3.2028784993489587,9.85616938273112,-12.71319611867269,-3.285784085591634,1.688876216427228e+18,3.1942279459635414,13.39103360970815,-25.8018061319987,-0.536989172299703,1.688876216435879e+18,3.2028784993489587,-3.789436419804891,-6.109552224477132,6.656765302022298,1.688876216435879e+18,3.2028784993489587,-1.5079208215077715,0.13729194800059,-4.30476729075114,1.6888762164402035e+18,3.20720361328125,-1.6591099500656128,-0.0694350351889928,-3.8074211279551182,,,,,,,,,,,,1.6888762164290207e+18,3.196020703125,40.323439025878905,20.249559783935545,-27.71839904785156,1.6888762164290207e+18,3.196020703125,-215.30315856933595,115.10455627441408,-160.8447998046875,1.688876216427228e+18,3.1942279459635414,-0.2866900165875752,-0.0223774705082177,-0.8813615043958029,0.3732592165470123,-2.3855531215667725,0.7020054260889689,2.801256815592448
3.2,1.6888762164877832e+18,3.2547832031249997,16.72059218088786,-2.8790904680887865,-11.620075384775795,1.6888762164791304e+18,3.2461300455729165,14.545769691467283,-6.301299254099528,-0.7004987398783366,1.6888762164877832e+18,3.2547832031249997,-3.923847119013468,-5.403274218241374,7.156356652577718,1.6888762164877832e+18,3.2547832031249997,-0.3820453248918058,3.074077526728312,0.8993463714917501,1.688876216483459e+18,3.250458984375,-0.7715227603912354,2.5835780799388885,0.8681158721446991,,,,,,,,,,,,1.688876216479024e+18,3.246023974609374,44.00539855957031,13.03447971343994,-28.081959533691407,1.688876216479024e+18,3.246023974609374,-211.62119750976564,107.8894790649414,-161.20835571289064,1.6888762164791304e+18,3.2461300455729165,-0.3000794251759847,-0.0483548156917094,-0.8971970478693644,0.3194029629230499,-2.394792636235555,0.5754243930180868,2.802762587865194
3.25,1.6888762165396808e+18,3.306680582682292,-0.3014734983444214,4.2054979006449384,-13.442469596862791,1.688876216531033e+18,3.298033121744792,-5.667001644770305,-4.424129694700241,-8.334400653839111,1.6888762165396808e+18,3.306680582682292,-2.1492453813552856,-6.466324011484782,7.036775906880696,1.6888762165396808e+18,3.306680582682292,2.3167573610941568,-0.1392263571421305,3.784208377202352,1.6888762165267118e+18,3.293711669921875,2.2604050636291504,1.721163809299469,3.1496720711390176,,,,,,,,,,,,1.688876216529022e+18,3.2960219238281248,36.46579971313477,17.177599716186524,-33.493878555297854,1.688876216529022e+18,3.2960219238281248,-219.16079711914065,112.03259735107422,-166.62027587890626,1.688876216531033e+18,3.298033121744792,-0.3543793062369029,-0.0130200978989402,-0.8511001467704773,0.3857288956642151,-2.20247213045756,0.7048927545547485,2.741281350453695
3.3,1.6888762165829396e+18,3.3499394531249997,2.106757640838623,-0.3090521097183227,-5.180279016494751,1.6888762165829384e+18,3.349938395182292,2.257628122965494,-7.654639859994252,1.196012536684672,1.6888762165829396e+18,3.3499394531249997,-0.8523900061845778,-7.250580072402954,6.542285919189453,1.6888762165829396e+18,3.3499394531249997,0.6947064995765686,-0.6120106279850006,6.00541615486145,1.6888762165786156e+18,3.345615641276042,1.0168870091438291,-0.7372125188509623,5.579541365305583,,,,,,,,,,,,1.6888762165790282e+18,3.346028125,31.73219909667969,27.637879943847658,-31.488198852539064,1.6888762165790282e+18,3.346028125,-223.89439697265624,122.49287719726564,-164.614599609375,1.6888762165829384e+18,3.349938395182292,-0.31940758228302,-0.0264952580134073,-0.8006717165311178,0.5041786730289459,-2.0508446296056113,0.9109325806299844,2.4927735328674316
