seconds_elapsed_rounded,accelerometer_time,accelerometer_seconds_elapsed,accelerometer_z,accelerometer_y,accelerometer_x,accelerometeruncalibrated_time,accelerometeruncalibrated_seconds_elapsed,accelerometeruncalibrated_z,accelerometeruncalibrated_y,accelerometeruncalibrated_x,gravity_time,gravity_seconds_elapsed,gravity_z,gravity_y,gravity_x,gyroscope_time,gyroscope_seconds_elapsed,gyroscope_z,gyroscope_y,gyroscope_x,gyroscopeuncalibrated_time,gyroscopeuncalibrated_seconds_elapsed,gyroscopeuncalibrated_z,gyroscopeuncalibrated_y,gyroscopeuncalibrated_x,location_time,location_seconds_elapsed,location_bearingAccuracy,location_speedAccuracy,location_verticalAccuracy,location_horizontalAccuracy,location_speed,location_bearing,location_altitude,location_longitude,location_latitude,magnetometer_time,magnetometer_seconds_elapsed,magnetometer_z,magnetometer_y,magnetometer_x,magnetometeruncalibrated_time,magnetometeruncalibrated_seconds_elapsed,magnetometeruncalibrated_z,magnetometeruncalibrated_y,magnetometeruncalibrated_x,orientation_time,orientation_seconds_elapsed,orientation_qz,orientation_qy,orientation_qx,orientation_qw,orientation_roll,orientation_pitch,orientation_yaw
0.0,1.688876274049199e+18,14.998199055989582,-18.19768301645915,-4.584997495015462,4.027102947235107,1.688876274049199e+18,14.998199055989582,-15.353546619415283,-13.172887484232584,7.848458409309387,1.688876274049199e+18,14.998199055989582,2.8213337659835815,-8.572144826253256,3.7566421031951904,1.688876274044876e+18,14.993876057942709,0.7048875689506531,4.565454165140788,-6.402631123860677,1.688876274049199e+18,14.998199055989582,0.6732243895530701,4.482376416524251,-6.963507493336995,,,,,,,,,,,,1.688876274046032e+18,14.99503173828125,-38.178679656982425,30.997758865356445,-17.16295928955078,1.688876274046032e+18,14.99503173828125,-293.8052734375,125.8527572631836,-150.28935852050782,1.688876274057853e+18,15.006852864583331,0.7711683710416158,-0.6014139652252197,0.0933787773052851,0.1724086801211038,-0.9785614013671876,1.112568775812785,-2.0488173564275107
0.05,1.6888762741011028e+18,15.050102945963545,-10.020356853803,-5.897740364074707,8.366071859995523,1.6888762741011028e+18,15.050102945963545,-10.904491504033407,-15.057434717814129,11.735000292460125,1.6888762741011028e+18,15.050102945963545,-0.906936138868332,-9.143949190775553,3.3042151927948,1.6888762740967816e+18,15.045781575520834,0.449444110194842,3.4667111237843833,-9.263567924499512,1.6888762741011028e+18,15.050102945963545,0.347735047340393,3.776928822199503,-8.884068012237549,,,,,,,,,,,,1.6888762740960287e+18,15.04502861328125,-23.1458402633667,44.36408004760742,-10.262639808654786,1.6888762740960287e+18,15.04502861328125,-278.7724304199219,139.2190734863281,-143.3890350341797,1.6888762741011082e+18,15.050108032226564,0.6378055214881897,-0.7380754947662354,-0.0028557777404785,0.2157231271266937,-1.8411234021186829,1.2299227118492126,-0.9852738976478576
0.1,1.6888762741530063e+18,15.102006510416668,-1.3689161936442058,-36.390716552734375,-12.463046471277872,1.6888762741530063e+18,15.102006510416668,-4.8500518798828125,-44.654656728108726,-8.598209698994953,1.6888762741530063e+18,15.102006510416668,-3.503938357035319,-8.24819278717041,3.800123373667399,1.6888762741486817e+18,15.097681396484376,-0.9014334678649902,0.7810420989990234,-7.336084365844727,1.6888762741530063e+18,15.102006510416668,-1.0014626582463582,-0.2548327396313349,-7.394065539042155,,,,,,,,,,,,1.688876274146028e+18,15.095028173828126,-6.412319791316986,49.94923934936523,-7.312679862976074,1.688876274146028e+18,15.095028173828126,-262.0389099121094,144.80423583984376,-140.43907775878907,1.6888762741443564e+18,15.093356119791666,0.5149981876214346,-0.7980276147524515,-0.0954862882693608,0.2928747534751892,-2.225645144780477,1.0723970333735149,-0.3405333509047826
0.15,1.6888762742049083e+18,15.153908610026042,23.277782440185547,-4.429129282633463,-0.8366735776265463,1.6888762742049083e+18,15.153908610026042,17.913467725118,-11.401001930236816,3.5485558509826665,1.6888762742049083e+18,15.153908610026042,-5.387116273244222,-6.956127643585205,4.320516109466553,1.688876274200583e+18,15.1495830078125,-0.8857037074243029,2.1949406266212463,-1.9329813122749329,1.6888762742049083e+18,15.153908610026042,-0.7377724970380465,2.303674658139547,-1.2411254247029622,,,,,,,,,,,,1.688876274196029e+18,15.145028857421874,12.197559833526611,48.39983901977539,-9.442799854278563,1.688876274196029e+18,15.145028857421874,-243.4290344238281,143.2548370361328,-142.56920166015624,1.68887627419626e+18,15.145260253906253,0.3831309179464976,-0.8733022411664327,-0.1050882612665494,0.2797801196575164,-2.502666393915812,0.816766619682312,-0.0441441958149273
0.2,1.688876274256815e+18,15.205815266927084,7.21677033106486,1.835096836090088,-15.752883911132812,1.688876274256815e+18,15.205815266927084,3.095116297403971,-5.644070506095886,-10.92223834991455,1.688876274256815e+18,15.205815266927084,-4.144456148147583,-7.463422139485677,4.765931765238444,1.688876274252491e+18,15.201491048177084,0.6292930046717325,3.0110056400299072,2.7812185287475586,1.688876274256815e+18,15.205815266927084,0.9301950335502625,3.3903531630833945,2.761772632598877,,,,,,,,,,,,1.6888762742460298e+18,15.195029931640624,9.96495990753174,48.57063980102539,-11.304519653320312,1.6888762742460298e+18,15.195029931640624,-245.66163635253903,143.42564086914064,-144.43091735839843,1.6888762742481656e+18,15.197165690104166,0.4057896236578623,-0.844760020573934,-0.1083378742138544,0.3288067976633708,-2.3362151781717935,0.859260618686676,-0.1332268317540486
0.25,1.6888762743000776e+18,15.249077758789063,0.1069129705429077,12.57093858718872,-9.911415576934814,1.6888762743000776e+18,15.249077758789063,-2.9611181020736694,4.180261254310608,-5.798108458518982,1.6888762743000776e+18,15.249077758789063,-3.090832471847534,-8.374931812286377,4.048593521118164,1.688876274304398e+18,15.253397949218751,2.1841487487157187,-3.8024834791819258,3.368514617284139,1.6888762743000776e+18,15.249077758789063,2.762714385986328,-3.675270795822144,3.232546091079712,,,,,,,,,,,,1.6888762742960325e+18,15.24503232421875,0.383079981803894,50.351837921142575,-7.07599983215332,1.6888762742960325e+18,15.24503232421875,-255.24351806640624,145.20683898925782,-140.20239868164063,1.6888762743000686e+18,15.249068684895832,0.4815644820531209,-0.7967169880867004,-0.1403211255868275,0.3342279791831969,-2.2339396476745605,1.0410738388697307,-0.1961876253286997
0.3,1.688876274343325e+18,15.2923251953125,11.860145250956217,2.6411415735880532,-1.7229317824045818,1.688876274343325e+18,15.2923251953125,9.927621682484943,-6.345167318979899,1.7421743075052898,1.688876274343325e+18,15.2923251953125,-1.9553247690200808,-8.970563888549805,3.4003926118214927,1.6888762743563046e+18,15.305304524739585,-0.9974411725997924,-1.995136817296346,6.083607037862142,1.688876274343325e+18,15.2923251953125,-0.8326093057791392,-3.783037543296814,5.548641681671143,,,,,,,,,,,,1.6888762743460324e+18,15.295032373046874,-9.991799926757812,49.100119018554686,-6.961319828033448,1.6888762743460324e+18,15.295032373046874,-265.61838989257814,143.95511474609376,-140.08771667480468,1.6888762743519793e+18,15.300979329427085,0.5976179639498392,-0.7555612524350485,-0.0494777566442886,0.2592794199784596,-1.980301300684611,1.18817671140035,-0.7125332256158193
0.35,1.6888762743952315e+18,15.34423152669271,8.057634671529135,-34.08089955647787,-0.487682580947876,1.6888762743952315e+18,15.34423152669271,9.109874645868937,-43.27978006998698,2.738585670789083,1.6888762743952315e+18,15.34423152669271,1.0294386719663935,-9.183133125305176,3.16155473391215,1.688876274408205e+18,15.357205159505208,1.8872682452201843,0.5418883661429087,6.802188078562419,1.6888762743952315e+18,15.34423152669271,1.641700324912866,0.5515604267517725,6.6192851066589355,,,,,,,,,,,,1.688876274396038e+18,15.345037988281252,-25.41991958618164,43.82483901977539,-6.692919921875,1.688876274396038e+18,15.345037988281252,-281.0465148925781,138.67983703613282,-139.81931762695314,1.6888762744038868e+18,15.352886800130207,0.7223987778027853,-0.6427234609921774,-0.0206793968876202,0.249268074830373,-1.0542887051900227,1.213443120320638,-1.6968708038330078
0.4,1.6888762744471347e+18,15.396134684244792,-8.447943369547525,-28.956202189127605,6.58566419283549,1.6888762744471347e+18,15.396134684244792,-4.030111630757649,-37.364723205566406,8.991629123687744,1.6888762744471347e+18,15.396134684244792,4.3950301806132,-8.392775376637777,2.3412516911824546,1.688876274451461e+18,15.4004609375,2.0917552709579468,-0.8261189460754395,7.868555068969727,1.6888762744471347e+18,15.396134684244792,1.7239126761754353,-0.4826853473981221,7.751218159993489,,,,,,,,,,,,1.688876274446033e+18,15.395032958984377,-39.65243988037109,32.61547927856445,-2.674239921569824,1.688876274446033e+18,15.395032958984377,-295.27903442382814,127.47047729492188,-135.8006378173828,1.688876274455782e+18,15.404782063802084,0.8406974673271179,-0.4922740956147511,0.0021735170545677,0.2173599104086557,-0.4170642495155334,0.976296583811442,-2.405252377192179
0.45,1.688876274499033e+18,15.448033447265624,-17.765697797139484,20.058171749114987,-0.2396491368611653,1.688876274499033e+18,15.448033447265624,-11.439685821533203,13.945170879364014,3.9994036753972377,1.688876274499033e+18,15.448033447265624,6.303209622701009,-6.097254753112793,4.174339294433594,1.6888762744947146e+18,15.443714274088542,-0.7325292428334554,-9.541104157765709,7.874765872955322,1.688876274499033e+18,15.448033447265624,-0.9204211831092834,-9.345576604207356,7.493076960245768,1.6888762745163354e+18,15.46533544921875,0.0,0.0,1.29784095287323,22.691999435424805,0.5893300175666809,180.0006561279297,22.899999618530273,-122.750082,49.1927372,1.688876274496036e+18,15.445035888671876,-47.44579849243164,15.189000034332276,-13.473679876327514,1.688876274496036e+18,15.445035888671876,-303.0723937988281,110.04399719238282,-146.6000762939453,1.68887627450769e+18,15.45669002278646,0.902343491713206,-0.3447669148445129,0.2117247606317202,0.1267118503650029,-0.6121687889099121,0.6104466716448466,-2.668658971786499
0.5,1.6888762745509396e+18,15.499939697265626,-18.652319590250652,7.470392068227132,-9.222893714904783,1.6888762745509396e+18,15.499939697265626,-12.446266810099283,2.783849557240804,-3.148356407880783,1.6888762745509396e+18,15.499939697265626,6.183251063028972,-4.670797348022461,6.0098239580790205,1.6888762745466176e+18,15.495617838541667,-1.5268067916234334,-1.0574586391448977,0.0259618038932482,1.6888762745509396e+18,15.499939697265626,-1.4188872873783112,-0.6949101189772288,-0.6020076870918274,,,,,,,,,,,,1.6888762745460342e+18,15.495034326171876,-45.03751983642578,3.486759948730469,-27.130359649658203,1.6888762745460342e+18,15.495034326171876,-300.664111328125,98.34175720214844,-160.2567565917969,1.6888762745509427e+18,15.499942626953125,0.8992516398429871,-0.2968356907367706,0.2954962700605392,0.1257060356438159,-0.7511663734912872,0.4773810654878616,-2.6724514961242676
0.55,1.688876274602843e+18,15.551842936197916,0.7770225207010905,5.2347690264383955,2.849114497502645,1.688876274602843e+18,15.551842936197916,6.54875644048055,-0.6592226525147756,8.21715251604716,1.688876274602843e+18,15.551842936197916,5.748932361602783,-5.878246466318767,5.303324381510417,1.6888762745985175e+18,15.547517578125,0.9887363115946451,4.5147013664245605,-4.9482119878133135,1.688876274602843e+18,15.551842936197916,1.0905471841494243,4.836372931798299,-4.9688286781311035,,,,,,,,,,,,1.688876274596038e+18,15.545037939453124,-44.93503875732422,9.286639881134032,-25.107598876953126,1.688876274596038e+18,15.545037939453124,-300.56163330078124,104.14163665771484,-158.23399353027344,1.688876274594192e+18,15.54319189453125,0.8803980350494385,-0.3654086093107859,0.2501015116771061,0.1623988250891367,-0.7467502156893412,0.5994335015614828,-2.53682287534078
0.6,1.6888762746547466e+18,15.60374658203125,-11.253431955973308,1.262339115142822,0.3331282138824463,1.6888762746547466e+18,15.60374658203125,-6.265406688054402,-6.272186319033305,4.204787413279216,1.6888762746547466e+18,15.60374658203125,4.965223948160808,-7.51878023147583,3.80694580078125,1.688876274650422e+18,15.59942195638021,1.162069300810496,2.20542718966802,-5.008280436197917,1.6888762746547466e+18,15.60374658203125,1.149902919928233,1.83351202805837,-5.114927609761556,,,,,,,,,,,,1.688876274646034e+18,15.595034033203126,-45.632879638671874,20.981559371948244,-14.173959922790528,1.688876274646034e+18,15.595034033203126,-301.25947265625,115.83655700683592,-147.30035705566405,1.6888762746460992e+18,15.59509920247396,0.8568421602249146,-0.4577838579813639,0.1199604645371436,0.2004337161779403,-0.6185539563496908,0.8293437560399374,-2.4012602170308432
0.65,1.6888762747066504e+18,15.655650309244791,-17.817305604616802,-1.8736416498819988,1.151204506556193,1.6888762747066504e+18,15.655650309244791,-15.626328150431316,-10.79940668741862,4.443671067555745,1.6888762747066504e+18,15.655650309244791,2.16817573706309,-8.910019874572754,3.227753082911174,1.6888762747023288e+18,15.651328776041666,-0.4456770817438762,2.664339616894722,-8.953757286071777,1.6888762747066504e+18,15.655650309244791,-0.733292837937673,2.3049471775690713,-9.5735821723938,,,,,,,,,,,,1.6888762746960338e+18,15.645033935546872,-39.23031997680664,33.4304386138916,-8.876719856262207,1.6888762746960338e+18,15.645033935546872,-294.8569091796875,128.28543701171876,-142.00311889648438,1.688876274697993e+18,15.646993082682291,0.773595134417216,-0.5856977303822836,0.0271509758507211,0.2293909887472787,-0.8278415004412333,1.1077180703481038,-2.019113461176554
0.7,1.688876274758557e+18,15.70755712890625,-11.405553976694742,-25.513550758361816,-2.5039525032043457,1.688876274758557e+18,15.70755712890625,-13.3844526608785,-34.28236802419027,1.4799607594807942,1.688876274758557e+18,15.70755712890625,-2.001700480779012,-8.753071149190268,3.919199784596761,1.6888762747542323e+18,15.703232340494791,-1.1987212498982749,1.54777987798055,-6.840214490890503,1.688876274758557e+18,15.70755712890625,-0.8801041046778361,2.3035219510396323,-6.098369439442952,,,,,,,,,,,,1.6888762747460344e+18,15.695034326171877,-18.57571964263916,46.89923934936523,-8.886480045318603,1.6888762747460344e+18,15.695034326171877,-274.2023132324219,141.75423889160157,-142.01287536621095,1.6888762747499062e+18,15.698906412760415,0.5927664240201315,-0.7581885059674581,-0.0266607167820135,0.2651668985684712,-1.9393951892852783,1.150043249130249,-0.7764422098795573
0.75,1.6888762748018043e+18,15.750804199218749,31.118165016174316,-26.1982479095459,-17.05064296722412,1.6888762748018043e+18,15.750804199218749,26.842685222625732,-34.21766376495361,-13.411471843719482,1.6888762748018043e+18,15.750804199218749,-4.298280835151672,-8.003669500350952,3.5744569301605225,1.688876274806136e+18,15.75513614908854,1.108058661222458,0.6763296326001486,-7.772700309753418,1.6888762748018043e+18,15.750804199218749,1.4705053567886353,-2.1831560134887695,-10.070342540740969,,,,,,,,,,,,1.6888762747960307e+18,15.745030859375,-2.8572400569915772,49.84919967651367,-8.288679790496825,1.6888762747960307e+18,15.745030859375,-258.483837890625,144.70419921875,-141.41507873535156,1.6888762748018097e+18,15.750809733072918,0.4620821078618367,-0.8329434394836426,-0.108578639725844,0.2753349343935648,-2.402228911717733,0.9759717583656312,-0.1628935498495896
0.8,1.6888762748450624e+18,15.794062337239582,7.03272287050883,-3.1576828956604004,5.362895568211873,1.6888762748450624e+18,15.794062337239582,1.5511473814646408,-10.352348168691,9.211569547653198,1.6888762748450624e+18,15.794062337239582,-5.504377524058024,-7.1789201100667315,3.783960501352946,1.688876274858036e+18,15.807035888671876,0.3093523383140564,-2.7039949893951416,0.5963062942028046,1.6888762748450624e+18,15.794062337239582,0.3100650111834208,0.1120428244272867,-1.4388930400212605,,,,,,,,,,,,1.6888762748460344e+18,15.795034619140626,13.263839721679688,49.30263900756836,-6.607519912719726,1.6888762748460344e+18,15.795034619140626,-242.36275634765624,144.1576416015625,-139.73391723632812,1.6888762748537088e+18,15.802708902994793,0.3800338606039683,-0.8708969950675964,-0.1507859975099563,0.2707406431436538,-2.577143828074137,0.8395893375078837,0.0856932600339253
0.85,1.6888762748969649e+18,15.84596492513021,20.48188368479411,5.7174051602681475,-12.961058934529625,1.6888762748969649e+18,15.84596492513021,15.896717071533203,-2.210369904836019,-9.486145973205566,1.6888762748969649e+18,15.84596492513021,-4.607967456181844,-7.912030061086019,3.4101995627085366,1.6888762749012928e+18,15.850292846679686,0.7714464254677296,6.842759847640991,3.7457492351531982,1.6888762748969649e+18,15.84596492513021,0.609999845425288,3.415398597717285,3.781052271525065,,,,,,,,,,,,1.6888762748960305e+18,15.845030517578124,8.100799798965454,50.202999114990234,-4.474959993362427,1.6888762748960305e+18,15.845030517578124,-247.52579345703128,145.05799865722656,-137.60135498046876,1.6888762749056172e+18,15.854616943359376,0.4496149619420369,-0.829940398534139,-0.1516271531581878,0.289012720187505,-2.458872397740682,0.989433745543162,-0.0200248785937825
0.9,1.6888762749488668e+18,15.897866780598958,-3.809288263320923,6.338144779205322,-4.3122444947560625,1.6888762749488668e+18,15.897866780598958,-6.701099554697673,-2.523829742024342,-1.219542016585668,1.6888762749488668e+18,15.897866780598958,-2.9146131674448648,-8.846229235331217,3.027988910675049,1.6888762749445458e+18,15.893545735677083,0.9163996676603952,-4.253963728745778,4.52055549621582,1.6888762749488668e+18,15.897866780598958,0.6318891644477843,-5.01459276676178,4.915581782658895,,,,,,,,,,,,1.6888762749460383e+18,15.8950380859375,-2.4497599601745605,50.86912002563477,-2.1471999883651733,1.6888762749460383e+18,15.8950380859375,-258.07635192871095,145.72412109375,-135.27359619140626,1.688876274957521e+18,15.906520833333332,0.5488640864690145,-0.7837000091870626,-0.118215983112653,0.2580383618672688,-2.3113253116607666,1.1783071756362915,-0.2793230588237445
0.95,1.6888762750007698e+18,15.949769775390626,11.8254656791687,-25.766640345255535,2.0666724840799966,1.6888762750007698e+18,15.949769775390626,11.61815071105957,-35.056247075398765,5.15713095664978,1.6888762750007698e+18,15.949769775390626,-0.2301163971424102,-9.273859977722168,3.0257449944814048,1.6888762749964454e+18,15.945445475260415,-1.3648256659507751,-2.7377452850341797,7.720827579498291,1.6888762750007698e+18,15.949769775390626,-1.2912672956784566,-2.3360504706700644,7.762977441151936,,,,,,,,,,,,1.6888762749960325e+18,15.945032373046876,-18.64647979736328,46.98463897705078,-6.246399784088135,1.6888762749960325e+18,15.945032373046876,-274.2730712890625,141.83963928222656,-139.3727996826172,1.6888762750007685e+18,15.949768310546876,0.668355256319046,-0.7105679512023926,-0.0086511943954974,0.2166574895381927,-1.61396586894989,1.2612606883049011,-1.2037128210067751
1.0,1.688876275052681e+18,16.001680908203124,-1.529420534769694,-34.47578684488932,8.122092405954996,1.688876275052681e+18,16.001680908203124,2.079362769921621,-42.81278165181478,11.736396074295044,1.688876275052681e+18,16.001680908203124,3.5859816869099936,-8.321248690287272,3.5495896339416504,1.688876275048351e+18,15.997350911458334,-0.999579151471456,0.360155979792277,8.826900800069174,1.688876275052681e+18,16.001680908203124,-0.840703288714091,0.3147483269373576,8.939605712890625,1.6888762750353756e+18,15.984375732421874,0.0,0.0,1.2581521272659302,22.10300064086914,0.4704436063766479,180.00048828125,23.100000381469727,-122.7500847,49.1927265,1.6888762750460337e+18,15.995033642578123,-35.91923904418945,35.66059913635254,-9.608719825744627,1.6888762750460337e+18,15.995033642578123,-291.54583129882815,130.51559600830078,-142.73511352539063,1.6888762750440264e+18,15.993026529947915,0.7765400211016337,-0.581998864809672,0.0490693474809328,0.2272596359252929,-0.8616351882616679,1.0807050466537471,-2.0192732413609824
1.05,1.6888762751045806e+18,16.053580485026043,-20.454229990641277,4.363742272059123,-6.9399112065633135,1.6888762751045806e+18,16.053580485026043,-14.481362660725912,-2.0013970534006753,-2.4596222639083862,1.6888762751045806e+18,16.053580485026043,5.9500664075215655,-6.34939448038737,4.415575583775838,1.6888762751002542e+18,16.049254069010416,0.2661845286687215,-6.331007480621338,7.364235083262126,1.6888762751045806e+18,16.053580485026043,-0.0718276103337605,-6.915859937667846,7.190291245778401,,,,,,,,,,,,1.6888762750960307e+18,16.045030810546876,-46.79187927246094,18.373199653625488,-13.117439651489258,1.6888762750960307e+18,16.045030810546876,-302.41846923828126,113.2281967163086,-146.24383544921875,1.688876275095931e+18,16.04493074544271,0.8784719506899515,-0.4145017961661021,0.1421515718102454,0.1776443819204965,-0.5789989431699117,0.7501358985900879,-2.50981338818868
1.1,1.6888762751564805e+18,16.105480305989584,-21.75976530710856,19.426572799682617,-10.341779390970864,1.6888762751564805e+18,16.105480305989584,-15.796418031056724,14.753746112187704,-4.019742588202159,1.6888762751564805e+18,16.105480305989584,5.940545241038005,-4.657080968221028,6.257323265075684,1.6888762751521595e+18,16.10115958658854,-0.7641415397326151,-2.884505669275919,2.4660121450821557,1.6888762751564805e+18,16.105480305989584,-0.688496025900046,-2.451504031817118,1.7808249592781067,,,,,,,,,,,,1.6888762751460367e+18,16.09503671875,-44.07615966796875,4.499359941482544,-27.78427963256836,1.6888762751460367e+18,16.09503671875,-299.7027587890625,99.35435791015624,-160.91067810058593,1.688876275147833e+18,16.09683349609375,0.895615021387736,-0.3031940162181854,0.3065791328748067,0.1070067435503005,-0.7746360301971436,0.4981754720211029,-2.697213967641195
1.15,1.6888762752083863e+18,16.15738623046875,-3.4430130322774244,4.562802155812581,-6.017577171325684,1.6888762752083863e+18,16.15738623046875,1.6811572710673015,-0.9166504343350728,0.3595215777556101,1.6888762752083863e+18,16.15738623046875,5.1013689041137695,-5.463707288106282,6.312385241190593,1.6888762752040645e+18,16.15306437174479,0.936354637145996,2.0754145781199136,-5.034598509470622,1.6888762752083863e+18,16.15738623046875,1.1479176084200542,2.9813786347707114,-5.327304840087891,,,,,,,,,,,,1.6888762751960343e+18,16.1450341796875,-41.365319061279294,4.208999967575073,-31.44671936035156,1.6888762751960343e+18,16.1450341796875,-296.9919128417969,99.06399841308594,-164.5731170654297,1.688876275199738e+18,16.148737874348956,0.8710836172103882,-0.3419505556424458,0.3288824558258056,0.118999088803927,-0.8757667541503906,0.5451854467391968,-2.6095680395762124
1.2,1.688876275251642e+18,16.200641723632813,5.129604816436768,-1.3545501232147217,6.558667898178101,1.688876275251642e+18,16.200641723632813,10.47577714920044,-8.331509113311768,11.01206874847412,1.688876275251642e+18,16.200641723632813,5.323370456695557,-6.961213827133179,4.388687372207642,1.6888762752559688e+18,16.204968912760418,1.9239201148351033,4.2365538875261946,-3.4372368653615317,1.688876275251642e+18,16.200641723632813,2.204078197479248,5.733886361122131,-3.784157395362854,,,,,,,,,,,,1.688876275246038e+18,16.1950380859375,-44.44947891235351,16.740839767456055,-21.5378791809082,1.688876275246038e+18,16.1950380859375,-300.07607421875,111.59584045410156,-154.66427917480468,1.688876275251641e+18,16.200641438802084,0.8640420436859131,-0.4399956862131753,0.1734999418258666,0.167065476377805,-0.6803503036499023,0.7806683977444967,-2.471869468688965
1.25,1.6888762752948943e+18,16.243894449869792,-6.715813000996907,-1.5499663352966309,-7.105269432067871,1.6888762752948943e+18,16.243894449869792,-2.215754215915998,-9.298110167185463,-3.0089743932088218,1.6888762752948943e+18,16.243894449869792,4.477256457010905,-7.732398668924968,4.031581481297811,1.6888762753078618e+18,16.25686181640625,0.4623231689135234,0.2289726336797078,-3.211725910504659,1.6888762752948943e+18,16.243894449869792,0.7201083302497864,-1.105513374010722,-2.3645066817601523,,,,,,,,,,,,1.688876275296034e+18,16.24503408203125,-43.22215957641602,24.146239471435543,-16.39191951751709,1.688876275296034e+18,16.24503408203125,-298.8487548828125,119.00123596191406,-149.51831665039063,1.688876275303538e+18,16.25253816731771,0.8386706908543905,-0.5019732216993967,0.1457854857047398,0.1511395821968714,-0.7205659747123718,0.924316664536794,-2.4131430784861245
1.3,1.6888762753467932e+18,16.29579313151042,-19.28992525736491,-0.9127175013224283,4.088726282119751,1.6888762753467932e+18,16.29579313151042,-16.83889118830363,-9.74875831604004,7.507281462351481,1.6888762753467932e+18,16.29579313151042,2.4282320737838745,-8.820295651753744,3.353841702143351,1.688876275351125e+18,16.300125122070312,0.7771733105182648,3.2741612792015076,-9.23994779586792,1.6888762753467932e+18,16.29579313151042,0.5804746846357981,2.9219719568888345,-8.436456203460693,,,,,,,,,,,,1.688876275346032e+18,16.295032080078123,-37.82487907409668,33.601239395141604,-12.090199851989746,1.688876275346032e+18,16.295032080078123,-293.45147705078125,128.45623626708985,-145.2165985107422,1.6888762753554483e+18,16.3044482421875,0.7470497687657675,-0.6302647590637207,0.0486038215458392,0.1921532650788624,-1.0759585897127788,1.1716962655385337,-1.858250578244527
1.35,1.688876275398701e+18,16.34770084635417,-7.559219837188721,-22.68783887227376,4.324063698450725,1.688876275398701e+18,16.34770084635417,-9.39681394894918,-31.682966232299805,7.775078535079956,1.688876275398701e+18,16.34770084635417,-1.860395868619283,-8.97938092549642,3.3863014380137124,1.688876275394377e+18,16.34337687174479,-0.2858340442180633,1.589115063349406,-8.530529499053955,1.688876275398701e+18,16.34770084635417,-0.134950319925944,2.2669208645820618,-7.998465696970622,,,,,,,,,,,,1.6888762753960343e+18,16.345034326171877,-17.82907943725586,46.69671859741211,-9.864919662475586,1.6888762753960343e+18,16.345034326171877,-273.45567626953124,141.55172119140624,-142.99131469726564,1.688876275407356e+18,16.356355875651044,0.5805153648058573,-0.7801551818847656,-0.0178916162500779,0.2265103906393051,-2.1416755517323813,1.1546688079833984,-0.6441694597403208
1.4,1.6888762754506048e+18,16.39960498046875,24.8481547832489,-21.65447203318278,-10.976199467976889,1.6888762754506048e+18,16.39960498046875,20.350558121999104,-29.69373321533203,-7.717451254526774,1.6888762754506048e+18,16.39960498046875,-4.520396947860718,-8.023515224456787,3.1940344174702964,1.6888762754462802e+18,16.395280273437496,0.9030624429384868,0.7070765693982443,-7.186829725901286,1.6888762754506048e+18,16.39960498046875,0.7434738874435425,0.9770280520121256,-6.9470140139261884,,,,,,,,,,,,1.688876275446032e+18,16.395032080078124,-0.983319854736328,50.24691925048828,-6.807599830627441,1.688876275446032e+18,16.395032080078124,-256.6099090576172,145.10191650390624,-139.93399658203126,1.6888762754506053e+18,16.39960534667969,0.4618764966726303,-0.850732684135437,-0.0960962362587451,0.2285771220922469,-2.5629791021347046,0.9791870415210724,-0.0937202777713536
1.45,1.688876275502508e+18,16.451507975260416,8.534644603729248,5.880536874135335,4.1525774002075195,1.688876275502508e+18,16.451507975260416,3.1178480784098306,-1.3106686671574916,8.106284777323404,1.688876275502508e+18,16.451507975260416,-5.439597924550374,-7.175460338592529,3.888994057973226,1.6888762754981806e+18,16.447180419921875,-0.2189442943781614,1.4387911955515544,-0.7866926193237305,1.688876275502508e+18,16.451507975260416,-0.2518291982511678,0.6314310133457184,-0.3012074679136276,,,,,,,,,,,,1.6888762754960358e+18,16.445035839843747,13.149159622192382,49.31727981567383,-7.629879951477051,1.6888762754960358e+18,16.445035839843747,-242.4774383544922,144.17227783203126,-140.75628051757812,1.688876275493858e+18,16.44285782877604,0.386159747838974,-0.870455265045166,-0.1321837504704792,0.2742567360401153,-2.5435661474863687,0.8408443331718445,0.0276929462949434
1.5,1.6888762755544118e+18,16.503411865234373,10.719597419102987,4.188303152720134,-16.830773035685223,1.6888762755544118e+18,16.503411865234373,6.306682705879211,-3.5487553477287292,-12.701102256774902,1.6888762755544118e+18,16.503411865234373,-4.435716470082601,-7.72131331761678,4.064956823984782,1.6888762755500872e+18,16.499087158203125,0.8349001010258993,3.434029976526896,2.5622742970784507,1.6888762755544118e+18,16.503411865234373,1.1183924277623494,3.7732636531194057,2.631709257761637,,,,,,,,,,,,1.6888762755460288e+18,16.49502890625,8.476559925079346,49.96387939453125,-7.266319942474365,1.6888762755460288e+18,16.49502890625,-247.15003662109376,144.81887817382812,-140.39271850585936,1.6888762755457595e+18,16.494759765625002,0.4159880081812541,-0.8501286109288534,-0.127495581905047,0.2935601075490315,-2.4522501627604165,0.8996867736180624,-0.0477099608009059
1.55,1.6888762756063153e+18,16.555315266927085,4.138431390126546,5.331764221191406,-2.0606757005055747,1.6888762756063153e+18,16.555315266927085,1.1184451580047607,-3.305285692214966,1.528216044108073,1.6888762756063153e+18,16.555315266927085,-3.042787551879883,-8.621304512023926,3.524178266525269,1.6888762756019845e+18,16.550984212239584,0.6083199779192607,-2.5267422596613565,4.02458389600118,1.6888762756063153e+18,16.555315266927085,0.287361184755961,-2.584825356801351,4.226932843526204,,,,,,,,,,,,1.688876275596038e+18,16.545038232421877,0.6588000059127808,51.13507766723633,-4.814119911193847,1.688876275596038e+18,16.545038232421877,-254.96778869628903,145.99007873535157,-137.94051818847657,1.6888762755976632e+18,16.546663330078125,0.4905209541320801,-0.8021535277366638,-0.1441462089618046,0.3064597149689992,-2.321566104888916,1.06779674688975,-0.1489186187585194
1.6,1.6888762756582188e+18,16.60721883138021,1.4259999791781108,-24.89794667561849,-1.7036151885986328,1.6888762756582188e+18,16.60721883138021,0.8241280019283295,-33.994431813557945,1.917049715916316,1.6888762756582188e+18,16.60721883138021,-0.624673475821813,-9.080738067626951,3.5559515158335366,1.688876275653895e+18,16.60289501953125,0.0488183051347732,0.1670207285011808,6.061004797617595,1.6888762756582188e+18,16.60721883138021,0.3716606199741363,0.1006909410158793,6.216266632080078,,,,,,,,,,,,1.6888762756460342e+18,16.595034130859375,-12.536719512939454,49.30507888793945,-5.851119899749756,1.6888762756460342e+18,16.595034130859375,-268.1633056640625,144.1600799560547,-138.9775146484375,1.6888762756495698e+18,16.59856982421875,0.595826268196106,-0.7387024362881979,-0.0807194064060846,0.3015430470307668,-1.8522234360376997,1.187361756960551,-0.7314133445421854
1.65,1.6888762757014715e+18,16.6504716796875,3.4142854511737823,-29.879868507385257,7.684991359710693,1.6888762757014715e+18,16.6504716796875,5.272285670042038,-38.95036697387695,11.009676456451416,1.6888762757014715e+18,16.6504716796875,1.8351988792419431,-9.054751873016356,3.2599717378616333,1.6888762757057984e+18,16.65479833984375,-0.3279837369918823,-2.1014782587687173,7.305541197458903,1.6888762757014715e+18,16.6504716796875,-0.4650211930274963,-2.249664008617401,6.772510290145874,,,,,,,,,,,,1.6888762756960328e+18,16.645032763671875,-27.81599960327149,42.98303985595703,-5.192319869995117,1.6888762756960328e+18,16.645032763671875,-283.4425903320313,137.838037109375,-138.31871948242187,1.688876275701466e+18,16.65046590169271,0.7216033736864725,-0.6305315891901652,-0.0212288952122132,0.2802556951840718,-1.0403556823730469,1.1735136111577351,-1.6627513964970906
1.7,1.688876275744726e+18,16.69372599283854,-6.785717328389485,-17.87862761815389,-0.4049515724182129,1.688876275744726e+18,16.69372599283854,-2.391028086344401,-25.903900146484375,3.1760733922322593,1.688876275744726e+18,16.69372599283854,4.371888001759847,-8.009527206420898,3.5163114865620932,1.6888762757576983e+18,16.706698323567707,1.6852754553159075,-3.485139012336731,6.607983907063802,1.688876275744726e+18,16.69372599283854,1.302721083164215,-1.9384790261586504,7.34463628133138,,,,,,,,,,,,1.688876275746038e+18,16.695037939453123,-41.51171951293945,30.13155937194824,-8.130079746246338,1.688876275746038e+18,16.695037939453123,-297.13831787109376,124.98655700683594,-141.25647583007813,1.6888762757533724e+18,16.702372395833333,0.8312165141105652,-0.496259073416392,0.0642133491734663,0.2369456986586252,-0.6104703942934672,0.9195755322774252,-2.2729429403940835
1.75,1.6888762757966285e+18,16.745628499348957,-16.12168264389038,16.020079215367634,-7.387018839518229,1.6888762757966285e+18,16.745628499348957,-10.64666517575582,9.452048381169638,-2.527219454447428,1.6888762757966285e+18,16.745628499348957,5.452215671539307,-6.552285830179851,4.7950858275095625,1.6888762758009554e+18,16.749955322265627,-0.4659374505281448,-6.987840056419373,5.4326536655426025,1.6888762757966285e+18,16.745628499348957,-0.1120937665303548,-6.780095020929973,5.342780033747355,,,,,,,,,,,,1.688876275796034e+18,16.74503408203125,-45.51087951660156,17.20443935394287,-18.458599472045897,1.688876275796034e+18,16.74503408203125,-301.13746948242186,112.05943756103515,-151.58499755859376,1.6888762758052795e+18,16.754279459635416,0.8767147461573283,-0.3982817828655243,0.227357193827629,0.1374305213491121,-0.7226747870445251,0.6915770769119263,-2.5607314109802246
1.8,1.688876275848532e+18,16.797531982421877,-20.95195770263672,14.302618026733398,-6.335138479868571,1.688876275848532e+18,16.797531982421877,-15.384055137634276,8.473583221435547,-0.6436693668365479,1.688876275848532e+18,16.797531982421877,5.545100688934326,-5.813289483388265,5.626755396525065,1.6888762758442043e+18,16.79320458984375,-0.3630066725114981,-0.7268787423769633,0.2273436586062113,1.688876275848532e+18,16.797531982421877,-0.3921755005915959,-0.5122105181217194,-0.3455970784028371,,,,,,,,,,,,1.688876275846035e+18,16.79503505859375,-44.7520393371582,10.345599555969237,-26.237319564819337,1.688876275846035e+18,16.79503505859375,-300.3786376953125,105.20059661865234,-159.36371765136718,1.6888762758571835e+18,16.806183268229166,0.8780997594197592,-0.3744978606700897,0.2707135577996571,0.122814950843652,-0.7814615964889526,0.6324996550877889,-2.595272143681844
1.85,1.688876275900429e+18,16.849428873697917,0.6735502878824869,5.25652551651001,-4.678700606028239,1.688876275900429e+18,16.849428873697917,5.368098179499309,-1.6027923027674358,0.604387084643046,1.688876275900429e+18,16.849428873697917,4.671745936075847,-6.843572616577148,5.218374252319336,1.6888762758961114e+18,16.845111490885415,0.8971574356158575,2.4894794623057046,-4.777475357055664,1.688876275900429e+18,16.849428873697917,1.108058661222458,2.9659544229507446,-4.757265726725261,,,,,,,,,,,,1.688876275896037e+18,16.845037109375,-43.48567962646485,15.96735954284668,-25.102719879150392,1.688876275896037e+18,16.845037109375,-299.1122741699219,110.82235870361328,-158.22911376953124,1.6888762759004365e+18,16.849436279296874,0.8496630489826202,-0.4485310465097427,0.2300690859556197,0.1525996401906013,-0.8222807049751282,0.7649158537387848,-2.438814282417298
1.9,1.6888762759523392e+18,16.901339111328124,12.834761699040731,-9.57709058125814,1.1259316603342693,1.6888762759523392e+18,16.901339111328124,17.15853289763133,-17.552151679992676,4.977868715922038,1.6888762759523392e+18,16.901339111328124,4.300970713297526,-7.95931609471639,3.7872235774993896,1.6888762759480115e+18,16.89701163736979,1.6085100571314497,1.6162475769718487,-0.964199940363566,1.6888762759523392e+18,16.901339111328124,1.4460198680559797,0.8139269351959229,-0.1679370005925496,,,,,,,,,,,,1.6888762759460342e+18,16.8950341796875,-42.47551956176758,26.200719833374023,-15.933199882507324,1.6888762759460342e+18,16.8950341796875,-298.10211181640625,121.05571746826172,-149.05959777832032,1.688876275943689e+18,16.892689127604168,0.8345306913057963,-0.5074617266654968,0.1285943562785783,0.170261780420939,-0.7088575561841329,0.9333669543266296,-2.3707855542500815
1.95,1.6888762760042437e+18,16.953243408203125,-21.178112983703613,-0.8845809300740566,-3.1644627253214517,1.6888762760042437e+18,16.953243408203125,-17.46680736541748,-9.191230595111843,0.5457630157470703,1.6888762760042437e+18,16.953243408203125,3.6885032653808594,-8.29090436299642,3.645512262980143,1.6888762759999188e+18,16.9489189453125,1.040659882128239,2.0721057653427124,-3.623398125171662,1.6888762760042437e+18,16.953243408203125,1.314174751440684,2.971197525660197,-4.64084521929423,,,,,,,,,,,,1.6888762759960325e+18,16.945032470703126,-42.138798522949216,26.615519714355468,-16.621280097961424,1.6888762759960325e+18,16.945032470703126,-297.76539916992186,121.47051696777343,-149.7476776123047,1.688876275995593e+18,16.944593017578125,0.8296864827473959,-0.5195609331130981,0.1353532249728838,0.1477354516585667,-0.7345919211705526,0.96690167983373,-2.389021158218384
2.0,1.6888762760561428e+18,17.005142740885418,-8.011816839377085,7.438459396362305,1.8071211973826091,1.6888762760561428e+18,17.005142740885418,-7.553941835959752,-2.0701904296875,3.9744784037272134,1.6888762760561428e+18,17.005142740885418,0.4350734849770865,-9.492904663085938,2.1026438077290854,1.6888762760518226e+18,17.000822509765623,1.6807957291603088,0.9748390913009644,-8.792590777079264,1.6888762760561428e+18,17.005142740885418,1.0839294989903767,0.7820602655410767,-8.932835261027018,1.6888762760734454e+18,17.0224453125,0.0,0.0,1.266127109527588,20.638999938964844,1.269629716873169,178.75889587402344,23.100000381469727,-122.7500832,49.1926847,1.6888762760460324e+18,16.995032275390624,-33.86231956481934,38.50075912475586,-6.6367998123168945,1.6888762760460324e+18,16.995032275390624,-289.488916015625,133.3557586669922,-139.76319580078126,1.6888762760474962e+18,16.996496012369793,0.7363407015800476,-0.6559849182764689,0.0043511755987613,0.1531239897012709,-1.1055850585301716,1.301627556482951,-1.8231143951416016
2.05,1.6888762761080463e+18,17.05704638671875,-16.906089146931965,-38.595227559407554,5.594470024108887,1.6888762761080463e+18,17.05704638671875,-19.447067896525063,-47.48556645711263,8.928817749023438,1.6888762761080463e+18,17.05704638671875,-2.5637807846069336,-8.874591827392578,3.2696340878804526,1.6888762761037258e+18,17.05272574869792,-1.65539388358593,5.618636767069499,-5.8191024462382,1.6888762761080463e+18,17.05704638671875,-1.5019648869832356,4.959258476893107,-5.6974382400512695,,,,,,,,,,,,1.688876276096036e+18,17.045036083984378,-14.137359428405762,49.00251846313476,-5.59247989654541,1.688876276096036e+18,17.045036083984378,-269.7639587402344,143.85751647949218,-138.71888122558593,1.6888762760993969e+18,17.04839705403646,0.578647255897522,-0.7777379155158997,-0.0578880676378806,0.2314601987600326,-2.202451229095459,1.1939761241277058,-0.5182656645774841
2.1,1.6888762761512934e+18,17.10029345703125,36.30546307563782,-16.277398824691772,-4.461081922054291,1.6888762761512934e+18,17.10029345703125,30.86830759048462,-23.877976894378666,-1.5251252055168152,1.6888762761512934e+18,17.10029345703125,-5.459958076477051,-7.584831714630127,2.8712432384490967,1.6888762761556204e+18,17.104620361328127,-0.7019350826740265,-2.5428282419840493,-6.257398247718811,1.6888762761512934e+18,17.10029345703125,-0.7749589085578918,-6.737690687179565,-8.134739875793457,,,,,,,,,,,,1.688876276146032e+18,17.09503203125,6.03167998790741,50.06879806518555,-6.209799861907959,1.688876276146032e+18,17.09503203125,-249.59491271972655,144.92379455566407,-139.33619689941406,1.6888762761513034e+18,17.100303385416666,0.4370788633823394,-0.8677763938903809,-0.0833363756537437,0.2115430136521657,-2.615811824798584,0.919600546360016,-0.0822277894864479
2.15,1.6888762761945518e+18,17.143551676432292,13.678776741027832,5.0502603848775225,-4.593601544698079,1.6888762761945518e+18,17.143551676432292,8.144769032796223,-2.05324133237203,-0.6656033198038737,1.6888762761945518e+18,17.143551676432292,-5.556808948516846,-7.087756315867106,3.8632845878601074,1.6888762762075295e+18,17.156529541015626,-0.4532111088434855,2.6211719512939453,1.0004445513089495,1.6888762761945518e+18,17.143551676432292,-0.4539746840794881,4.414163271586101,0.1994984149932861,,,,,,,,,,,,1.688876276196032e+18,17.145031884765626,12.84903964996338,49.35143966674805,-8.969439888000489,1.688876276196032e+18,17.145031884765626,-242.77755432128907,144.20643920898436,-142.09583740234376,1.6888762762032018e+18,17.152201985677085,0.3893521924813588,-0.872612198193868,-0.105435771246751,0.2752063075701395,-2.5106759071350098,0.829383929570516,-0.0450191448132196
2.2,1.6888762762464596e+18,17.195459635416665,10.35976537068685,4.064737637837728,-18.796120325724285,1.6888762762464596e+18,17.195459635416665,5.734997590382894,-3.496910810470581,-14.54257869720459,1.6888762762464596e+18,17.195459635416665,-4.647569020589192,-7.545903205871582,4.1888275146484375,1.688876276250786e+18,17.199786010742187,1.4498887062072754,1.530675619840622,1.863902568817139,1.6888762762464596e+18,17.195459635416665,1.0664180368185043,1.3581061412890751,2.0094412167867026,,,,,,,,,,,,1.6888762762460372e+18,17.1950373046875,8.183759784698486,49.868719482421874,-9.091439819335935,1.6888762762460372e+18,17.1950373046875,-247.44283142089844,144.72371826171874,-142.21783447265625,1.6888762762551124e+18,17.20411238606771,0.4300889372825622,-0.8438566327095032,-0.1164337769150733,0.2982453803221384,-2.4130351543426514,0.9200893640518188,-0.099211479226748
2.25,1.6888762762983596e+18,17.247359619140624,3.0309926668802896,2.806260903676351,0.0871875286102294,1.6888762762983596e+18,17.247359619140624,-0.6500501682360965,-5.620142102241516,3.5527433902025223,1.6888762762983596e+18,17.247359619140624,-3.7038443088531494,-8.41065788269043,3.4008423487345376,1.6888762762940385e+18,17.243038330078125,1.034703945120176,-1.695049246152242,3.265227476755778,1.6888762762983596e+18,17.247359619140624,0.7919358809789022,-1.611309806505839,3.4650821685791016,,,,,,,,,,,,1.6888762762960358e+18,17.24503583984375,1.8031599283218385,50.9813591003418,-5.6583599090576175,1.6888762762960358e+18,17.24503583984375,-253.8234313964844,145.83635559082032,-138.78475952148438,1.6888762763070144e+18,17.256014322916666,0.5054823954900106,-0.812253455320994,-0.1098012750347454,0.2677002648512521,-2.380253156026205,1.0761427879333496,-0.2031905204057692
2.3,1.688876276350265e+18,17.299265462239585,-4.942125956217448,-27.586296717325848,4.066519816716512,1.688876276350265e+18,17.299265462239585,-6.330012838045756,-36.769707997639976,7.211967309315999,1.688876276350265e+18,17.299265462239585,-1.4106882413228352,-9.16766357421875,3.0807340145111084,1.688876276345944e+18,17.29494392903646,0.5787948171297709,-2.2112812250852585,6.562423547108968,1.688876276350265e+18,17.299265462239585,0.604349359869957,-2.6717718467116356,6.732854843139648,,,,,,,,,,,,1.6888762763460324e+18,17.2950322265625,-11.01659984588623,49.42707901000976,-5.409479808807373,1.6888762763460324e+18,17.2950322265625,-266.6431945800781,144.28207702636718,-138.53587951660157,1.6888762763502666e+18,17.2992666015625,0.607298344373703,-0.749458521604538,-0.0671195108443498,0.2522332742810249,-1.977612257003784,1.2353612780570984,-0.701508492231369
2.35,1.6888762764021711e+18,17.351171468098958,6.278630336125691,-24.242765426635746,7.185001691182454,1.6888762764021711e+18,17.351171468098958,7.853243986765544,-33.217562993367515,10.769895553588867,1.6888762764021711e+18,17.351171468098958,1.551812360684077,-8.959050496419271,3.5201804637908936,1.6888762763978373e+18,17.34683732096354,-2.05851403872172,-2.643977463245392,7.741851647694905,1.6888762764021711e+18,17.351171468098958,-1.9926424026489256,-2.126014709472656,7.839437484741211,,,,,,,,,,,,1.688876276396034e+18,17.345034130859375,-27.049839782714844,42.502359008789064,-10.238239765167236,1.688876276396034e+18,17.345034130859375,-282.6764404296875,137.35735473632812,-143.36463623046876,1.6888762763935158e+18,17.342515625,0.7178597648938497,-0.6620212992032369,0.0412342773439983,0.2024002820253372,-1.2747910420099895,1.2049706776936848,-1.6345791419347129
2.4,1.688876276454074e+18,17.403073974609374,-20.698673407236736,-4.858591079711914,-6.309510707855225,1.688876276454074e+18,17.403073974609374,-16.187245895465214,-12.69232913851738,-2.4269203742345176,1.688876276454074e+18,17.403073974609374,4.4886250495910645,-7.817992846171061,3.817876656850179,1.6888762764497462e+18,17.398746337890625,0.7021386995911598,-2.4655031164487204,6.527146021525065,1.688876276454074e+18,17.403073974609374,0.5061018466949463,-3.426139533519745,6.534323692321777,,,,,,,,,,,,1.6888762764460314e+18,17.39503154296875,-41.03103942871094,29.34099922180176,-12.73923988342285,1.6888762764460314e+18,17.39503154296875,-296.6576416015625,124.19599761962893,-145.86563720703126,1.6888762764454264e+18,17.39442659505208,0.8280558586120605,-0.5172525644302368,0.1054356843233108,0.1832873672246932,-0.6989694039026896,0.958593765894572,-2.3274282614390054
2.45,1.6888762765059758e+18,17.454975748697915,-12.54370403289795,21.51484743754069,-10.466212431589762,1.6888762765059758e+18,17.454975748697915,-7.292126973470052,15.391233444213867,-4.79661242167155,1.6888762765059758e+18,17.454975748697915,5.2287750244140625,-6.107868353525798,5.604886531829834,1.6888762765016535e+18,17.450653564453123,-1.4411329627037048,-4.6900707085927325,4.6513315836588545,1.6888762765059758e+18,17.454975748697915,-1.3286319375038147,-3.872173031171163,4.011246562004089,,,,,,,,,,,,1.6888762764960307e+18,17.445030712890624,-43.94195938110352,15.61599941253662,-23.721678924560543,1.6888762764960307e+18,17.445030712890624,-299.56854858398435,110.4709976196289,-156.84807739257812,1.6888762764973294e+18,17.44632958984375,0.8717905084292094,-0.3995311061541239,0.2577886382738749,0.1100286692380904,-0.7781452735265096,0.696265439192454,-2.5957663853963218
2.5,1.6888762765578842e+18,17.506883951822918,-8.828305006027222,9.02340571085612,-6.257497866948445,1.6888762765578842e+18,17.506883951822918,-3.809174140294393,2.8683961232503257,-0.4143571009238561,1.6888762765578842e+18,17.506883951822918,4.9963297843933105,-6.139264424641927,5.778427282969157,1.6888762765535537e+18,17.502553629557294,0.2109012305736541,1.4684691429138184,-2.8996755083402,1.6888762765578842e+18,17.506883951822918,0.3612249791622162,2.0254764075701437,-3.332422653834025,,,,,,,,,,,,1.6888762765460362e+18,17.495036279296876,-42.548719024658205,10.506639862060547,-29.3653995513916,1.6888762765460362e+18,17.495036279296876,-298.17531127929686,105.36163940429688,-162.491796875,1.6888762765492303e+18,17.49823038736979,0.8692407608032227,-0.382328341404597,0.2932461698849996,0.1075522129734356,-0.8369088768959045,0.6459587216377258,-2.5995961825052896
2.55,1.6888762766011315e+18,17.550131591796877,9.53015637397766,2.034800291061402,1.286297082901001,1.6888762766011315e+18,17.550131591796877,14.6440749168396,-4.998606443405151,5.928218126296997,1.6888762766011315e+18,17.550131591796877,5.091116905212402,-7.0176615715026855,4.577207565307617,1.6888762766054607e+18,17.554460693359374,0.6834054986635844,3.694360295931498,-2.3604851166407266,1.6888762766011315e+18,17.550131591796877,0.8540659546852112,5.264131307601929,-2.1822397708892822,1.6888762765924756e+18,17.5414755859375,0.0,0.0,1.3313840627670288,19.87299919128418,2.131030797958374,177.3014373779297,23.100000381469727,-122.7500728,49.1926453,1.6888762765960364e+18,17.54503642578125,-43.89315948486328,17.831520080566406,-22.83351936340332,1.6888762765960364e+18,17.54503642578125,-299.51975708007814,112.68651733398436,-155.95992126464844,1.68887627660114e+18,17.55013981119792,0.8600836396217346,-0.4462235073248545,0.1871894299983978,0.1576286206642786,-0.7167134284973145,0.7889450192451477,-2.470515171686808
2.6,1.688876276644386e+18,17.593385986328126,-11.245385328928627,2.852255344390869,-2.435657501220703,1.688876276644386e+18,17.593385986328126,-6.989833548665047,-4.851447900136312,1.9637097318967185,1.688876276644386e+18,17.593385986328126,4.232750654220581,-7.6879580815633135,4.3346536954243975,1.6888762766573637e+18,17.60636385091146,0.984867493311564,-0.1962404648462931,-3.71268622080485,1.688876276644386e+18,17.593385986328126,0.721584548552831,-0.963792641957601,-3.549177885055542,,,,,,,,,,,,1.688876276646037e+18,17.59503681640625,-43.25631942749023,24.0705997467041,-17.543599700927736,1.688876276646037e+18,17.59503681640625,-298.88291015625,118.92559661865236,-150.6699951171875,1.6888762766530348e+18,17.602034667968752,0.8277947107950846,-0.5129951437314352,0.1592322538296381,0.1588150014479954,-0.7945454716682434,0.9258941014607748,-2.347748200098674
2.65,1.6888762766962906e+18,17.645290690104165,-12.412006060282389,-6.716012954711914,3.5511388778686523,1.6888762766962906e+18,17.645290690104165,-9.992427110671995,-15.455440839131674,7.29392147064209,1.6888762766962906e+18,17.645290690104165,2.3967772722244263,-8.723682721455893,3.6780691941579184,1.6888762767006188e+18,17.64961865234375,-0.3742313310503959,5.527566909790039,-8.921534061431885,1.6888762766962906e+18,17.645290690104165,-0.03049236536026,4.391357501347859,-7.49333135286967,,,,,,,,,,,,1.688876276696036e+18,17.645036181640627,-37.38079833984375,33.73055839538574,-13.986079788208007,1.688876276696036e+18,17.645036181640627,-293.00739135742185,128.58555908203124,-147.1124755859375,1.6888762767049434e+18,17.653943359375003,0.7440956830978394,-0.6260413924853007,0.0572843365371227,0.2119529396295547,-1.0830076932907104,1.1356793244679768,-1.8343980709711711
2.7,1.6888762767481897e+18,17.697189778645832,-11.23710282643636,-21.790189107259113,1.5392543474833171,1.6888762767481897e+18,17.697189778645832,-12.517852465311686,-30.77010377248128,5.291129032770793,1.6888762767481897e+18,17.697189778645832,-1.3035508195559184,-8.964168866475424,3.6871612071990967,1.6888762767438705e+18,17.692870442708333,-0.1254819184541702,0.5568036735057831,-7.374059836069743,1.6888762767481897e+18,17.697189778645832,0.1138754685719807,0.53450708091259,-6.884044011433919,,,,,,,,,,,,1.6888762767460344e+18,17.695034277343748,-17.81443977355957,47.02123870849609,-10.11623992919922,1.6888762767460344e+18,17.695034277343748,-273.4410400390625,141.87623596191406,-143.24263610839844,1.6888762767568453e+18,17.70584529622396,0.5962620377540588,-0.7628570199012756,-0.0174278998747467,0.246566355228424,-2.000734051068624,1.1613799730936687,-0.7571162184079488
2.75,1.688876276800093e+18,17.749092936197915,21.099841435750324,-23.645217259724937,-13.41908836364746,1.688876276800093e+18,17.749092936197915,16.687744617462158,-31.76013437906901,-10.24646504720052,1.688876276800093e+18,17.749092936197915,-4.434898853302002,-8.099170843760172,3.107909599939982,1.68887627679577e+18,17.74476993815104,1.024471910049518,-0.2593123118082682,-7.731517632802327,1.688876276800093e+18,17.749092936197915,0.8930849954485893,-0.2058615572750568,-7.72556193669637,,,,,,,,,,,,1.6888762767960374e+18,17.745037353515624,0.7027200937271114,50.37867889404297,-7.032079792022705,1.6888762767960374e+18,17.745037353515624,-254.9238739013672,145.23367309570312,-140.15847778320312,1.688876276800088e+18,17.749088134765625,0.4721807539463043,-0.8508928120136261,-0.0741937234997749,0.2146263420581817,-2.5633914470672607,0.9893758296966552,-0.1483442559838294
2.8,1.6888762768519987e+18,17.800998860677083,10.913254102071129,3.255126953125,8.446125348409018,1.6888762768519987e+18,17.800998860677083,5.032504936059316,-3.9726834297180176,11.569098154703775,1.6888762768519987e+18,17.800998860677083,-5.903550465901692,-7.21206521987915,3.0582594871520996,1.6888762768476692e+18,17.79666935221354,0.9653197874625524,0.7406231959660848,-1.7630079984664917,1.6888762768519987e+18,17.800998860677083,0.8727737019459406,0.1258382399876912,-1.2224431832631428,,,,,,,,,,,,1.688876276846036e+18,17.79503603515625,14.061719703674315,49.507599639892575,-5.611999893188477,1.688876276846036e+18,17.79503603515625,-241.56487731933595,144.36260070800782,-138.73839416503907,1.6888762768433523e+18,17.79235245768229,0.3941563566525777,-0.8832972248395284,-0.1192651664217312,0.2233137190341949,-2.669353405634562,0.8476157188415527,0.0518619950550297
2.85,1.688876276903905e+18,17.852904947916667,17.74855327606201,5.812736829121907,-13.894693374633787,1.688876276903905e+18,17.852904947916667,12.819148619969686,-2.052244186401367,-10.731809457143148,1.688876276903905e+18,17.852904947916667,-4.952205499013265,-7.849235852559407,3.098170439402262,1.688876276899582e+18,17.848581787109374,0.1966477011640867,2.618626435597738,3.1253902912139893,1.688876276903905e+18,17.852904947916667,0.3982332249482472,3.3513086636861167,3.1608203252156577,,,,,,,,,,,,1.6888762768960353e+18,17.845035107421875,10.47003984451294,50.25179901123047,-4.728719902038574,1.6888762768960353e+18,17.845035107421875,-245.15655517578125,145.10679626464844,-137.85511779785156,1.6888762768952553e+18,17.844255126953126,0.4274413188298543,-0.8666486938794454,-0.1171156416336695,0.226117119193077,-2.635584751764933,0.9181650280952454,0.0121930951718241
2.9,1.6888762769558085e+18,17.90480859375,-1.437690258026123,6.911494890848796,-5.200346072514852,1.6888762769558085e+18,17.90480859375,-4.785645483682553,-1.803390721480052,-2.1282162765661874,1.6888762769558085e+18,17.90480859375,-3.3707566261291504,-8.699140230814615,3.007416327794393,1.688876276951485e+18,17.900484700520835,0.5543602009614309,-2.0953187545140586,3.6093482971191406,1.6888762769558085e+18,17.90480859375,0.3329724570115407,-2.732858349879583,3.747251113255819,,,,,,,,,,,,1.6888762769460357e+18,17.895035791015623,1.385919988155365,51.12531967163086,-3.03779993057251,1.6888762769460357e+18,17.895035791015623,-254.2406799316406,145.98031616210938,-136.16419982910156,1.688876276947151e+18,17.896151041666666,0.4965829054514567,-0.8116771578788757,-0.1408020953337351,0.2714259127775827,-2.4406524499257407,1.08325191338857,-0.0901956309874851
2.95,1.688876277007706e+18,17.956706217447916,3.1558806896209717,-18.56144650777181,-0.5974709987640381,1.688876277007706e+18,17.956706217447916,1.8955142895380657,-27.839892705281574,2.294318159421285,1.688876277007706e+18,17.956706217447916,-1.283167988061905,-9.26270071665446,2.827075640360514,1.688876277003386e+18,17.952385904947917,-0.3433062434196472,-1.3416637182235718,6.2396829922993975,1.688876277007706e+18,17.956706217447916,-0.2495384663343429,-1.207018832365672,6.494006633758545,,,,,,,,,,,,1.6888762769960348e+18,17.945034814453123,-9.933239841461182,49.795519256591795,-4.489599895477295,1.6888762769960348e+18,17.945034814453123,-265.55983276367186,144.6505126953125,-137.61599731445312,1.6888762769990615e+18,17.948061686197917,0.5996450384457906,-0.7619126240412394,-0.0663280102113881,0.2312061190605163,-2.103801647822062,1.2332413991292317,-0.60740926861763
3.0,1.688876277050965e+18,17.99996520996094,6.953920811414719,-36.53742599487305,11.049743175506592,1.688876277050965e+18,17.99996520996094,8.26869729720056,-45.64010047912598,14.51875066757202,1.688876277050965e+18,17.99996520996094,1.2919743657112122,-9.086928367614746,3.40429425239563,1.6888762770552916e+18,18.004291748046874,-2.2117903232574463,-2.8081984321276345,8.53791077931722,1.688876277050965e+18,17.99996520996094,-3.087694764137268,-4.241619348526001,7.801360130310059,,,,,,,,,,,,1.6888762770460344e+18,17.995034521484374,-26.027479553222655,43.54911880493164,-8.232559776306152,1.6888762770460344e+18,17.995034521484374,-281.65407104492186,138.40411376953125,-141.35895385742188,1.6888762770509622e+18,17.99996232096354,0.7276910146077474,-0.6465517481168112,0.0345482714474201,0.2157082508007685,-1.175245503584544,1.187880913416545,-1.704813838005066
3.05,1.688876277094218e+18,18.043218180338545,-6.513698577880859,-14.277705192565918,-0.8274397850036621,1.688876277094218e+18,18.043218180338545,-2.142174561818441,-22.07498613993327,3.240480105082194,1.688876277094218e+18,18.043218180338545,4.348722219467163,-7.781535307566325,4.003206332524617,1.6888762771071951e+18,18.05619523111979,-0.5065091152985891,-2.6231062610944114,7.080691973368327,1.688876277094218e+18,18.043218180338545,-0.3774638175964355,-0.9725483457247416,8.170017083485922,1.6888762771053583e+18,18.0543583984375,0.0,0.0,1.3313840627670288,19.749000549316406,2.3316171169281006,176.68983459472656,23.100000381469727,-122.7500686,49.1926294,1.688876277096039e+18,18.045038818359377,-41.53855895996094,27.95019989013672,-14.325239753723144,1.688876277096039e+18,18.045038818359377,-297.16514892578124,122.80519561767578,-147.4516387939453,1.6888762771028692e+18,18.05186922200521,0.8428349693616232,-0.4817561705907185,0.1287862186630566,0.1958871483802795,-0.6877769033114115,0.868182897567749,-2.353417078653971
3.1,1.688876277146121e+18,18.095120930989584,-12.587381521860758,18.584733486175537,-9.211106618245443,1.688876277146121e+18,18.095120930989584,-7.065805733203889,12.771690527598064,-3.5124643047650657,1.688876277146121e+18,18.095120930989584,5.4987742106119795,-5.797298272450765,5.633928616841634,1.688876277150448e+18,18.099448120117188,-1.8500054478645325,-5.213658452033997,5.349957823753357,1.688876277146121e+18,18.095120930989584,-1.6690874894460042,-4.926679094632466,5.426468849182129,,,,,,,,,,,,1.6888762771460357e+18,18.09503544921875,-44.87647933959961,12.565999698638915,-23.17267951965332,1.6888762771460357e+18,18.09503544921875,-300.503076171875,107.4209976196289,-156.299072265625,1.6888762771547727e+18,18.10377254231771,0.8772828777631124,-0.36087500055631,0.2781166483958562,0.1453984926144281,-0.7942048708597819,0.5866210063298544,-2.56189759572347
3.15,1.6888762771980216e+18,18.147021728515625,-19.444560368855793,5.845875263214111,-9.91838518778483,1.6888762771980216e+18,18.147021728515625,-13.953147093454996,1.0394821961720784,-3.274577776590983,1.6888762771980216e+18,18.147021728515625,5.468611876169841,-4.790647665659587,6.579093933105469,1.6888762771936975e+18,18.14269775390625,-0.9587020625670752,-0.9767226222902536,-0.1061378667751948,1.6888762771980216e+18,18.147021728515625,-0.7855218052864075,-0.9083057095607122,-0.680911143620809,,,,,,,,,,,,1.688876277196034e+18,18.145034130859376,-43.229479217529295,4.082119989395141,-29.73383903503418,1.688876277196034e+18,18.145034130859376,-298.85606689453124,98.93711853027344,-162.86023864746093,1.68887627720667e+18,18.155670084635418,0.8701233267784119,-0.3377684156099954,0.3241595029830932,0.1524787793556848,-0.8720916906992594,0.5107743938763937,-2.5519710381825766
3.2,1.688876277249925e+18,18.19892521158854,4.565959056218465,3.212334473927816,-4.289251645406087,1.688876277249925e+18,18.19892521158854,9.673185189565023,-2.959522763888041,1.4095719655354817,1.688876277249925e+18,18.19892521158854,5.084424177805583,-6.15611203511556,5.634110291798909,1.6888762772456046e+18,18.19460457356771,2.106314261754354,4.7905071179072065,-4.599153518676758,1.688876277249925e+18,18.19892521158854,2.232661565144857,5.047274033228557,-4.440837542215983,,,,,,,,,,,,1.6888762772460385e+18,18.19503857421875,-43.19043960571289,10.562759590148923,-27.437799072265623,1.6888762772460385e+18,18.19503857421875,-298.81703491210936,105.41775817871094,-160.56419982910157,1.68887627725858e+18,18.207579833984376,0.8581346670786539,-0.4250210722287496,0.2194192161162693,0.1795939852794011,-0.7738671898841858,0.710874875386556,-2.430961529413859
3.25,1.6888762773018222e+18,18.250822021484375,-5.018839756647746,-0.1299131711324056,-3.938928206761678,1.6888762773018222e+18,18.250822021484375,-0.3082749843597412,-7.486544132232666,0.6273184617360433,1.6888762773018222e+18,18.250822021484375,4.687763055165608,-7.3408857981363935,4.501533031463623,1.6888762772975084e+18,18.24650846354167,1.3066916267077129,-0.2955569724241892,-1.8731165130933125,1.6888762773018222e+18,18.250822021484375,1.0703377326329548,-0.5564473072687786,-1.9579758246739705,,,,,,,,,,,,1.6888762772960325e+18,18.245032128906253,-44.38359832763672,20.964479064941408,-18.778239440917968,1.6888762772960325e+18,18.245032128906253,-300.01019287109375,115.81947631835938,-151.90463256835938,1.6888762773018327e+18,18.250832763671873,0.848023533821106,-0.4730048328638077,0.1755995377898216,0.1619113832712173,-0.7431548237800598,0.8411809206008911,-2.419179081916809
