seconds_elapsed_rounded,accelerometer_time,accelerometer_seconds_elapsed,accelerometer_z,accelerometer_y,accelerometer_x,accelerometeruncalibrated_time,accelerometeruncalibrated_seconds_elapsed,accelerometeruncalibrated_z,accelerometeruncalibrated_y,accelerometeruncalibrated_x,gravity_time,gravity_seconds_elapsed,gravity_z,gravity_y,gravity_x,gyroscope_time,gyroscope_seconds_elapsed,gyroscope_z,gyroscope_y,gyroscope_x,gyroscopeuncalibrated_time,gyroscopeuncalibrated_seconds_elapsed,gyroscopeuncalibrated_z,gyroscopeuncalibrated_y,gyroscopeuncalibrated_x,location_time,location_seconds_elapsed,location_bearingAccuracy,location_speedAccuracy,location_verticalAccuracy,location_horizontalAccuracy,location_speed,location_bearing,location_altitude,location_longitude,location_latitude,magnetometer_time,magnetometer_seconds_elapsed,magnetometer_z,magnetometer_y,magnetometer_x,magnetometeruncalibrated_time,magnetometeruncalibrated_seconds_elapsed,magnetometeruncalibrated_z,magnetometeruncalibrated_y,magnetometeruncalibrated_x,orientation_time,orientation_seconds_elapsed,orientation_qz,orientation_qy,orientation_qx,orientation_qw,orientation_roll,orientation_pitch,orientation_yaw,totalacceleration_time,totalacceleration_seconds_elapsed,totalacceleration_z,totalacceleration_y,totalacceleration_x
-0.30000000000000004,,,,,,,,,,,,,,,,,,,,,,,,,,,,,,,,,,,,,,,,,,,,,,,,,,,,,,,,1.688686202262552e+18,-0.26144775390624997,9.105886936187744,3.739084482192993,-0.9544371366500854
-0.2,,,,,,,,,,,,,,,,,,,,,,,,,,,,,,,,,,,,,,,,,,,,,,,,,,,,,,,,1.6886862023231158e+18,-0.200884228515625,8.775437545776366,3.7854454040527346,-1.0448260068893434
-0.1,,,,,,,,,,,,,,,,,,,,,,,,,,,,,,,,,,,,,,,,,,,,,,,,,,,,,,,,1.68868620241831e+18,-0.105690185546875,8.709674994150797,3.84626297156016,-1.4352947572867076
-0.0,,,,,,,,,,,,,,,,,,,,,,,,,,,,,,,,,,,,,,,,,,,,,,,,,,,,,,,,1.6886862025221386e+18,-0.0018612467447916663,9.174281438191732,3.3919257720311484,-0.4859423985083898
0.1,,,,,,1.6886862026432591e+18,0.11925903320312499,9.240283330281574,2.8043881257375083,-0.7326025168100992,,,,,,1.6886862026302794e+18,0.10627950032552085,0.05339980373779931,-0.11298461304977538,-0.7651850779851278,1.6886862026346043e+18,0.110604248046875,0.10735956626012923,-0.06070473184809087,-0.8143979012966156,,,,,,,,,,,,1.688686202638846e+18,0.11484588623046875,-42.817424297332764,-20.79337453842163,-13.470324754714966,1.688686202638846e+18,0.11484588623046875,-298.1634178161621,74.23242378234863,-146.19412422180176,,,,,,,,,,1.6886862026432591e+18,0.11925903320312499,9.234301567077637,2.8217360973358154,-0.795414129892985
0.2,1.6886862027297892e+18,0.2057889811197917,0.3102971712748209,-0.432198166847229,0.2797906100749969,1.6886862027211366e+18,0.19713667805989585,9.705886681874594,2.2047866582870483,-0.4940181722243627,1.6886862027297892e+18,0.2057889811197917,9.420949935913086,2.6151074171066284,-0.7981113394101461,1.6886862027254564e+18,0.201456494140625,0.02837469037622218,0.01258382406085726,-0.30338622629642487,1.6886862027211366e+18,0.19713667805989585,0.04517857559646171,0.017740545018265618,-0.3370703508456548,,,,,,,,,,,,1.6886862027288527e+18,0.204852685546875,-43.65159912109375,-18.353679847717284,-13.993399620056152,1.6886862027288527e+18,0.204852685546875,-298.9975891113281,76.67211837768555,-146.71719665527343,1.6886862027297892e+18,0.2057889811197917,-0.8370414276917776,-0.09185243522127466,0.10666325564185775,0.5287076930205027,0.08460022384921706,-0.2698223491509755,2.026365319887797,1.6886862027211366e+18,0.19713667805989585,9.699904918670654,2.2221346298853555,-0.5568297654390335
0.30000000000000004,1.6886862028249646e+18,0.30096445312500003,0.26566886901855463,-0.5979918956756591,0.594225287437439,1.6886862028249674e+18,0.3009674886067708,9.733005523681639,1.8912272254625957,-0.12522438715677708,1.6886862028249646e+18,0.30096445312500003,9.457821464538572,2.4846498012542724,-0.782296621799469,1.6886862028206415e+18,0.2966413167317708,-0.021456641921152615,-0.03306308109313245,-0.06813692860305302,1.6886862028249674e+18,0.3009674886067708,-0.02356921726216867,-0.02797253802418705,-0.05991569906473155,,,,,,,,,,,,1.688686202828851e+18,0.304850927734375,-44.7520393371582,-17.344739723205567,-14.543619537353516,1.688686202828851e+18,0.304850927734375,-300.09803466796876,77.68105850219726,-147.26741638183594,1.6886862028249646e+18,0.30096445312500003,-0.838083004951477,-0.0865697786211967,0.10225122720003124,0.5288350343704223,0.082611633837223,-0.2560421645641327,2.0264206886291505,1.6886862028249674e+18,0.3009674886067708,9.727023283640543,1.908575137456258,-0.18803597831477722
0.4,1.688686202920144e+18,0.3961438395182291,0.23305082321166992,-0.5456827481587728,0.8248597979545593,1.688686202928795e+18,0.4047950846354167,9.732606728871664,1.8307087222735088,0.0981057286262512,1.688686202920144e+18,0.3961438395182291,9.47436793645223,2.422510107358297,-0.7766797741254171,1.6886862029244695e+18,0.4004696858723958,-0.0372627802037944,-0.0010181087660991002,-0.07348199871679141,1.688686202928795e+18,0.4047950846354167,-0.037237327080219935,0.0024180083613221837,-0.07073310514291123,,,,,,,,,,,,1.6886862029288494e+18,0.40484931640625,-44.63613929748535,-17.11415958404541,-14.520439720153808,1.6886862029288494e+18,0.40484931640625,-299.9821319580078,77.91163940429688,-147.24423522949218,1.688686202920144e+18,0.3961438395182291,-0.8393022119998932,-0.08414795001347852,0.10012198363741237,0.527697334686915,0.08187852675716079,-0.24950019766887024,2.0293062925338745,1.688686202928795e+18,0.4047950846354167,9.726624329884848,1.848056674003601,0.035294134169816964
0.5,1.6886862030239775e+18,0.49997733561197916,0.2736139297485351,-0.7188150684038798,0.7257407307624817,1.6886862030239744e+18,0.4999743164062499,9.775278663635254,1.6334603548049926,0.04989035259932276,1.6886862030239775e+18,0.49997733561197916,9.487942377726236,2.37978986899058,-0.7423663238684336,1.688686203028304e+18,0.504303955078125,-0.03667736674348509,-0.07590000672886764,0.006388632580637915,1.6886862030239744e+18,0.4999743164062499,-0.03384193442761892,-0.08057312667369838,0.007849618420004839,,,,,,,,,,,,1.6886862030288522e+18,0.5048521728515625,-44.84475975036621,-17.02387924194336,-14.890099716186523,1.6886862030288522e+18,0.5048521728515625,-300.1907562255859,78.00191879272461,-147.61389923095703,1.6886862030239775e+18,0.49997733561197916,-0.8404472370942434,-0.08335461591680839,0.09728977580865221,0.5265292922655741,0.07816841825842852,-0.24500772853692368,2.031885584195455,1.6886862030239744e+18,0.4999743164062499,9.769296836853028,1.6508083581924438,-0.01292124278843404
0.6000000000000001,1.6886862031278052e+18,0.6038052978515625,0.05218887329101557,-0.5033708810806274,0.6269382337729136,1.6886862031191534e+18,0.595153564453125,9.55055284500122,1.8622142275174458,-0.007477571256458748,1.6886862031278052e+18,0.6038052978515625,9.485937436421713,2.3991413911183677,-0.7049796084562937,1.688686203123481e+18,0.5994809570312499,-0.1123992040753364,-0.05592471286654466,0.02782491184771056,1.6886862031191534e+18,0.595153564453125,-0.10674870138367014,-0.051898093583683115,0.025554528459906533,,,,,,,,,,,,1.688686203128853e+18,0.604852783203125,-44.725199127197264,-17.07023983001709,-14.892539691925048,1.688686203128853e+18,0.604852783203125,-300.0711975097656,77.95556030273437,-147.61633758544923,1.6886862031278052e+18,0.6038052978515625,-0.8427351514498392,-0.08564842492341994,0.09581389029820757,0.5227594574292501,0.07426620647311205,-0.24704099446535108,2.040373961130778,1.6886862031191534e+18,0.595153564453125,9.544570763905844,1.8795621991157532,-0.07028916509201125
0.7000000000000001,1.688686203222984e+18,0.698983837890625,0.17155265808105466,-0.46092798709869387,0.5986208081245422,1.688686203222984e+18,0.6989841715494792,9.678269863128662,1.888934055964152,0.016749759049465286,1.688686203222984e+18,0.698983837890625,9.499535179138183,2.3650534629821776,-0.6334318399429322,1.688686203218661e+18,0.6946611328125001,-0.036066501711805594,-0.06482807414916655,-0.052101714226106745,1.688686203222984e+18,0.6989841715494792,-0.03754276006172095,-0.05072726868093012,-0.0511090595585604,,,,,,,,,,,,1.6886862032288507e+18,0.704850830078125,-44.462899398803714,-17.154419898986816,-15.10847978591919,1.6886862032288507e+18,0.704850830078125,-299.80889587402345,77.87137908935547,-147.8322769165039,1.688686203222984e+18,0.698983837890625,-0.8449084997177124,-0.08639739602804179,0.09142386615276332,0.5199097037315369,0.06666568666696544,-0.24345847070217128,2.046500015258789,1.688686203222984e+18,0.6989841715494792,9.672287464141846,1.9062820672988892,-0.046061835406968954
0.8,1.6886862033181652e+18,0.7941652018229167,0.3624421755472819,-0.6622448960940043,0.22529795269171393,1.6886862033268175e+18,0.8028177490234375,9.850353558858236,1.6550356547037761,-0.4300101697444916,1.6886862033181652e+18,0.7941652018229167,9.506890932718912,2.3170382579167685,-0.696460117896398,1.6886862033224942e+18,0.7984943033854166,-0.08460483700036998,0.08002334608075519,0.02000583832462628,1.6886862033268175e+18,0.8028177490234375,-0.08175413240678601,0.08004879796256621,0.03382666222751141,1.688686203343e+18,0.819,0.0,0.0,1.0,12.098999977111816,0.0,0.0,40.20000076293945,-122.753201,49.190391,1.6886862033288515e+18,0.8048515625,-44.87647895812988,-17.147099494934082,-14.908399772644042,1.6886862033288515e+18,0.8048515625,-300.22247314453125,77.87869796752929,-147.63219757080077,1.6886862033181652e+18,0.7941652018229167,-0.846550464630127,-0.08285054067770635,0.09263575325409568,0.5175925493240356,0.07321091368794437,-0.23841820408900574,2.0528260866800943,1.6886862033268175e+18,0.8028177490234375,9.844371636708578,1.6723836263020833,-0.492821770409743
0.9,1.688686203421994e+18,0.8979939371744793,-0.054257710774739586,-0.325730820496877,0.6119059671958288,1.6886862034306465e+18,0.9066465250651041,9.437990347544352,2.0332013368606567,-0.004785644666602216,1.688686203421994e+18,0.8979939371744793,9.489492893218994,2.3862073024113974,-0.7009144425392151,1.6886862034263224e+18,0.9023222249348959,0.09840021034081774,-0.013922636707623767,0.009722937674572085,1.6886862034306465e+18,0.9066465250651041,0.09656761400401587,-0.005497786565683766,0.002138027610878167,,,,,,,,,,,,1.6886862034288532e+18,0.9048533935546874,-44.449479293823245,-17.50211982727051,-14.650979804992676,1.6886862034288532e+18,0.9048533935546874,-299.79547119140625,77.5236801147461,-147.3747756958008,1.688686203421994e+18,0.8979939371744793,-0.8458087344964346,-0.08573460827271139,0.09478600944081939,0.5179469287395477,0.07381148387988402,-0.2456804662942886,2.0517802635828652,1.6886862034306465e+18,0.9066465250651041,9.432008425394693,2.0505492885907493,-0.06759723958869772
1.0,1.6886862035258284e+18,1.0018282063802084,0.2329306602478027,-0.4900065263112386,0.445754994948705,1.6886862035258266e+18,1.001826513671875,9.74142017364502,1.8381663322448731,-0.22995025590062138,1.6886862035258284e+18,1.0018282063802084,9.494926611582438,2.35237725575765,-0.7401474018891653,1.6886862035301517e+18,1.0061514892578125,-0.04591670508186017,0.08821912296116347,-0.0179950720630586,1.6886862035258266e+18,1.001826513671875,-0.04844161383807654,0.09941831827163694,-0.02141082650050518,,,,,,,,,,,,1.68868620352885e+18,1.0048498046875,-44.43239898681641,-17.155640029907225,-14.313039779663086,1.68868620352885e+18,1.0048498046875,-299.77838745117185,77.87015838623047,-147.03683624267578,1.6886862035258284e+18,1.0018282063802084,-0.844925045967102,-0.08300184210141497,0.09574492151538527,0.5196563204129537,0.07787718251347538,-0.2421269168456395,2.0482716957728067,1.6886862035258266e+18,1.001826513671875,9.735438346862793,1.8555143356323243,-0.2927618533372879
1.1,1.688686203629658e+18,1.1056579589843751,0.1783804893493652,-0.34527838230133057,0.30957267185052234,1.6886862036210033e+18,1.0970032552083333,9.687342325846354,1.9842481811841328,-0.4164508432149887,1.688686203629658e+18,1.1056579589843751,9.489257653554281,2.3596930503845215,-0.7886112332344055,1.6886862036253348e+18,1.101334912109375,-0.0438295811414718,-0.00681114718317984,0.02324342206120484,1.6886862036210033e+18,1.0970032552083333,-0.046043968449036236,0.0066431595478207,0.026521732720235933,,,,,,,,,,,,1.6886862036288515e+18,1.1048513427734377,-44.86793937683105,-17.265439605712892,-14.425279712677002,1.6886862036288515e+18,1.1048513427734377,-300.2139373779297,77.76035766601562,-147.14907684326172,1.688686203629658e+18,1.1056579589843751,-0.8459576765696207,-0.08224746460715927,0.09789314245184257,0.517694354057312,0.08299797152479486,-0.24289460976918534,2.0533902247746787,1.6886862036210033e+18,1.0970032552083333,9.681360403696695,2.00159615278244,-0.47926244139671326
1.2000000000000002,1.688686203724838e+18,1.200837939453125,0.11597042083740232,-0.3448650360107422,0.1597343325614929,1.6886862037248381e+18,1.2008382568359375,9.600801944732666,2.031007925669352,-0.5987041592597961,1.688686203724838e+18,1.200837939453125,9.477230644226074,2.39495267868042,-0.8257719516754151,1.6886862037205097e+18,1.1965097656249999,-0.015729779726825634,0.054163385803500746,0.059330286458134596,1.6886862037248381e+18,1.2008382568359375,-0.0132863187852005,0.05724316338698065,0.062384612237413685,,,,,,,,,,,,1.688686203728852e+18,1.204851953125,-44.65809936523438,-17.576539611816408,-14.193479824066163,1.688686203728852e+18,1.204851953125,-300.0040985107422,77.4492576599121,-146.91727752685546,1.688686203724838e+18,1.200837939453125,-0.8464456081390381,-0.0829681262373924,0.10037875324487681,0.5163031458854676,0.08699587881565089,-0.24659946262836452,2.056951379776001,1.6886862037248381e+18,1.2008382568359375,9.594820181528727,2.0483559370040894,-0.6615157624085745
1.3,1.6886862038200138e+18,1.2960139567057292,0.09115139643351233,-0.4354468782742818,0.21822135647137952,1.6886862038286656e+18,1.3046657307942708,9.555537859598795,1.986242155234019,-0.5416752348343531,1.6886862038200138e+18,1.2960139567057292,9.464123725891113,2.4416860739390054,-0.8393337428569794,1.6886862038243423e+18,1.3003422037760417,0.06101016514003271,0.009061167792727566,0.041335214550296435,1.6886862038286656e+18,1.3046657307942708,0.06067927988866961,0.013973543071188017,0.043498696138461385,,,,,,,,,,,,1.6886862038288494e+18,1.3048494140625002,-44.68371849060058,-17.67169952392578,-14.08367977142334,1.6886862038288494e+18,1.3048494140625002,-300.02971801757815,77.35409927368164,-146.80747680664064,1.6886862038200138e+18,1.2960139567057292,-0.8453357021013895,-0.08452201882998145,0.10239459450046218,0.5174724757671356,0.08853659157951667,-0.2515152593453725,2.0541814963022866,1.6886862038286656e+18,1.3046657307942708,9.549555778503418,2.003590166568756,-0.6044868032137553
1.4000000000000001,1.688686203923846e+18,1.3998458251953123,0.03973054885864255,-0.4197048346201579,0.39328011373678845,1.688686203923847e+18,1.399846923828125,9.503573799133301,2.0382063150405885,-0.3931407630443573,1.688686203923846e+18,1.3998458251953123,9.454029083251953,2.477688789367676,-0.847592850526174,1.6886862039281756e+18,1.4041756998697916,0.06174829540153338,0.035455637611448716,0.026598090461144783,1.688686203923847e+18,1.399846923828125,0.06154467537999146,0.0401338461786508,0.02678644135594364,,,,,,,,,,,,1.688686203928854e+18,1.4048541748046874,-44.82157897949219,-17.885199356079102,-14.431379699707032,1.688686203928854e+18,1.4048541748046874,-300.1675689697266,77.14059906005859,-147.15517578125,1.688686203923846e+18,1.3998458251953123,-0.8432812293370565,-0.08553479487697278,0.10405318439006798,0.5203193326791128,0.08949732656280196,-0.2553069194157918,2.0474104086558023,1.688686203923847e+18,1.399846923828125,9.497591590881347,2.0555542945861816,-0.4559523582458496
1.5,1.6886862040276767e+18,1.5036766764322917,0.036709626515706334,-0.44256458679835003,0.5167388121287028,1.6886862040190246e+18,1.4950244954427083,9.487342357635498,2.045265177885691,-0.28773692250251764,1.6886862040276767e+18,1.5036766764322917,9.448076725006104,2.4926721652348838,-0.8697553873062134,1.6886862040233485e+18,1.499348583984375,0.0580016545951366,0.04459316357970232,-0.0072692962363361795,1.6886862040190246e+18,1.4950244954427083,0.055461473142107275,0.04973461292684073,0.0008908452000469337,,,,,,,,,,,,1.6886862040288507e+18,1.5048507568359375,-45.03751983642578,-17.661940002441405,-14.247159671783447,1.6886862040288507e+18,1.5048507568359375,-300.3835113525391,77.36385879516601,-146.97095489501953,1.6886862040276767e+18,1.5036766764322917,-0.8413190444310507,-0.08523487051328016,0.10574395085374515,0.5231961905956268,0.09187994524836535,-0.2568861146767934,2.0407679080963135,1.6886862040190246e+18,1.4950244954427083,9.48136043548584,2.062613089879354,-0.35054851571718854
1.6,1.688686204122855e+18,1.598855029296875,-0.15807018280029292,-0.4823089599609375,0.6433177709579467,1.6886862041228577e+18,1.5988577880859376,9.278867562611898,2.0257237553596497,-0.2621137822667758,1.688686204122855e+18,1.598855029296875,9.433145713806152,2.512895107269287,-0.9663442969322205,1.6886862041185308e+18,1.5945307210286461,0.0673224395141005,0.2354885526001453,0.05813400944073991,1.6886862041228577e+18,1.5988577880859376,0.0713185152659813,0.25595253830154735,0.06569346599280829,,,,,,,,,,,,1.6886862041288512e+18,1.6048512451171875,-45.07533912658691,-17.70341968536377,-13.750619983673095,1.6886862041288512e+18,1.6048512451171875,-300.42133178710935,77.32237854003907,-146.47441711425782,1.688686204122855e+18,1.598855029296875,-0.8393522143363953,-0.08317629694938658,0.11081685125827785,0.5256210923194885,0.10217102169990536,-0.25901846289634706,2.035959482192993,1.6886862041228577e+18,1.5988577880859376,9.272885799407957,2.043071746826172,-0.3249253729979197
1.7000000000000002,1.6886862042180355e+18,1.6940353190104167,-0.6203732490539551,-0.39693955580393475,0.7436387538909912,1.6886862042266862e+18,1.7026864827473958,8.72413158416748,2.251347025235494,-0.5020939509073893,1.6886862042180355e+18,1.6940353190104167,9.366575241088867,2.619330366452535,-1.277213712533315,1.6886862042223636e+18,1.6983635660807292,0.1233947798609733,0.3685808156927426,0.1721876387794812,1.6886862042266862e+18,1.7026864827473958,0.12224940707286196,0.3677663306395213,0.1910226518909136,1.688686204175e+18,1.651,0.0,0.0,0.9921245574951172,11.836000442504885,0.0544905252754688,0.0,40.20000076293945,-122.7532054,49.1903883,1.6886862042288494e+18,1.7048494384765625,-45.42547874450683,-18.24875965118408,-12.19267988204956,1.6886862042288494e+18,1.7048494384765625,-300.77147521972654,76.7770393371582,-144.9164779663086,1.6886862042180355e+18,1.6940353190104167,-0.8339393734931946,-0.07849831630786257,0.12809951230883596,0.5309776862462362,0.13561978687842682,-0.2702620774507522,2.026127258936564,1.6886862042266862e+18,1.7026864827473958,8.718149662017822,2.2686949372291565,-0.5649055441220602
1.8,1.688686204321864e+18,1.7978638916015626,-0.2524441083272298,-0.46462492148081463,0.7669552663962046,1.6886862043305206e+18,1.8065204671223958,9.106185595194498,2.5922245581944785,-0.9367900490760803,1.688686204321864e+18,1.7978638916015626,9.187878449757894,3.015630086263021,-1.6312382618586223,1.6886862043261932e+18,1.8021932779947916,0.3239622021404405,0.5585853656133016,0.6837618350982666,1.6886862043305206e+18,1.8065204671223958,0.3478877680997054,0.5620978424946467,0.7008660584688187,,,,,,,,,,,,1.688686204328855e+18,1.80485517578125,-45.155859375,-19.83109951019287,-10.533479785919189,1.688686204328855e+18,1.80485517578125,-300.50184936523436,75.19469909667968,-143.2572769165039,1.688686204321864e+18,1.7978638916015626,-0.8252132336298624,-0.0848850347101688,0.15601868927478788,0.5359841783841451,0.17590930064519242,-0.3125047087669372,2.0174664656321206,1.6886862043305206e+18,1.8065204671223958,9.10020383199056,2.609572490056356,-0.9996016621589661
1.9000000000000001,1.688686204425699e+18,1.9016991373697916,0.1479767163594564,-0.2570466597874959,0.578336368004481,1.688686204425701e+18,1.9017011718749999,9.083274459838867,3.4072598457336425,-1.1041680335998536,1.688686204425699e+18,1.9016991373697916,8.93142573038737,3.61931836605072,-1.8337461352348328,1.6886862044300227e+18,1.9060227864583332,0.43183082342147827,0.11491902110477288,0.0886263648668925,1.688686204425701e+18,1.9017011718749999,0.4027740001678467,0.13558154478669165,0.0831082195043564,,,,,,,,,,,,1.6886862044288517e+18,1.9048517578125002,-44.24207954406738,-21.85385971069336,-9.719739723205567,1.6886862044288517e+18,1.9048517578125002,-299.58807373046875,73.17193908691407,-142.44353942871095,1.688686204425699e+18,1.9016991373697916,-0.8055104513963064,-0.10137315963705378,0.1857425272464752,0.5534760852654775,0.2025972455739975,-0.3778517146905263,1.9764140446980794,1.688686204425701e+18,1.9017011718749999,9.07729206085205,3.424607753753662,-1.1669796228408813
2.0,1.6886862045295278e+18,2.0055277099609374,0.7405017217000326,-1.0056774814923604,0.27945832411448157,1.6886862045208742e+18,1.996874308268229,9.689834912618002,2.5848466952641806,-1.3829517761866252,1.6886862045295278e+18,2.0055277099609374,8.966119448343912,3.577021598815918,-1.7450377146402996,1.688686204525203e+18,2.0012030761718753,0.3484375327825546,0.18701638877391816,-0.1257771536707878,1.6886862045208742e+18,1.996874308268229,0.3614795083800952,0.19064086768776178,-0.10494156430164969,,,,,,,,,,,,1.6886862045288535e+18,2.004853369140625,-44.79229888916016,-20.777819633483887,-10.017419815063477,1.6886862045288535e+18,2.004853369140625,-300.13829650878904,74.24797897338867,-142.74121856689453,1.6886862045295278e+18,2.0055277099609374,-0.7940657238165537,-0.09813811505834256,0.18266599128643668,0.5713281234105428,0.1923184419671694,-0.3732168823480606,1.9306280414263408,1.6886862045208742e+18,1.996874308268229,9.683852990468344,2.602194627126058,-1.445763389269511
2.1,1.6886862046247096e+18,2.10070966796875,0.8758171081542969,-0.3650923252105712,-0.27442328929901116,1.6886862046247076e+18,2.100707438151042,9.541579882303873,3.2487552165985107,-1.951446572939555,1.6886862046247096e+18,2.10070966796875,8.748849868774414,3.901721143722534,-2.1070288896560667,1.6886862046199593e+18,2.0959593505859373,0.0881936711569627,0.30853785077730816,0.47044260349745554,1.6886862046228452e+18,2.098845418294271,0.07572183944284917,0.28904107709725696,0.4879286276797454,,,,,,,,,,,,1.6886862046288532e+18,2.1048533935546874,-44.137158966064455,-22.338199424743653,-8.442399883270264,1.6886862046288532e+18,2.1048533935546874,-299.4831512451172,72.68759841918946,-141.16619720458985,1.6886862046247096e+18,2.10070966796875,-0.7837055087089538,-0.09934781193733212,0.21010875403881069,0.5759424328804016,0.2364910513162613,-0.40907150506973267,1.9234182357788085,1.6886862046247076e+18,2.100707438151042,9.535597801208496,3.266103188196818,-2.0142581860224404
2.2,1.6886862047198856e+18,2.195885498046875,0.7698624928792318,-0.3951342503229777,0.3956063588460286,1.6886862047285384e+18,2.2045384114583335,9.285248438517252,3.8012978633244834,-1.8810576995213826,1.6886862047198856e+18,2.195885498046875,8.562880039215088,4.197386344273885,-2.287307540575663,1.6886862047198856e+18,2.195885498046875,0.7308239142100016,0.9840784768263499,0.16946420073509216,1.6886862047198856e+18,2.195885498046875,0.7297548900047938,0.9885835908353329,0.17175494196514288,,,,,,,,,,,,1.688686204728853e+18,2.204852880859375,-44.30429878234863,-22.756659317016602,-7.2419198513031,1.688686204728853e+18,2.204852880859375,-299.65029296875,72.26913757324219,-139.96571655273436,1.6886862047198856e+18,2.195885498046875,-0.7628871103127798,-0.099970585356156,0.2309927294651667,0.5951719979445139,0.26125264416138333,-0.4421484172344208,1.8756547967592876,1.6886862047285384e+18,2.2045384114583335,9.279266754786173,3.818645795186361,-1.9438692927360535
2.3000000000000003,1.6886862048237187e+18,2.299718465169271,-0.24127912521362305,-1.0321160554885864,0.45650885502497357,1.6886862048237184e+18,2.2997181640625,7.899305725097657,3.3565320014953612,-2.251765727996826,1.6886862048237187e+18,2.299718465169271,8.368836720784506,4.442842562993367,-2.5325571298599243,1.6886862048237187e+18,2.299718465169271,0.8759807646274567,-0.05324708918730415,-0.30950505534807843,1.6886862048237187e+18,2.299718465169271,0.87491175532341,-0.0487928589185079,-0.3071888710061709,,,,,,,,,,,,1.6886862048288527e+18,2.3048525390625,-44.56659927368164,-22.798139572143555,-5.835259914398193,1.6886862048288527e+18,2.3048525390625,-299.9125946044922,72.22765884399413,-138.5590576171875,1.6886862048237187e+18,2.299718465169271,-0.7319110234578451,-0.09190729384620981,0.2548343886931737,0.6250156362851461,0.29402615626653034,-0.4700118501981099,1.7990521589914958,1.6886862048237184e+18,2.2997181640625,7.893323707580566,3.3738799571990965,-2.314577341079712
2.4000000000000004,1.6886862049275492e+18,2.4035489908854166,0.924271583557129,-1.8497435251871746,2.814729412396749,1.6886862049188974e+18,2.394897420247396,9.785747289657591,2.3660030563672385,0.45114676689263433,1.6886862049275492e+18,2.4035489908854166,8.633496125539144,3.9886846939722695,-2.4001484314600625,1.6886862049275492e+18,2.4035489908854166,-0.41187588808437187,0.1494583524763584,-0.22286401316523555,1.6886862049275492e+18,2.4035489908854166,-0.41294489800930023,0.15393803641200063,-0.22057324958344302,,,,,,,,,,,,1.6886862049288525e+18,2.404852587890625,-45.997659301757814,-19.671279525756837,-6.331799936294556,1.6886862049288525e+18,2.404852587890625,-301.34365234375,75.35451965332031,-139.05559692382812,1.6886862049275492e+18,2.4035489908854166,-0.7232771714528402,-0.0723875078062216,0.2338372319936752,0.6456205348173777,0.27121202150980633,-0.41874461869398755,1.7420347531636555,1.6886862049188974e+18,2.394897420247396,9.779765208562216,2.3833510875701904,0.3883351751913627
2.5,1.6886862050227256e+18,2.49872578125,-1.6095438957214356,-2.961618518829346,1.6336072444915772,1.6886862050227264e+18,2.4987265625,7.168996334075928,0.7364908612022797,-0.4263212460403641,1.6886862050227256e+18,2.49872578125,8.77594451904297,3.829292917251587,-2.116235065460205,1.6886862050227256e+18,2.49872578125,-0.7190189361572266,-1.0071030020713807,-0.4882645793259144,1.6886862050227256e+18,2.49872578125,-0.7200879454612732,-1.0026742041110992,-0.4859738439321518,,,,,,,,,,,,1.6886862050288525e+18,2.5048524658203126,-45.07411994934082,-20.070219802856446,-7.831179904937744,1.6886862050288525e+18,2.5048524658203126,-300.4201141357422,74.9555793762207,-140.5549758911133,1.6886862050227256e+18,2.49872578125,-0.750402319431305,-0.08385717123746868,0.21324032545089716,0.6197245717048645,0.23691291213035579,-0.40108089447021483,1.80947904586792,1.6886862050227264e+18,2.4987265625,7.16301425298055,0.7538388582567374,-0.48913280906466144
2.6,1.6886862051179072e+18,2.593907430013021,-2.0897208054860434,-4.239003658294678,-0.3156910141309103,1.6886862051265567e+18,2.602556681315104,7.263313452402751,-2.1063818534215293,-2.4564318656921387,1.6886862051179072e+18,2.593907430013021,9.293150266011557,2.361193080743154,-1.9791011214256287,1.6886862051179072e+18,2.593907430013021,-0.9914088447888693,-0.2676353380084037,-1.8871663610140483,1.6886862051179072e+18,2.593907430013021,-0.9924778540929159,-0.26318111270666117,-1.8848756154378254,,,,,,,,,,,,1.6886862051288512e+18,2.60485126953125,-46.71013870239258,-14.065379905700684,-8.884039783477784,1.6886862051288512e+18,2.60485126953125,-302.05613098144534,80.96041870117188,-141.60783996582032,1.6886862051179072e+18,2.593907430013021,-0.7844007015228271,-0.03474467768683095,0.15567726641893384,0.5984873572985331,0.21000954260428742,-0.24354389061530426,1.8639127810796101,1.6886862051265567e+18,2.602556681315104,7.257331291834514,-2.0890338917573295,-2.5192434390385947
2.7,1.6886862052217375e+18,2.6977374267578127,0.5580505530039469,-2.8046945333480835,-2.4116205970446267,1.688686205230389e+18,2.706388875325521,10.405887285868326,-3.0431718826293945,-4.801896572113037,1.6886862052217375e+18,2.6977374267578127,9.513575553894043,-0.14829087257385254,-2.2069013913472495,1.6886862052217375e+18,2.6977374267578127,-1.476283113161723,0.8954775395492712,-2.6152159372965493,1.6886862052217375e+18,2.6977374267578127,-1.4773521622021992,0.8999317698180676,-2.612899740537008,,,,,,,,,,,,1.6886862052288532e+18,2.7048533691406247,-48.048479080200195,-3.8027399241924287,-7.368799901008606,1.6886862052288532e+18,2.7048533691406247,-303.39447326660155,91.22305831909179,-140.09259643554688,1.6886862052217375e+18,2.6977374267578127,-0.8175686200459799,0.07085349007199203,0.08988534038265543,0.5622485677401224,0.22811048477888105,0.0152084231376648,1.9338033397992451,1.688686205230389e+18,2.706388875325521,10.39990504582723,-3.0258239110310874,-4.864708026250203
2.8000000000000003,1.688686205325568e+18,2.801567830403646,2.1586753527323403,-1.8308878342310588,-4.613244255383809,1.6886862053255713e+18,2.8015712890625,10.313304901123047,-5.07063045501709,-8.306085681915283,1.688686205325568e+18,2.801567830403646,8.562402884165445,-3.0134243170420327,-3.647652586301168,1.688686205325568e+18,2.801567830403646,-1.2328533232212069,1.5969035426775615,-2.031126936276754,1.688686205325568e+18,2.801567830403646,-1.2339223424593608,1.601332351565361,-2.028836190700531,,,,,,,,,,,,1.6886862053288497e+18,2.804849658203125,-46.90045928955078,6.450139904022217,0.7576199539005757,1.6886862053288497e+18,2.804849658203125,-302.2464538574219,101.47593841552734,-131.96617889404297,1.688686205325568e+18,2.801567830403646,-0.8366794685522715,0.23408482223749158,0.08694001038869216,0.4859117120504379,0.4035165061553319,0.3129132390022277,2.0236324469248452,1.6886862053255713e+18,2.8015712890625,10.307322692871093,-5.053282642364502,-8.36889715194702
2.9000000000000004,1.6886862054294024e+18,2.905402140299479,2.2895800272623696,1.9475843509038289,-1.9435528914133708,1.6886862054207465e+18,2.8967464192708334,9.818748394648233,-2.773680249849955,-6.713063716888428,1.6886862054294024e+18,2.905402140299479,7.245256265004476,-4.616920630137126,-4.708768606185913,1.6886862054294024e+18,2.905402140299479,-0.584012637535731,1.5616515278816223,-1.1443796753883362,1.6886862054294024e+18,2.905402140299479,-0.5850816518068314,1.5661057730515797,-1.1420889496803284,,,,,,,,,,,,1.6886862054288502e+18,2.904850341796875,-43.619879150390624,13.14549970626831,7.173599791526795,1.6886862054288502e+18,2.904850341796875,-298.96587524414065,108.17129745483399,-125.55019836425781,1.6886862054294024e+18,2.905402140299479,-0.8218460977077484,0.3442154179016749,0.10808510209123288,0.44008520245552063,0.577086811264356,0.4903624306122462,2.009331782658895,1.6886862054207465e+18,2.8967464192708334,9.812766075134277,-2.756332278251648,-6.775875568389893
3.0,1.6886862055245796e+18,3.000579541015625,-0.04023180007934575,1.7582994937896728,-0.4273705482482909,1.688686205524579e+18,3.000578898111979,6.754439830780029,-3.580859104792277,-5.836493253707886,1.6886862055245796e+18,3.000579541015625,6.322125434875488,-5.251544380187989,-5.349018383026123,1.6886862055245796e+18,3.000579541015625,-0.17672331631183621,0.9372505530714988,-0.7016703605651855,1.6886862055245796e+18,3.000579541015625,-0.17782287001609803,0.9418014824390412,-0.6993796348571777,,,,,,,,,,,,1.6886862055288502e+18,3.0048502197265625,-40.66991958618164,15.811199569702149,11.992599773406983,1.6886862055288502e+18,3.0048502197265625,-296.0159149169922,110.83699798583984,-120.73119659423828,1.6886862055245796e+18,3.000579541015625,-0.8103981971740722,0.3987558901309967,0.1363944038748741,0.40672056674957274,0.702504324913025,0.5649780035018921,1.9991270303726196,1.688686205524579e+18,3.000578898111979,6.748457670211792,-3.56351109345754,-5.8993048667907715
3.1,1.6886862056197573e+18,3.0957574055989583,2.5263559023539224,1.3395585616429646,0.7386312882105509,1.688686205628409e+18,3.1044090983072916,8.29930583635966,-4.236791650454204,-4.696412960688273,1.6886862056197573e+18,3.0957574055989583,5.804890712102254,-5.589553435643514,-5.590254068374634,1.6886862056197573e+18,3.0957574055989583,0.36618826786677044,0.31986431032419205,-0.5299510632952055,1.6886862056197573e+18,3.0957574055989583,0.36511925359567005,0.3242930918931961,-0.5276603053013483,,,,,,,,,,,,1.6886862056288522e+18,3.104852197265625,-38.51905975341797,18.42321949005127,13.34435968399048,1.6886862056288522e+18,3.104852197265625,-293.86505432128905,113.44901885986329,-119.37943878173829,1.6886862056197573e+18,3.0957574055989583,-0.7876907090346018,0.4319907873868942,0.13210146874189374,0.418703372279803,0.7666867474714915,0.6062578856945038,1.913326382637024,1.688686205628409e+18,3.1044090983072916,8.293323993682861,-4.219443678855896,-4.759224494298299
3.2,1.6886862057235884e+18,3.1995882161458336,-0.10267305374145508,0.9877825975418091,0.23774027824401855,1.688686205723592e+18,3.199591845703125,4.931607437133789,-4.652604389190674,-5.847819423675537,1.6886862057235884e+18,3.1995882161458336,5.219860235850017,-5.564098755518596,-6.156063556671143,1.6886862057235884e+18,3.1995882161458336,-0.2838741727173328,1.6729817191759746,0.15101098424444595,1.6886862057235884e+18,3.1995882161458336,-0.2849431845049063,1.6774614254633586,0.1533271720012029,,,,,,,,,,,,1.6886862057288548e+18,3.2048547607421876,-36.835459518432614,17.904719734191893,17.603379821777345,1.6886862057288548e+18,3.2048547607421876,-292.18145446777345,112.9305191040039,-115.12041702270508,1.6886862057235884e+18,3.1995882161458336,-0.7841123640537262,0.44944189488887787,0.17767626295487082,0.38856225709120434,0.8677131036917368,0.6031080385049185,1.9351939757664998,1.688686205723592e+18,3.199591845703125,4.925625419616699,-4.635256338119507,-5.910630798339843
3.3000000000000003,1.6886862058274204e+18,3.3034205729166666,1.4193408091862996,0.9010225137074789,-0.20206856727600098,1.6886862058187681e+18,3.294768229166667,5.1775697072347,-4.581058899561564,-7.112864812215169,1.6886862058274204e+18,3.3034205729166666,3.632043798764547,-5.570658604303996,-7.188039938608806,1.6886862058274204e+18,3.3034205729166666,0.20461440210541085,2.5645141005516052,0.42791112263997394,1.6886862058274204e+18,3.3034205729166666,0.20354538907607397,2.5689937671025596,0.43022730698188144,,,,,,,,,,,,1.688686205828852e+18,3.304851953125,-31.50405960083008,17.70707950592041,25.953059577941893,1.688686205828852e+18,3.304851953125,-286.8500518798828,112.73287734985351,-106.77073669433594,1.6886862058274204e+18,3.3034205729166666,-0.7587827543417612,0.4907935659090678,0.2698589190840721,0.3300244063138962,1.1023783485094707,0.6039958596229553,1.9432965914408367,1.6886862058187681e+18,3.294768229166667,5.171587626139323,-4.563711047172546,-7.175676345825195
3.4000000000000004,1.6886862059225994e+18,3.398599365234375,0.4669641017913818,-0.743497657775879,-0.9698151588439942,1.6886862059225946e+18,3.3985945638020834,3.1605199178059897,-5.537789185841878,-8.887441794077555,1.6886862059225994e+18,3.398599365234375,2.6294844150543213,-4.935111999511719,-8.051959705352782,1.6886862059225994e+18,3.398599365234375,0.9296452641487122,1.2572828710079194,0.49898527264595033,1.6886862059225994e+18,3.398599365234375,0.9285762548446655,1.2618032455444337,0.5013065755367279,,,,,,,,,,,,1.688686205928853e+18,3.4048529052734375,-27.397539710998537,14.154439735412598,32.57155971527099,1.688686205928853e+18,3.4048529052734375,-282.7435363769531,109.18023834228515,-100.15223770141601,1.6886862059225994e+18,3.398599365234375,-0.7388835549354553,0.48523186445236205,0.3608248054981232,0.2966078102588653,1.2547995090484618,0.5273716151714325,1.9918637990951538,1.6886862059225946e+18,3.3985945638020834,3.154537876447042,-5.520441214243571,-8.950253168741861
3.5,1.688686206017778e+18,3.493778116861979,0.5042059024175009,0.2579038937886556,0.8656829198201498,1.6886862060264287e+18,3.5024288736979163,3.093321522076925,-3.6458641290664673,-7.523034334182739,1.688686206017778e+18,3.493778116861979,2.670607606569926,-4.046383182207744,-8.524585247039795,1.688686206017778e+18,3.493778116861979,0.8532005747159322,-0.32416582107543945,0.06113743533690771,1.688686206017778e+18,3.493778116861979,0.8521315654118856,-0.3196861520409584,0.0634281833966573,,,,,,,,,,,,1.6886862060288538e+18,3.5048538818359374,-27.443899726867677,10.18333978652954,34.70045967102051,1.6886862060288538e+18,3.5048538818359374,-282.789892578125,105.20913925170899,-98.0233383178711,1.688686206017778e+18,3.493778116861979,-0.7302115559577942,0.45585814615090686,0.3950493236382802,0.3204984615246455,1.2674195369084675,0.4253251651922862,1.9995937943458557,1.6886862060264287e+18,3.5024288736979163,3.087339401245117,-3.62851615746816,-7.585846026738484
3.6,1.6886862061216064e+18,3.597606526692708,-0.46898845831553143,1.8436342875162761,2.4137529532114663,1.6886862061302618e+18,3.606261759440104,1.6940187414487202,-1.9887346824010212,-6.103392680486043,1.6886862061216064e+18,3.597606526692708,2.191059490044912,-3.9321128129959106,-8.704857985178629,1.6886862061216064e+18,3.597606526692708,-0.5765040703117847,1.0112110475699108,-0.7792604168256124,1.6886862061216064e+18,3.597606526692708,-0.5775730907917023,1.0156652530034382,-0.7769696811834971,,,,,,,,,,,,1.6886862061288517e+18,3.604851782226562,-25.731019592285158,11.287439632415772,35.80821990966797,1.6886862061288517e+18,3.604851782226562,-281.07701416015624,106.31323776245117,-96.91557922363282,1.6886862061216064e+18,3.597606526692708,-0.706696480512619,0.47477101782957715,0.4032986462116241,0.33465978999932605,1.3247904578844707,0.41260949273904163,1.9326756199200947,1.6886862061302618e+18,3.606261759440104,1.6880366802215576,-1.9713867505391438,-6.166204293568929
3.7,1.688686206225438e+18,3.7014378662109375,-0.6731827656428018,-1.8646647135416667,0.7677401701609293,1.688686206225435e+18,3.7014347656249997,-0.14141583815217018,-8.372366905212402,-6.96993350982666,1.688686206225438e+18,3.7014378662109375,0.4174862351889412,-5.900885105133057,-7.770809729894002,1.688686206225438e+18,3.7014378662109375,-2.687221626440684,1.1556806961695354,-0.8847364981969198,1.688686206225438e+18,3.7014378662109375,-2.6882906953493753,1.160134916504224,-0.8824457650383314,,,,,,,,,,,,1.6886862062288507e+18,3.7048507568359375,-18.33293933868408,21.6391393661499,34.93225936889648,1.6886862062288507e+18,3.7048507568359375,-273.67893371582034,116.66493682861328,-97.79153900146484,1.688686206225438e+18,3.7014378662109375,-0.6805102030436198,0.5765631993611654,0.38114002843697864,0.23869688560565308,1.520622154076894,0.6480022867520651,1.8460668722788494,1.688686206225435e+18,3.7014347656249997,-0.14739788249135008,-8.355018997192383,-7.03274507522583
3.8000000000000003,1.6886862063292716e+18,3.8052716064453125,-1.0565192848443985,-2.8332389195760093,-0.5757668018341064,1.6886862063206208e+18,3.7966208902994794,-0.7684948742389679,-10.048160155614218,-7.001099904378255,1.6886862063292716e+18,3.8052716064453125,0.4331255952517192,-7.429221153259277,-6.374361515045166,1.6886862063292716e+18,3.8052716064453125,-1.5125023325284321,-1.1186724255482356,-0.370693387153248,1.6886862063292716e+18,3.8052716064453125,-1.5135713617006938,-1.1141927639643352,-0.3683517457296451,,,,,,,,,,,,1.688686206328854e+18,3.8048542236328124,-18.712360000610353,29.733839416503905,27.80745964050293,1.688686206328854e+18,3.8048542236328124,-274.0583557128906,124.75963821411133,-104.91633758544921,1.6886862063292716e+18,3.8052716064453125,-0.6974612275759379,0.6234295765558878,0.29763013621171314,0.1884534160296122,1.5019492308298747,0.8603454430898031,1.8048638900121052,1.6886862063206208e+18,3.7966208902994794,-0.7744769404331843,-10.03081226348877,-7.063911596934001
3.9000000000000004,1.6886862064244495e+18,3.900449462890625,1.6811289548873902,-0.9660721778869629,1.1744118213653565,1.6886862064244488e+18,3.9004486897786457,2.045763631661733,-8.820642312367758,-4.468795696894328,1.6886862064244495e+18,3.900449462890625,0.8442723751068115,-8.042868041992188,-5.5456156730651855,1.6886862064244495e+18,3.900449462890625,-0.7538382530212402,-1.099587970972061,0.016890421509742726,1.6886862064244495e+18,3.900449462890625,-0.7549072623252868,-1.0950981080532074,0.01918116584420203,,,,,,,,,,,,1.688686206428853e+18,3.9048529541015626,-19.88355941772461,33.43287963867188,21.56715965270996,1.688686206428853e+18,3.9048529541015626,-275.22955322265625,128.45867843627929,-111.1566390991211,1.6886862064244495e+18,3.900449462890625,-0.7106106281280518,0.6379761695861816,0.2230377465486526,0.19480052590370173,1.4189372301101684,0.9613738775253295,1.7645935535430908,1.6886862064244488e+18,3.9004486897786457,2.0397815803686776,-8.80329410235087,-4.5316072305043535
4.0,1.6886862065196278e+18,3.995627563476562,-0.9396497458219528,5.710142771402995,1.0728580951690674,1.6886862065282803e+18,4.004280151367188,0.007278171678384136,-2.9488548040390015,-2.1948165744543076,1.6886862065196278e+18,3.995627563476562,0.8460669120152792,-8.96861187616984,-3.6770222783088684,1.6886862065196278e+18,3.995627563476562,-3.9692495663960776,0.517911915977796,-0.08386670592396207,1.6886862065196278e+18,3.995627563476562,-3.970318615436554,0.5224170386791229,-0.08157596278275982,,,,,,,,,,,,1.6886862065288504e+18,4.004850244140625,-20.506979560852052,36.852539443969725,12.901499605178833,1.6886862065288504e+18,4.004850244140625,-275.85297241210935,131.87833709716796,-119.82229766845703,1.6886862065196278e+18,3.995627563476562,-0.726505716641744,0.656133790810903,0.15769854684670762,0.11220744748910262,1.3246853748957317,1.1720787286758423,1.8824449181556702,1.6886862065282803e+18,4.004280151367188,0.001296109209458024,-2.931506872177124,-2.2576281428337097
4.1000000000000005,1.6886862066234583e+18,4.099458170572917,-2.96965891122818,-4.389354149500529,3.0381179253260293,1.6886862066234588e+18,4.099458642578125,-2.388276274502277,-13.124512720108033,3.2251659989356996,1.6886862066234583e+18,4.099458170572917,0.265705866428713,-9.756557623545328,0.45522810022036236,1.6886862066234583e+18,4.099458170572917,-2.4258477687835693,-0.746400977174441,-0.798171783487002,1.6886862066234583e+18,4.099458170572917,-2.426942060391108,-0.7418958197037379,-0.7958556016286212,,,,,,,,,,,,1.6886862066288492e+18,4.104849072265624,-18.420779609680174,39.58411865234375,-4.666499942541122,1.6886862066288492e+18,4.104849072265624,-273.7667755126953,134.60991821289062,-137.39029693603516,1.6886862066234583e+18,4.099458170572917,0.7140744825204214,-0.6963952481746674,-0.017527279638064382,0.051504451277044866,-0.7160689383745193,1.47039794921875,-0.2333270311355591,1.6886862066234588e+18,4.099458642578125,-2.3942583218216895,-13.107164573669433,3.162354385852814
4.2,1.6886862067272911e+18,4.203291137695312,3.464102099339167,-1.716922362645467,1.4502243449290593,1.6886862067186373e+18,4.1946375325520835,2.626721034447352,-14.090335687001547,1.1276176224152248,1.6886862067272911e+18,4.203291137695312,-0.32817206407586735,-9.71024465560913,-1.169442005455494,1.6886862067272911e+18,4.203291137695312,2.4961735935260854,-1.374726787209511,-0.4596761129796505,1.6886862067272911e+18,4.203291137695312,2.495104543864727,-1.370247095823288,-0.4573853599528472,,,,,,,,,,,,1.688686206728853e+18,4.204853125,-14.003159713745116,41.8325798034668,-2.5119799591600893,1.688686206728853e+18,4.204853125,-269.3491577148437,136.85838012695314,-135.23577423095702,1.6886862067272911e+18,4.203291137695312,-0.6878521541754404,0.7187748452027639,-0.00902078304595,0.09147331987818079,1.0531535545984905,1.4413716793060303,0.8985377550125122,1.6886862067186373e+18,4.1946375325520835,2.6207389732201896,-14.07298731803894,1.0648061285416286
4.3,1.6886862068224704e+18,4.2984705078125005,-1.9998453736305237,0.3272743225097656,1.335862410068512,1.6886862068224676e+18,4.298467488606771,-2.2894327441851297,-9.032606363296509,-0.24656042953332266,1.6886862068224704e+18,4.2984705078125005,-0.5344963431358337,-9.664150810241699,-1.5934452295303345,1.6886862068224704e+18,4.2984705078125005,-0.029657510668039344,1.0916467428207397,0.603443244099617,1.6886862068224704e+18,4.2984705078125005,-0.030726523883640777,1.096197682619095,0.605733972787857,,,,,,,,,,,,1.6886862068288532e+18,4.304853320312501,-13.224799728393554,42.110739135742186,1.3785999596118927,1.6886862068288532e+18,4.304853320312501,-268.5707977294922,137.13653717041015,-131.34519653320314,1.6886862068224704e+18,4.2984705078125005,-0.6817007303237915,0.7257206797599792,0.0249820806086063,0.08834419101476663,1.894002103805542,1.3981383085250854,1.1576061487197875,1.6886862068224676e+18,4.298467488606771,-2.2954148252805076,-9.015258391698202,-0.30937202166145045
4.4,1.6886862069176492e+18,4.393649129231771,0.40057143072287243,-0.10949309666951497,-0.1644088228543599,1.6886862069262984e+18,4.402298380533854,0.22961126640439034,-9.792227904001871,-1.6900307138760884,1.6886862069176492e+18,4.393649129231771,-0.33682623505592346,-9.677792390187582,-1.5677708586057026,1.6886862069176492e+18,4.393649129231771,-0.07424557985117035,-0.5066109076142311,-0.19443332008086145,1.6886862069176492e+18,4.393649129231771,-0.07531459210440515,-0.5020803324878216,-0.19209166150540113,,,,,,,,,,,,1.6886862069288481e+18,4.404848071289062,-14.424059772491455,41.97287864685059,1.1663199722766877,1.6886862069288481e+18,4.404848071289062,-269.7700561523437,136.9986770629883,-131.5574752807617,1.6886862069176492e+18,4.393649129231771,-0.688322126865387,0.7189172605673472,0.01744704841015235,0.09437329073746996,1.7834955056508381,1.4064120451609294,1.2488786975542705,1.6886862069262984e+18,4.402298380533854,0.22362921262780824,-9.774879773457846,-1.7528423070907593
4.5,1.6886862070214738e+18,4.497473714192709,-0.24761807918548584,-0.039172649383544915,0.6965939303239187,1.688686207030129e+18,4.506128865559896,-0.7104689249147972,-9.710572719573975,-0.7696912884712219,1.6886862070214738e+18,4.497473714192709,-0.3824555774529775,-9.67632802327474,-1.5677562554677327,1.6886862070214738e+18,4.497473714192709,0.0539343114942312,0.2524655163288116,0.09430232271552086,1.6886862070214738e+18,4.497473714192709,0.052839843245844016,0.2569451940556367,0.09661852195858957,,,,,,,,,,,,1.6886862070288486e+18,4.5048486328125,-14.051959800720216,41.95701942443848,1.1638799786567688,1.6886862070288486e+18,4.5048486328125,-269.3979553222656,136.98281707763672,-131.5599136352539,1.6886862070214738e+18,4.497473714192709,-0.6855843663215637,0.720782627662023,0.00960582021313405,0.10171758383512491,1.8116908272107441,1.4054682453473408,1.1990971366564434,1.688686207030129e+18,4.506128865559896,-0.7164509712407986,-9.693224747975668,-0.8325028916200002
4.6000000000000005,1.6886862071253082e+18,4.601308227539063,0.1642367740472158,-0.059438228607177714,0.36524662375450134,1.68868620712531e+18,4.60131005859375,-0.10731809437274933,-9.76116123199463,-1.1313265562057495,1.6886862071253082e+18,4.601308227539063,-0.4036821325620015,-9.679691632588705,-1.5415935516357422,1.6886862071253082e+18,4.601308227539063,-0.0415133830780784,-0.07974336793025334,-0.02313652196122955,1.6886862071253082e+18,4.601308227539063,-0.04258239843572175,-0.07528914278373122,-0.020820323300237465,,,,,,,,,,,,1.688686207128848e+18,4.604847949218749,-14.225199699401855,42.17539939880371,0.9882000029087067,1.688686207128848e+18,4.604847949218749,-269.5711944580078,137.2011978149414,-131.7355972290039,1.6886862071253082e+18,4.601308227539063,-0.6843295097351074,0.7215675214926401,0.004190070612821683,0.1049076269070307,1.8282553553581238,1.40758482615153,1.170303960641225,1.68868620712531e+18,4.60131005859375,-0.11330015063285832,-9.743812942504883,-1.1941381692886353
4.7,1.688686207229143e+18,4.7051431070963545,-0.1946587860584259,-0.053264300028483015,0.3753012816111247,1.6886862072204902e+18,4.696490275065105,-0.6340980033079783,-9.762118180592855,-1.1049855550130208,1.688686207229143e+18,4.7051431070963545,-0.4095923105875651,-9.681179682413736,-1.530711015065511,1.688686207229143e+18,4.7051431070963545,0.009188431237513799,0.010511973562339951,-0.01646790878536797,1.688686207229143e+18,4.7051431070963545,0.008119417354464517,0.015068011358380316,-0.014151711366139318,,,,,,,,,,,,1.6886862072288486e+18,4.704848706054688,-14.161759757995606,42.14367942810058,0.9967399656772613,1.6886862072288486e+18,4.704848706054688,-269.5077606201172,137.1694763183594,-131.72705535888673,1.688686207229143e+18,4.7051431070963545,-0.6840364535649618,0.7217811147371928,0.0027945409722936166,0.10542849948008852,1.8334904511769612,1.408523976802826,1.1623477935791016,1.6886862072204902e+18,4.696490275065105,-0.6400800496339798,-9.744770050048828,-1.1677971680959065
4.800000000000001,1.6886862073243205e+18,4.800320556640625,-0.16421212553977965,-0.00043811798095704234,0.47138715982437135,1.6886862073243174e+18,4.800317342122396,-0.550448901951313,-9.679864883422852,-1.0121639768282573,1.6886862073243205e+18,4.800320556640625,-0.4227308988571167,-9.680885314941406,-1.529010248184204,1.6886862073243205e+18,4.800320556640625,0.0018325957469642,0.07544185923179604,0.017165313102304902,1.6886862073243205e+18,4.800320556640625,0.0007635816931724395,0.07993171894922846,0.01948660071939226,,,,,,,,,,,,1.6886862073288543e+18,4.804854321289063,-14.260579776763915,41.98019981384277,0.999179995059967,1.6886862073288543e+18,4.804854321289063,-269.60657653808596,137.00599517822266,-131.72461547851563,1.6886862073243205e+18,4.800320556640625,-0.6834545969963074,0.722248649597168,0.00196095460560166,0.10603102594614025,1.8417691230773925,1.4083389043807983,1.1520254373550416,1.6886862073243174e+18,4.800317342122396,-0.55643097559611,-9.662516911824545,-1.0749755799770355
4.9,1.6886862074194998e+18,4.895499877929688,-0.11406835913658138,0.034000714619954416,0.05269598960876465,1.6886862074281533e+18,4.904153238932292,-0.5178467134634653,-9.690831979115805,-1.4152549306551616,1.6886862074194998e+18,4.895499877929688,-0.42916577061017347,-9.682602246602377,-1.5162813266118367,1.6886862074194998e+18,4.895499877929688,-0.002570723959555201,-0.11313733582695322,-0.031434107261399384,1.6886862074194998e+18,4.895499877929688,-0.003639739317198584,-0.10865765437483783,-0.029092457766334182,,,,,,,,,,,,1.6886862074288502e+18,4.904850219726563,-14.452119827270508,42.164419174194336,1.1882799983024597,1.6886862074288502e+18,4.904850219726563,-269.79811401367186,137.19021606445312,-131.53551788330077,1.6886862074194998e+18,4.895499877929688,-0.6829146246115366,0.7224515775839487,-0.0012119809883491333,0.10809762030839914,1.847460667292277,1.4094509482383728,1.1388846039772034,1.6886862074281533e+18,4.904153238932292,-0.5238287597894669,-9.673484007517496,-1.4780664642651875
5.0,1.6886862075233308e+18,4.9993306884765625,0.15676937997341153,-0.17889753977457679,0.7177532811959585,1.6886862075233308e+18,4.999330908203125,-0.2739781886339187,-9.88582706451416,-0.7420143067836762,1.6886862075233308e+18,4.9993306884765625,-0.45394159356753033,-9.675686359405518,-1.5527241826057434,1.6886862075233308e+18,4.9993306884765625,0.04846197552978987,-0.03634648180256287,-0.028710667043924304,1.6886862075233308e+18,4.9993306884765625,0.04739296250045297,-0.03189225556949773,-0.026369016927977385,,,,,,,,,,,,1.6886862075288527e+18,5.004852709960938,-13.604219722747803,42.17417945861816,1.2578199684619904,1.6886862075288527e+18,5.004852709960938,-268.95021362304686,137.1999740600586,-131.46597442626953,1.6886862075233308e+18,4.9993306884765625,-0.6810545325279236,0.7233242988586426,-0.0046459219884127005,0.11376984914143874,1.8562054634094238,1.4051082730293274,1.1171481609344482,1.6886862075233308e+18,4.999330908203125,-0.27996025085449217,-9.868479156494141,-0.8048259139060974
5.1000000000000005,1.6886862076271613e+18,5.103161214192708,-0.2773793538411458,0.005149682362874354,0.3974547286828359,1.6886862076185116e+18,5.094511311848959,-0.6817550460497538,-9.717352390289307,-0.960518886645635,1.6886862076271613e+18,5.103161214192708,-0.44202632705370587,-9.679573694864908,-1.5317278504371643,1.6886862076271613e+18,5.103161214192708,-0.046222136666377346,0.07355835769946377,0.03871358543013526,1.6886862076271613e+18,5.103161214192708,-0.04729115171357986,0.07811439343883343,0.0410552350028107,,,,,,,,,,,,1.6886862076288522e+18,5.104852319335937,-13.033259868621826,41.97287940979004,2.11059992313385,1.6886862076288522e+18,5.104852319335937,-268.37925720214844,136.9986770629883,-130.61319427490236,1.6886862076271613e+18,5.103161214192708,-0.6820085148016611,0.7229218383630117,-0.002807942025052967,0.11062657212217646,1.8528832991917927,1.407527506351471,1.1275785565376282,1.6886862076185116e+18,5.094511311848959,-0.6877371072769165,-9.700004577636719,-1.0233304897944133
5.2,1.6886862077223444e+18,5.198344531249999,-0.06740396618843078,-0.050002288818359365,0.008111858367919922,1.6886862077223427e+18,5.198342814127604,-0.5344967593749365,-9.727322578430176,-1.42751810948054,1.6886862077223444e+18,5.198344531249999,-0.4429687142372131,-9.682048988342284,-1.5158248662948608,1.6886862077223444e+18,5.198344531249999,0.01997529361397026,-0.061117068678140596,-0.03026837278157466,1.6886862077223444e+18,5.198344531249999,0.018906279653310744,-0.056688295304775184,-0.027977628353983104,,,,,,,,,,,,1.6886862077288525e+18,5.204852368164063,-13.478559494018555,42.17417869567871,1.0821399807929992,1.6886862077288525e+18,5.204852368164063,-268.8245544433594,137.1999771118164,-131.64165496826172,1.6886862077223444e+18,5.198344531249999,-0.6819101095199585,0.722915518283844,-0.00462867761962112,0.11121691465377803,1.8557527303695678,1.4091107845306396,1.121287727355957,1.6886862077223427e+18,5.198342814127604,-0.5404788156350454,-9.709974447886148,-1.4903297026952107
5.300000000000001,1.688686207817519e+18,5.293519287109375,-0.311690146724383,0.009540875752766952,0.5725811123847961,1.688686207826173e+18,5.302173014322917,-0.7412765125433604,-9.700403213500977,-0.8807581464449564,1.688686207817519e+18,5.293519287109375,-0.4441063751777013,-9.681073665618896,-1.5217096010843914,1.688686207817519e+18,5.293519287109375,-0.0031815898546482834,-0.062053727606932285,-0.0169515103722612,1.688686207817519e+18,5.293519287109375,-0.004250603922021833,-0.05754859621326125,-0.0146607660378019,,,,,,,,,,,,1.6886862078288502e+18,5.304850268554688,-13.80307970046997,42.275439453125,1.0357799768447875,1.6886862078288502e+18,5.304850268554688,-269.149072265625,137.30123748779297,-131.68801727294922,1.688686207817519e+18,5.293519287109375,-0.6814287602901459,0.722915768623352,-0.007144883740693283,0.11399629960457479,1.8551013867060344,1.4085139036178589,1.1143949031829834,1.688686207826173e+18,5.302173014322917,-0.7472585539023081,-9.683055559794107,-0.9435697197914124
5.4,1.68868620792135e+18,5.3973500976562505,0.13290259738763172,-0.08768256505330402,0.5040050248305002,1.6886862079300024e+18,5.4060025227864585,-0.340678130586942,-9.779665470123291,-0.9636096060276031,1.68868620792135e+18,5.3973500976562505,-0.482816606760025,-9.683451175689697,-1.4945093989372253,1.68868620792135e+18,5.3973500976562505,-0.0360919550682107,-0.0665588588453829,-0.022856541288395715,1.68868620792135e+18,5.3973500976562505,-0.03716096980497235,-0.06210463464716059,-0.020565795556952534,,,,,,,,,,,,1.6886862079288497e+18,5.40484970703125,-13.67619972229004,42.29373893737793,0.9747799813747406,1.6886862079288497e+18,5.40484970703125,-269.0221923828125,137.31953887939454,-131.74901733398437,1.68868620792135e+18,5.3973500976562505,-0.6797059774398804,0.7242261071999868,-0.011159272864460917,0.1156270528833071,1.8836194078127544,1.4100248416264851,1.0778465072313945,1.6886862079300024e+18,5.4060025227864585,-0.34666017691294354,-9.762317657470703,-1.0264212091763814
5.5,1.688686208025182e+18,5.501181803385417,-0.1127510219812393,-0.03876145680745443,0.25055191914240516,1.6886862080251817e+18,5.501181640625,-0.6058627009391785,-9.741300582885742,-1.1858829021453858,1.688686208025182e+18,5.501181803385417,-0.468967671195666,-9.687108198801676,-1.4751541018486023,1.688686208025182e+18,5.501181803385417,0.0178423555116751,0.030441451934166214,0.002468913483122967,1.688686208025182e+18,5.501181803385417,0.01677334104897452,0.03489567766276493,0.004785111484428233,,,,,,,,,,,,1.6886862080288515e+18,5.504851391601562,-13.55419979095459,42.27665901184082,0.753959983587265,1.6886862080288515e+18,5.504851391601562,-268.9001953125,137.30245666503907,-131.96983947753907,1.688686208025182e+18,5.501181803385417,-0.6802395383516947,0.7237278719743093,-0.012371921756615183,0.11549425994356467,1.8790518442789714,1.4123560388882954,1.0808932185173035,1.6886862080251817e+18,5.501181640625,-0.6118447422981262,-9.723952674865723,-1.2486944913864135
5.6000000000000005,1.688686208129014e+18,5.605014241536459,-0.07699114084243773,-0.017510096232096335,0.4691203534603119,1.6886862081203597e+18,5.596359700520833,-0.5074778000513712,-9.741978486378988,-0.9292128086090088,1.688686208129014e+18,5.605014241536459,-0.4674393981695175,-9.685926914215088,-1.4833535552024841,1.688686208129014e+18,5.605014241536459,0.00015271636948458364,0.013693562592379716,0.027285314475496564,1.688686208129014e+18,5.605014241536459,-0.0009162979355702497,0.018224146760379253,0.029601511855920134,,,,,,,,,,,,1.6886862081288525e+18,5.604852392578125,-13.73963975906372,42.32667846679688,0.8198399752378464,1.6886862081288525e+18,5.604852392578125,-269.08563842773435,137.35247650146485,-131.9039566040039,1.688686208129014e+18,5.605014241536459,-0.6802739103635153,0.723685751358668,-0.011869754952688966,0.11560803279280661,1.876554270585378,1.4115904966990154,1.0839385986328125,1.6886862081203597e+18,5.596359700520833,-0.5134598563114802,-9.72463051478068,-0.9920243720213572
5.7,1.688686208224191e+18,5.7001908203125,-0.012667453289031998,-0.050026893615722635,0.24706215858459468,1.6886862082241894e+18,5.700189290364584,-0.5049852728843689,-9.741978486378988,-1.1511470874150593,1.688686208224191e+18,5.7001908203125,-0.471025276184082,-9.686929512023926,-1.4756524085998535,1.688686208224191e+18,5.7001908203125,0.00442877318710088,-0.034849861590191676,-0.0390648322179913,1.688686208224191e+18,5.7001908203125,0.0033597587142139397,-0.03032945897430178,-0.036713000945746845,,,,,,,,,,,,1.6886862082288517e+18,5.70485185546875,-13.660339832305908,42.335218811035155,0.7783599853515625,1.6886862082288517e+18,5.70485185546875,-269.00632629394534,137.36101989746095,-131.9454376220703,1.688686208224191e+18,5.7001908203125,-0.6800865411758423,0.7237809062004089,-0.012890676967799618,0.11600327342748637,1.8800378561019897,1.4122517824172973,1.0784423351287842,1.6886862082241894e+18,5.700189290364584,-0.5109673241774241,-9.7246306737264,-1.213958700497945
5.800000000000001,1.68868620831937e+18,5.795369913736979,-0.08154585460821788,-0.048921585083007806,0.41379793485005695,1.6886862083280238e+18,5.804023600260417,-0.5526423205931982,-9.74387296040853,-1.000399261713028,1.68868620831937e+18,5.795369913736979,-0.47355266908804566,-9.686120669047037,-1.4801747401555378,1.68868620831937e+18,5.795369913736979,0.010130182063827833,-0.04110614093951873,0.009315695099454983,1.68868620831937e+18,5.795369913736979,0.009061167947947901,-0.036651915133309815,0.011606439540628316,,,,,,,,,,,,1.6886862083288517e+18,5.804851660156251,-13.877499675750732,42.2522590637207,0.7759199976921083,1.6886862083288517e+18,5.804851660156251,-269.22349548339844,137.2780563354492,-131.9478775024414,1.68868620831937e+18,5.795369913736979,-0.6797205706437429,0.7238530317942301,-0.0141982824231187,0.11753464490175242,1.880842427412669,1.4117196997006733,1.0735889673233032,1.6886862083280238e+18,5.804023600260417,-0.5586243917544683,-9.72652498881022,-1.0632108847300212
