seconds_elapsed_rounded,accelerometer_time,accelerometer_seconds_elapsed,accelerometer_z,accelerometer_y,accelerometer_x,accelerometeruncalibrated_time,accelerometeruncalibrated_seconds_elapsed,accelerometeruncalibrated_z,accelerometeruncalibrated_y,accelerometeruncalibrated_x,gravity_time,gravity_seconds_elapsed,gravity_z,gravity_y,gravity_x,gyroscope_time,gyroscope_seconds_elapsed,gyroscope_z,gyroscope_y,gyroscope_x,gyroscopeuncalibrated_time,gyroscopeuncalibrated_seconds_elapsed,gyroscopeuncalibrated_z,gyroscopeuncalibrated_y,gyroscopeuncalibrated_x,location_time,location_seconds_elapsed,location_bearingAccuracy,location_speedAccuracy,location_verticalAccuracy,location_horizontalAccuracy,location_speed,location_bearing,location_altitude,location_longitude,location_latitude,magnetometer_time,magnetometer_seconds_elapsed,magnetometer_z,magnetometer_y,magnetometer_x,magnetometeruncalibrated_time,magnetometeruncalibrated_seconds_elapsed,magnetometeruncalibrated_z,magnetometeruncalibrated_y,magnetometeruncalibrated_x,orientation_time,orientation_seconds_elapsed,orientation_qz,orientation_qy,orientation_qx,orientation_qw,orientation_roll,orientation_pitch,orientation_yaw,totalacceleration_time,totalacceleration_seconds_elapsed,totalacceleration_z,totalacceleration_y,totalacceleration_x
-0.25,,,,,,,,,,,,,,,,,,,,,,,,,,,,,,,,,,,,,,,,,,,,,,,,,,,,,,,,1.688686202271203e+18,-0.2527970377604167,9.031111081441244,3.750550111134847,-0.9780662457148233
-0.2,,,,,,,,,,,,,,,,,,,,,,,,,,,,,,,,,,,,,,,,,,,,,,,,,,,,,,,,1.6886862023231188e+18,-0.20088118489583331,8.774679819742838,3.805983781814575,-1.057428201039632
-0.15000000000000002,,,,,,,,,,,,,,,,,,,,,,,,,,,,,,,,,,,,,,,,,,,,,,,,,,,,,,,,1.6886862023750397e+18,-0.14896028645833334,8.661818504333496,3.7246278127034507,-0.9804590741793314
-0.1,,,,,,,,,,,,,,,,,,,,,,,,,,,,,,,,,,,,,,,,,,,,,,,,,,,,,,,,1.6886862024269606e+18,-0.09703930664062499,8.506085713704428,3.87178643544515,-1.753340760866801
-0.05,,,,,,,,,,,,,,,,,,,,,,,,,,,,,,,,,,,,,,,,,,,,,,,,,,,,,,,,1.6886862024788774e+18,-0.04512263997395833,9.34975496927897,3.7292140324910483,-0.9874381422996521
-0.0,,,,,,,,,,,,,,,,,,,,,,,,,,,,,,,,,,,,,,,,,,,,,,,,,,,,,,,,1.6886862025307914e+18,0.006791585286458335,9.164311408996582,3.28355081876119,-0.38923248648643494
0.05,,,,,,,,,,,,,,,,1.688686202587022e+18,0.06302197265625,-0.1898263692855835,-0.3430008292198181,-0.6768386960029602,,,,,,,,,,,,,,,,,,,,,,,,,,,,,,,,,,,,1.6886862025654013e+18,0.0414013671875,8.929415702819824,3.3373894691467285,-0.2225325107574463
0.1,,,,,,1.688686202634604e+18,0.1106038818359375,9.205188751220701,2.940180778503418,-0.7304090857505798,,,,,,1.688686202621621e+18,0.09762076822916667,0.041844268639882394,-0.1230384341130654,-0.8066475590070089,1.6886862026259494e+18,0.10194921875,0.07651087207098804,-0.085622942696015,-0.8187121351559957,,,,,,,,,,,,1.688686202623845e+18,0.09984526367187499,-42.69023895263672,-21.37683982849121,-13.615199661254882,1.688686202623845e+18,0.09984526367187499,-298.03623046875,73.64895782470703,-146.33899841308593,,,,,,,,,,1.688686202634604e+18,0.1106038818359375,9.199206829071045,2.957528829574585,-0.7932206988334656
0.15000000000000002,1.6886862026865114e+18,0.162511474609375,0.1467504501342773,-0.3070497512817383,0.0105311274528503,1.6886862026778744e+18,0.15387418619791668,9.473383903503418,2.4526432355244956,-0.7158527771631876,1.6886862026865114e+18,0.162511474609375,9.388185501098633,2.7323319911956787,-0.7952527403831482,1.6886862026735444e+18,0.149544677734375,0.16941329340140024,0.019344065648813965,-0.6438519656658173,1.6886862026778744e+18,0.15387418619791668,0.1589776799082756,0.024892758578062002,-0.5978334446748098,,,,,,,,,,,,1.68868620267385e+18,0.1498501953125,-42.99524002075195,-19.393119430541994,-13.38583984375,1.68868620267385e+18,0.1498501953125,-298.3412353515625,75.63267974853515,-146.1096405029297,1.6886862026865114e+18,0.162511474609375,-0.8367787003517151,-0.0972072184085846,0.1097722351551055,0.5275435447692871,0.0845917165279388,-0.2822331190109253,2.0286052227020264,1.6886862026778744e+18,0.15387418619791668,9.467402458190918,2.469991127649943,-0.7786643703778585
0.2,1.688686202721142e+18,0.19714192708333333,0.28004042307535804,-0.4428846836090088,0.274582952260971,1.6886862027297902e+18,0.20579020182291666,9.72762139638265,2.1210378805796304,-0.4065804382165273,1.688686202721142e+18,0.19714192708333333,9.41621176401774,2.6330721378326416,-0.7978887359301249,1.68868620272546e+18,0.2014599609375,0.007788531947881032,0.018376862940688868,-0.27830002705256146,1.6886862027297902e+18,0.20579020182291666,-0.00015271672358113374,0.0203112699091434,-0.2710205515225728,,,,,,,,,,,,1.6886862027238523e+18,0.19985224609375002,-43.83947830200195,-18.439080047607423,-14.039759635925293,1.6886862027238523e+18,0.19985224609375002,-299.1854675292969,76.58671722412109,-146.76355590820313,1.688686202721142e+18,0.19714192708333333,-0.836864153544108,-0.0926348641514778,0.10717372347911197,0.5287602543830872,0.08461899558703101,-0.2717161178588867,2.0261677900950112,1.6886862027297902e+18,0.20579020182291666,9.721639633178711,2.138385852177938,-0.4693920413653056
0.25,1.6886862027730511e+18,0.24905110677083334,0.44534460703531903,-0.4992301066716512,0.43229692180951435,1.688686202773058e+18,0.249057861328125,9.933205127716064,2.0213369131088257,-0.31974093616008753,1.6886862027730511e+18,0.24905110677083334,9.447118759155273,2.52032470703125,-0.7972776095072428,1.6886862027773747e+18,0.253374755859375,-0.013337224566688066,-0.0313577484339475,-0.13917546719312665,1.688686202773058e+18,0.249057861328125,-0.0097738439217209,-0.0235183122567832,-0.15714508667588228,,,,,,,,,,,,1.688686202773853e+18,0.24985302734374998,-44.37627944946289,-17.86811943054199,-14.33743953704834,1.688686202773853e+18,0.24985302734374998,-299.72227172851564,77.15767822265624,-147.0612335205078,1.6886862027730511e+18,0.24905110677083334,-0.837527851263682,-0.0876715704798698,0.10396433124939597,0.5291988452275594,0.08427963405847544,-0.2598034739494324,2.025577942530314,1.688686202773058e+18,0.249057861328125,9.927222728729248,2.038684844970703,-0.38255251944065094
0.30000000000000004,1.6886862028249661e+18,0.30096622721354166,0.24792257944742835,-0.6410661141077677,0.5883919994036356,1.688686202816314e+18,0.29231404622395835,9.759126981099447,1.8338991800944011,-0.17487545559803644,1.6886862028249661e+18,0.30096622721354166,9.457502047220865,2.4860889116923013,-0.7816876570383707,1.6886862028292938e+18,0.30529402669270833,-0.0237728394567966,-0.03166318188110983,-0.05930483465393377,1.688686202816314e+18,0.29231404622395835,-0.0273362193256616,-0.031663181881109836,-0.046833002318938534,,,,,,,,,,,,1.6886862028238492e+18,0.299849169921875,-44.56903991699219,-17.28495979309082,-14.466759490966798,1.6886862028238492e+18,0.299849169921875,-299.9150329589844,77.74083862304687,-147.19055786132813,1.6886862028249661e+18,0.30096622721354166,-0.838094154993693,-0.08665341387192405,0.10226198534170783,0.5288020372390747,0.08255026489496227,-0.2561936179796855,2.026487112045288,1.688686202816314e+18,0.29231404622395835,9.753144900004068,1.8512471119562786,-0.23768704632918036
0.35000000000000003,1.6886862028768778e+18,0.3528779296875,0.11927445729573564,-0.47424479325612384,0.8229067126909891,1.6886862028682227e+18,0.3442224934895834,9.593424479166666,1.9445672035217285,0.07716853070693706,1.6886862028768778e+18,0.3528779296875,9.466309547424316,2.4550602436065674,-0.7731314698855082,1.6886862028812022e+18,0.35720239257812497,-0.0411315939078728,-0.015882496411601634,-0.051770829906066206,1.6886862028682227e+18,0.3442224934895834,-0.03130684358378247,-0.016798794580002566,-0.05375614017248146,,,,,,,,,,,,1.6886862028738527e+18,0.34985263671875,-44.60807876586914,-17.25567970275879,-14.63511962890625,1.6886862028738527e+18,0.34985263671875,-299.9540771484375,77.7701202392578,-147.35891723632812,1.6886862028768778e+18,0.3528779296875,-0.8386497497558594,-0.08558852970600121,0.10095615188280739,0.5283453265825907,0.08157587299744283,-0.2529251277446746,2.0276033083597818,1.6886862028682227e+18,0.3442224934895834,9.58744208017985,1.961915135383606,0.0143569366385539
0.4,1.688686202928796e+18,0.40479589843749997,0.2712167104085286,-0.5549768209457397,0.841848353544871,1.688686202920143e+18,0.3961431477864583,9.706485112508139,1.887937068939209,0.1525424445668856,1.688686202928796e+18,0.40479589843749997,9.476082483927408,2.4155529340108237,-0.7777161796887716,1.6886862029244739e+18,0.400473876953125,-0.04818199574947355,0.0070249504497041995,-0.10254900157451624,1.688686202920143e+18,0.3961431477864583,-0.05039638280868527,0.0083484917413443,-0.08933904270331063,,,,,,,,,,,,1.6886862029238487e+18,0.399848779296875,-44.573919677734374,-17.09219970703125,-14.393559646606445,1.6886862029238487e+18,0.399848779296875,-299.91990966796874,77.93359832763672,-147.1173553466797,1.688686202928796e+18,0.40479589843749997,-0.839492678642273,-0.08384216080109273,0.09994740535815554,0.5274774432182312,0.08197254935900367,-0.24876779317855832,2.029867966969808,1.688686202920143e+18,0.3961431477864583,9.700502713521322,1.9052850405375164,0.08973084886868789
0.45,1.6886862029807153e+18,0.456715087890625,0.3357674280802409,-0.7178336381912231,0.6868932247161865,1.688686202972061e+18,0.44806095377604166,9.834500948588053,1.6572291056315105,-0.017347964147726668,1.6886862029807153e+18,0.456715087890625,9.484911600748697,2.3816000620524087,-0.774904708067576,1.688686202967736e+18,0.4437359212239584,-0.014915292927374368,-0.016391551122069335,-0.05345070982972777,1.688686202972061e+18,0.44806095377604166,-0.015678874837855433,-0.020667607896029932,-0.044440447042385665,,,,,,,,,,,,1.6886862029738499e+18,0.44984985351562495,-44.986279296875,-17.04339942932129,-14.786399841308594,1.6886862029738499e+18,0.44984985351562495,-300.332275390625,77.9823989868164,-147.51019592285155,1.6886862029807153e+18,0.456715087890625,-0.8399411042531332,-0.08247025310993188,0.09883345166842139,0.5271900097529093,0.0816021859645843,-0.24519805610179898,2.030646006266276,1.688686202972061e+18,0.44806095377604166,9.828518867492676,1.674577037493388,-0.08015955984592434
0.5,1.6886862030239764e+18,0.4999765625,0.30155229568481445,-0.7358075380325317,0.7295769453048706,1.6886862030239764e+18,0.4999764811197916,9.794820149739584,1.623530109723409,0.05423731325815117,1.6886862030239764e+18,0.4999765625,9.488817691802979,2.377440333366394,-0.7390240728855133,1.6886862030196508e+18,0.4956507161458334,-0.029626964281002633,-0.10537425428628916,0.004123340671261133,1.6886862030239764e+18,0.4999764811197916,-0.031612275789181334,-0.0998764683802922,0.009417505934834466,,,,,,,,,,,,1.6886862030238538e+18,0.49985371093750003,-45.013119506835935,-17.082439041137697,-14.954759788513183,1.6886862030238538e+18,0.49985371093750003,-300.35911254882814,77.943359375,-147.67855834960938,1.6886862030239764e+18,0.4999765625,-0.840432733297348,-0.08333596587181086,0.09708363935351365,0.5265951752662659,0.0778112187981605,-0.2447608187794685,2.03170382976532,1.6886862030239764e+18,0.4999764811197916,9.788838068644207,1.640878160794576,-0.008574280266960466
0.55,1.6886862030672394e+18,0.543239501953125,0.15295060475667313,-0.6875958442687988,0.7542615930239359,1.6886862030758884e+18,0.551888671875,9.618947664896647,1.7034902969996135,0.08215357735753052,1.6886862030672394e+18,0.543239501953125,9.48886489868164,2.3844629923502603,-0.7154534459114075,1.688686203071567e+18,0.5475673014322916,-0.0676024183630943,-0.0377718346814314,0.030492357288797633,1.6886862030758884e+18,0.551888671875,-0.07437284539143237,-0.028710666423042566,0.0359901431947946,,,,,,,,,,,,1.6886862030738486e+18,0.5498485351562501,-44.639800262451175,-16.911639785766603,-14.801039505004884,1.6886862030738486e+18,0.5498485351562501,-299.9858032226563,78.11416015625,-147.52484130859375,1.6886862030672394e+18,0.543239501953125,-0.8410699566205343,-0.08440120518207546,0.0961465612053871,0.5255791147549947,0.07534123708804442,-0.24549867709477738,2.033846457799276,1.6886862030758884e+18,0.551888671875,9.61296558380127,1.7208382685979207,0.019341982280214633
0.6000000000000001,1.6886862031191503e+18,0.5951502278645834,0.041950861612955664,-0.5228813091913859,0.6165700554847717,1.6886862031278047e+18,0.603804443359375,9.532207806905111,1.9008982181549072,-0.05124628543853756,1.6886862031191503e+18,0.5951502278645834,9.484410603841146,2.402799367904663,-0.7131558060646057,1.6886862031234788e+18,0.5994789225260416,-0.12690725425879157,-0.044491351271669,0.0436259588847557,1.6886862031278047e+18,0.603804443359375,-0.1282817001144091,-0.046782097468773466,0.03919718476633224,,,,,,,,,,,,1.6886862031238546e+18,0.5998545898437501,-44.76911849975586,-16.950679779052734,-14.969399642944335,1.6886862031238546e+18,0.5998545898437501,-300.1151123046875,78.07512054443359,-147.6931945800781,1.6886862031191503e+18,0.5951502278645834,-0.8424327969551086,-0.08554124335447948,0.096318706870079,0.5231743256251017,0.07513537506262458,-0.2474256207545598,2.0394641558329263,1.6886862031278047e+18,0.603804443359375,9.526226043701172,1.9182461500167847,-0.11405787865320836
0.65,1.688686203171066e+18,0.647066162109375,0.0758775075276692,-0.42343846956888836,0.587958554426829,1.6886862031797207e+18,0.6557205403645834,9.590632756551107,1.9387845198313396,-0.0187437770267327,1.688686203171066e+18,0.647066162109375,9.489566802978516,2.392688592274984,-0.6773658394813538,1.6886862031753992e+18,0.6513990885416666,-0.06337726861238473,-0.14014266928037003,-0.06312274187803263,1.6886862031797207e+18,0.6557205403645834,-0.058541251967350605,-0.13632476329803464,-0.0637845136225223,,,,,,,,,,,,1.6886862031738532e+18,0.649853125,-44.35919876098633,-17.26787986755371,-14.883999824523926,1.6886862031738532e+18,0.649853125,-299.7052001953125,77.75791931152344,-147.60779724121093,1.688686203171066e+18,0.647066162109375,-0.8440681099891663,-0.0863330761591593,0.0942180107037226,0.5207850535710653,0.07134364793697988,-0.24636232852935788,2.0447871685028076,1.6886862031797207e+18,0.6557205403645834,9.584650357564291,1.9561325709025061,-0.08155537148316697
0.7000000000000001,1.6886862032229868e+18,0.6989868164062499,0.17386563618977866,-0.45344237486521405,0.6059503753980001,1.6886862032316393e+18,0.7076390787760417,9.684351603190104,1.8951155344645183,0.0488534631828467,1.6886862032229868e+18,0.6989868164062499,9.500053723653158,2.364467144012451,-0.6279598077138265,1.6886862032273142e+18,0.7033141276041667,-0.022652919093767734,-0.0458657975929479,-0.030288734162847133,1.6886862032316393e+18,0.7076390787760417,-0.024180082604289,-0.0288124767442544,-0.027336220256984164,,,,,,,,,,,,1.6886862032238528e+18,0.699852880859375,-44.244519805908205,-17.09463996887207,-15.042599868774413,1.6886862032238528e+18,0.699852880859375,-299.59051513671875,77.93115844726563,-147.76639709472656,1.6886862032229868e+18,0.6989868164062499,-0.8449386556943258,-0.08652139455080028,0.09116421143213904,0.5198862155278524,0.066088393330574,-0.2433967888355255,2.0464990933736167,1.6886862032316393e+18,0.7076390787760417,9.678369204203287,1.9124635060628254,-0.013958132204910068
0.75,1.6886862032749023e+18,0.750902099609375,0.3141625722249349,-0.5852710405985514,0.47052501638730365,1.6886862032748997e+18,0.7508997802734375,9.829416275024414,1.7566308975219727,-0.0966102131642401,1.6886862032749023e+18,0.750902099609375,9.506317138671875,2.334182103474935,-0.6458745002746582,1.6886862032792323e+18,0.7552323404947917,-0.08404487743973726,0.08938994631171222,-0.09763662765423453,1.6886862032748997e+18,0.7508997802734375,-0.0804814957082271,0.0859792828559875,-0.0969748571515083,,,,,,,,,,,,1.6886862032738463e+18,0.7498463378906249,-45.017999267578126,-17.10195960998535,-15.18899974822998,1.6886862032738463e+18,0.7498463378906249,-300.3639892578125,77.92383880615235,-147.9127990722656,1.6886862032749023e+18,0.750902099609375,-0.8456107576688131,-0.08479423820972437,0.09103107204039886,0.5190995931625366,0.06792020052671427,-0.2402172883351644,2.048672596613566,1.6886862032748997e+18,0.7508997802734375,9.823434352874756,1.7739788889884949,-0.1594218090176582
0.8,1.6886862033268175e+18,0.8028177897135417,0.4305489857991536,-0.7355029185612997,0.09694232543309526,1.6886862033181647e+18,0.7941649576822917,9.958329518636068,1.5166507164637248,-0.5252245664596558,1.6886862033268175e+18,0.8028177897135417,9.509173075358072,2.303157647450765,-0.7119729320208231,1.6886862033311457e+18,0.8071455078124999,-0.09453139702479045,0.08832093204061187,0.050854533910751294,1.6886862033181647e+18,0.7941649576822917,-0.10649417589108144,0.1155044337113698,-0.014558954785267503,1.688686203343e+18,0.819,0.0,0.0,1.0,12.098999977111816,0.0,0.0,40.20000076293945,-122.753201,49.190391,1.6886862033238543e+18,0.799854248046875,-44.683718872070315,-17.08975944519043,-14.852279663085938,1.6886862033238543e+18,0.799854248046875,-300.02971801757815,77.93603820800782,-147.57607421875,1.6886862033268175e+18,0.8028177897135417,-0.846830427646637,-0.08186165988445276,0.09290085981289543,0.5172478755315145,0.07481618722279863,-0.2369619558254877,2.0538511276245117,1.6886862033181647e+18,0.7941649576822917,9.952347755432129,1.533998727798462,-0.5880361795425415
0.8500000000000001,1.6886862033787348e+18,0.8547347005208333,0.0214856465657552,-0.32459294795989985,0.42318597435951233,1.688686203370081e+18,0.8460808919270834,9.586844126383463,1.950150450070699,-0.32043883701165515,1.6886862033787348e+18,0.8547347005208333,9.491915067036947,2.368818203608195,-0.7265514731407166,1.6886862033744082e+18,0.8504080810546875,0.010461067780852349,-0.021838433342054403,0.1739438772201538,1.688686203370081e+18,0.8460808919270834,-0.0050905432241658026,-0.006006841237346299,0.16712254782517752,,,,,,,,,,,,1.6886862033738493e+18,0.84984931640625,-44.47631912231445,-17.319119262695313,-14.618039894104005,1.6886862033738493e+18,0.84984931640625,-299.8223083496094,77.70667877197266,-147.3418395996094,1.6886862033787348e+18,0.8547347005208333,-0.8469719489415487,-0.08448253075281774,0.0952555512388547,0.5161650776863098,0.07647809634606037,-0.24385357399781546,2.0563274224599204,1.688686203370081e+18,0.8460808919270834,9.580862045288086,1.9674984216690063,-0.3832504252592723
0.9,1.6886862034306465e+18,0.9066464029947916,-0.0848417282104492,-0.3433248996734619,0.6692001422246298,1.688686203421993e+18,0.897992919921875,9.392227490743002,2.0666011969248452,0.028713872656226134,1.6886862034306465e+18,0.9066464029947916,9.488770802815756,2.392136335372925,-0.6906113823254904,1.6886862034176684e+18,0.8936680501302083,0.1320487037301063,-0.04540764912962907,0.004836015713711603,1.688686203421993e+18,0.897992919921875,0.13525574654340736,-0.03466660164607063,-0.0067704239239295,,,,,,,,,,,,1.6886862034238548e+18,0.89985478515625,-44.67639923095703,-17.66072006225586,-14.783959770202637,1.6886862034238548e+18,0.89985478515625,-300.0223876953125,77.36508026123047,-147.50775756835938,1.6886862034306465e+18,0.9066464029947916,-0.84551868836085,-0.08622171481450393,0.0945405761400858,0.5183867812156677,0.0727373361587524,-0.24630361795425412,2.050609032313029,1.688686203421993e+18,0.897992919921875,9.386245727539062,2.083949089050293,-0.034097723041971464
0.9500000000000001,1.6886862034739067e+18,0.9499068603515626,0.06352567672729491,-0.43763047456741333,0.633767306804657,1.688686203473912e+18,0.949912109375,9.56052303314209,1.9212371508280437,-0.009571291195849567,1.6886862034739067e+18,0.9499068603515626,9.493544101715088,2.3723840713500977,-0.693164587020874,1.6886862034695872e+18,0.9455870768229167,0.045916705081860236,0.05599598089853917,-0.054774249593416834,1.688686203473912e+18,0.949912109375,0.030645071839292836,0.06556620324651397,-0.05222897852460543,,,,,,,,,,,,1.688686203473852e+18,0.949851904296875,-44.625159454345706,-17.40695991516113,-14.517999839782714,1.688686203473852e+18,0.949851904296875,-299.9711547851563,77.61884002685547,-147.24179382324218,1.6886862034739067e+18,0.9499068603515626,-0.8445605337619781,-0.08508404716849324,0.0942847244441509,0.5201811194419861,0.07296830043196675,-0.2442282885313034,2.0464659929275513,1.688686203473912e+18,0.949912109375,9.554540634155273,1.9385851621627808,-0.0723828841000795
1.0,1.688686203517176e+18,0.9931760253906251,0.2331600189208984,-0.49509259064992267,0.49197479089101154,1.6886862035258243e+18,1.0018240559895835,9.759326299031576,1.8197416067123413,-0.22293131053447715,1.688686203517176e+18,0.9931760253906251,9.495993296305338,2.3514812787373858,-0.7297370632489523,1.6886862035214963e+18,0.9974963378906251,-0.05131268128752703,0.09687304745117815,-0.03339396696537727,1.6886862035258243e+18,1.0018240559895835,-0.05365433047215137,0.10496701051791507,-0.0262672048993408,,,,,,,,,,,,1.688686203523851e+18,0.999850927734375,-44.33235855102539,-16.9970401763916,-14.325239944458009,1.688686203523851e+18,0.999850927734375,-299.6783508300781,78.0287582397461,-147.04903564453124,1.688686203517176e+18,0.9931760253906251,-0.8448442220687866,-0.0832209860285123,0.09527880946795143,0.5198402802149454,0.0767791221539179,-0.24203285574913022,2.0477336247762046,1.6886862035258243e+18,1.0018240559895835,9.753344853719076,1.8370895783106482,-0.28574290374914807
1.05,1.6886862035690906e+18,1.0450906575520833,0.2851943969726562,-0.485019048055013,0.27872018019358313,1.688686203577737e+18,1.05373681640625,9.771091143290201,1.86939271291097,-0.45264228185017896,1.6886862035690906e+18,1.0450906575520833,9.492812474568685,2.3477885723114014,-0.7812881668408712,1.6886862035734182e+18,1.0494183756510418,-0.05289075026909503,0.05482515646144744,0.024892758578062,1.688686203577737e+18,1.05373681640625,-0.05299255996942517,0.04759658360853793,0.029219721133510235,,,,,,,,,,,,1.6886862035738486e+18,1.0498486816406252,-44.588558959960935,-17.143439865112306,-14.332559585571289,1.6886862035738486e+18,1.0498486816406252,-299.9345458984375,77.88235778808594,-147.05635681152344,1.6886862035690906e+18,1.0450906575520833,-0.8453315099080404,-0.08178244034449254,0.09735539307196929,0.5188910762468973,0.08220114558935164,-0.24164480467637375,2.050523519515991,1.688686203577737e+18,1.05373681640625,9.765109380086264,1.8867406845092773,-0.5154538949330648
1.1,1.688686203621005e+18,1.0970048828124999,0.18032264709472653,-0.3434172074000041,0.344738374153773,1.6886862036296594e+18,1.1056592610677083,9.664610544840494,2.025524377822876,-0.3754737575848897,1.688686203621005e+18,1.0970048828124999,9.489608764648438,2.359127998352051,-0.7860899766286215,1.688686203625334e+18,1.1013339029947915,-0.0403171057502428,-0.021482094035794267,0.023518311480681037,1.6886862036296594e+18,1.1056592610677083,-0.0412843103210131,-0.013082697366674731,0.024129177133242235,,,,,,,,,,,,1.688686203623853e+18,1.0998530273437501,-44.99359970092773,-17.243479537963868,-14.486279678344726,1.688686203623853e+18,1.0998530273437501,-300.339599609375,77.78231811523438,-147.21007690429687,1.688686203621005e+18,1.0970048828124999,-0.8458815415700277,-0.08227362235387163,0.09778001407782229,0.517836312452952,0.08273104578256603,-0.24283525844415024,2.0530307292938232,1.6886862036296594e+18,1.1056592610677083,9.658628463745119,2.042872349421183,-0.43828535079956055
1.1500000000000001,1.6886862036729213e+18,1.1489212239583333,0.12432924906412757,-0.30275559425354,0.2532876332600911,1.688686203681576e+18,1.1575760091145832,9.599605560302734,2.0472591718037925,-0.5100700159867605,1.6886862036729213e+18,1.1489212239583333,9.486778259277344,2.3673198223114014,-0.7955365777015686,1.6886862036772442e+18,1.1532441406249998,-0.0419460795819759,0.038891754423578534,0.035277467221021604,1.688686203681576e+18,1.1575760091145832,-0.04214970146616293,0.045916703840096766,0.04301509447395797,,,,,,,,,,,,1.6886862036738516e+18,1.149851708984375,-44.832559204101564,-17.46307945251465,-14.249599838256836,1.6886862036738516e+18,1.149851708984375,-300.1785583496094,77.56271667480469,-146.97339782714843,1.6886862036729213e+18,1.1489212239583333,-0.8463590542475382,-0.0824879432717959,0.09833506991465883,0.5169159968694051,0.08374442905187603,-0.2436955372492472,2.0552770296732583,1.688686203681576e+18,1.1575760091145832,9.593623479207357,2.0646071434020996,-0.5728816191355387
1.2000000000000002,1.6886862037248381e+18,1.20083837890625,0.12006918589274086,-0.33966954549153644,0.1609359979629516,1.6886862037248376e+18,1.2008376464843749,9.609276294708252,2.0380866527557373,-0.5898307859897614,1.6886862037248381e+18,1.20083837890625,9.47708002726237,2.3954601287841797,-0.8262158830960592,1.688686203729165e+18,1.205164794921875,-0.015068008952463635,0.06755151599645608,0.07162394995490703,1.6886862037248376e+18,1.2008376464843749,-0.022296580951660802,0.07475463300943369,0.07719809189438814,,,,,,,,,,,,1.6886862037238528e+18,1.199852783203125,-44.61783981323242,-17.470399475097658,-14.291079711914062,1.6886862037238528e+18,1.199852783203125,-299.9638366699219,77.5553970336914,-147.01487731933594,1.6886862037248381e+18,1.20083837890625,-0.8464928070704142,-0.0829885751008987,0.10040401667356487,0.516218344370524,0.0870433424909909,-0.24665257334709165,2.057154417037964,1.6886862037248376e+18,1.2008376464843749,9.603294849395752,2.0554347038269043,-0.6526423692703247
1.25,1.6886862037767519e+18,1.2527518717447916,0.10561847686767578,-0.3839174111684163,0.14879922072092686,1.688686203768096e+18,1.2440960286458334,9.582855860392252,2.0131614208221436,-0.64765731493632,1.6886862037767519e+18,1.2527518717447916,9.46820100148519,2.423955202102661,-0.8447870214780172,1.6886862037810778e+18,1.2570778808593752,0.04036801184217129,0.004326962089786967,0.0483092591166496,1.688686203768096e+18,1.2440960286458334,0.02952515271802737,0.028608855791389932,0.05457062895099316,,,,,,,,,,,,1.688686203773849e+18,1.24984892578125,-44.25671920776367,-17.73391990661621,-13.912879943847656,1.688686203773849e+18,1.24984892578125,-299.60272216796875,77.29187927246093,-146.6366760253906,1.6886862037767519e+18,1.2527518717447916,-0.8460385203361511,-0.08371023088693613,0.10204731921354926,0.5165245135625204,0.08907028287649153,-0.2496491968631744,2.0565364360809326,1.688686203768096e+18,1.2440960286458334,9.576874097188314,2.0305094718933105,-0.7104689280192057
1.3,1.6886862038286656e+18,1.3046656901041667,0.1020889282226562,-0.4722578128178914,0.23918690284093216,1.6886862038200136e+18,1.2960136718750002,9.584451039632162,1.9647067785263062,-0.5471587975819906,1.6886862038286656e+18,1.3046656901041667,9.463555018107096,2.4448978106180825,-0.8364707628885905,1.688686203824344e+18,1.3003441162109375,0.0617737472057342,0.005650503793731349,0.0335975885391235,1.6886862038200136e+18,1.2960136718750002,0.05757404863834376,0.006108652412270499,0.03873903801043824,,,,,,,,,,,,1.6886862038238497e+18,1.299849609375,-44.73495788574219,-17.733919525146483,-14.034879684448242,1.6886862038238497e+18,1.299849609375,-300.08095703125,77.29187927246093,-146.75867919921876,1.6886862038286656e+18,1.3046656901041667,-0.8452361822128296,-0.08472387492656706,0.1023706619938214,0.5176076491673788,0.08824178079764043,-0.251853197813034,2.053822120030721,1.6886862038200136e+18,1.2960136718750002,9.578468958536783,1.9820547501246135,-0.6099703510602316
1.35,1.688686203880581e+18,1.3565811360677085,0.041922569274902295,-0.4348643620808919,0.32101455330848694,1.6886862038719322e+18,1.3479319661458333,9.504092534383139,2.008973995844523,-0.47397829095522565,1.688686203880581e+18,1.3565811360677085,9.457719484965006,2.466128428777059,-0.8401328921318054,1.6886862038676068e+18,1.3436066080729168,0.06923139219482734,0.0296778697520494,0.0413352139294147,1.6886862038719322e+18,1.3479319661458333,0.0659225396811962,0.034310265754659904,0.042964189002911234,,,,,,,,,,,,1.688686203873853e+18,1.349852978515625,-44.878919219970705,-17.763199615478516,-14.435039901733399,1.688686203873853e+18,1.349852978515625,-300.22491455078125,77.26259918212891,-147.1588348388672,1.688686203880581e+18,1.3565811360677085,-0.8441240588823954,-0.08537376920382177,0.1032793223857879,0.5191329518953959,0.08867997924486791,-0.2540888686974843,2.0501811504364014,1.6886862038719322e+18,1.3479319661458333,9.498110135396322,2.0263219674428306,-0.5367898742357889
1.4000000000000001,1.6886862039238472e+18,1.3998472900390624,0.0556802749633789,-0.4387547969818115,0.37725929915905,1.6886862039238474e+18,1.3998474121093751,9.511669476826986,2.026122530301412,-0.40059839685757953,1.6886862039238472e+18,1.3998472900390624,9.454131126403809,2.476997971534729,-0.8485212028026581,1.688686203919521e+18,1.39552099609375,0.06322455282012616,0.04072435076038037,0.019293160798648932,1.6886862039238474e+18,1.3998474121093751,0.06398813674847277,0.0452549333373705,0.021329378088315268,,,,,,,,,,,,1.688686203923854e+18,1.3998541015625,-44.832558441162114,-17.78271903991699,-14.498479461669922,1.688686203923854e+18,1.3998541015625,-300.1785461425781,77.24307861328126,-147.22227783203124,1.6886862039238472e+18,1.3998472900390624,-0.8433083891868591,-0.08548459783196445,0.10407069325447074,0.5202812552452087,0.08959365263581276,-0.2552340924739837,2.047513604164124,1.6886862039238474e+18,1.3998474121093751,9.505687395731607,2.043470541636149,-0.46340999007225037
1.4500000000000002,1.68868620396711e+18,1.443109619140625,0.026393890380859333,-0.3856058915456136,0.47218655546506244,1.6886862039757588e+18,1.4517588704427082,9.483952522277832,2.087737798690796,-0.3074777026971181,1.68868620396711e+18,1.443109619140625,9.450316747029623,2.4892528851826987,-0.8551134069760641,1.6886862039714383e+18,1.4474382324218749,0.05920302371184024,0.03914628177881237,0.028150706241528132,1.6886862039757588e+18,1.4517588704427082,0.056912279377380935,0.04606942087411873,0.02871066642304257,,,,,,,,,,,,1.6886862039738496e+18,1.44984951171875,-45.091199493408205,-17.94375991821289,-14.315479850769043,1.6886862039738496e+18,1.44984951171875,-300.43718872070315,77.08204040527343,-147.03927307128907,1.68868620396711e+18,1.443109619140625,-0.8424186706542969,-0.08568941801786416,0.10483349611361815,0.5215340058008829,0.090321642657121,-0.256525586048762,2.044571320215861,1.6886862039757588e+18,1.4517588704427082,9.477970441182455,2.1050856908162436,-0.3702893058458964
1.5,1.6886862040190272e+18,1.4950273437500001,0.033618609110514265,-0.4288601080576579,0.5017269651095072,1.6886862040276795e+18,1.5036796061197917,9.493723233540853,2.039681911468506,-0.28693932294845576,1.6886862040190272e+18,1.4950273437500001,9.447877566019693,2.4942219257354736,-0.8675052722295126,1.688686204023348e+18,1.4993478190104168,0.0643444719413916,0.038077267507712,-0.015118914656341,1.6886862040276795e+18,1.5036796061197917,0.06291911999384557,0.041437026113271665,-0.014711670887966865,,,,,,,,,,,,1.688686204023853e+18,1.4998529296875,-44.837439727783206,-17.58751983642578,-14.27399959564209,1.688686204023853e+18,1.4998529296875,-300.1834350585938,77.43827819824219,-146.99779663085937,1.6886862040190272e+18,1.4950273437500001,-0.8414493799209595,-0.08539156367381406,0.10566661010185878,0.5229775309562683,0.09164570520321524,-0.25704944133758545,2.0412591298421225,1.6886862040276795e+18,1.5036796061197917,9.487741152445475,2.057029883066813,-0.34975090622901917
1.55,1.6886862040709345e+18,1.5469347330729166,0.022171974182128903,-0.4735281864802043,0.547500729560852,1.6886862040795945e+18,1.5555944010416667,9.44626553853353,2.0045871337254844,-0.2827518781026204,1.6886862040709345e+18,1.5469347330729166,9.446961402893066,2.4910335540771484,-0.8863597512245178,1.688686204075266e+18,1.5512658691406251,0.0293724369257688,0.09478592624266936,0.014864387611548102,1.6886862040795945e+18,1.5555944010416667,0.026114488641420935,0.10746137797832483,0.022092959998796364,,,,,,,,,,,,1.6886862040738496e+18,1.5498496582031251,-45.02775955200195,-17.66072006225586,-14.21787986755371,1.6886862040738496e+18,1.5498496582031251,-300.3737487792969,77.36507873535156,-146.9416748046875,1.6886862040709345e+18,1.5469347330729166,-0.840619424978892,-0.08457735925912853,0.10653750350077944,0.5242661039034525,0.09363362193107598,-0.2567134698232015,2.0384068489074707,1.6886862040795945e+18,1.5555944010416667,9.44028377532959,2.021935145060221,-0.3455634613831838
1.6,1.6886862041228562e+18,1.5988560384114583,-0.14555231730143223,-0.5005494753519694,0.6418071985244751,1.68868620413151e+18,1.6075099283854168,9.278967221577963,2.000200311342875,-0.26141587396462757,1.6886862041228562e+18,1.5988560384114583,9.43482526143392,2.5102782249450684,-0.9579344193140665,1.6886862041271852e+18,1.603185302734375,0.0740165052314599,0.2511674265066783,0.058490347117185565,1.68868620413151e+18,1.6075099283854168,0.079972439755996,0.27814731001853943,0.06607525671521818,,,,,,,,,,,,1.688686204123852e+18,1.599851953125,-45.09851913452148,-17.726599502563477,-13.95191993713379,1.688686204123852e+18,1.599851953125,-300.44451293945315,77.29919738769532,-146.67571716308595,1.6886862041228562e+18,1.5988560384114583,-0.8395182092984518,-0.08331818878650664,0.11035352696975066,0.5254386067390442,0.10126884778340654,-0.258742223183314,2.0363144874572754,1.68868620413151e+18,1.6075099283854168,9.272985458374022,2.0175483226776123,-0.3242274721463521
1.6500000000000001,1.6886862041747722e+18,1.6507723795572915,-0.4152228037516276,-0.3318302631378174,0.7285421093304952,1.6886862041747743e+18,1.650774169921875,8.947959899902344,2.224726915359497,-0.28145577013492584,1.6886862041747722e+18,1.6507723795572915,9.402003288269043,2.56309445699056,-1.1248288949330647,1.6886862041791037e+18,1.6551039225260418,0.13566298534472776,0.46395215392112726,0.1258382399876912,1.6886862041747743e+18,1.650774169921875,0.1470658034086227,0.46822820603847504,0.1321759670972824,1.688686204175e+18,1.651,0.0,0.0,0.9921245574951172,11.836000442504885,0.0544905252754688,0.0,40.20000076293945,-122.7532054,49.1903883,1.688686204173848e+18,1.64984814453125,-45.34007873535156,-17.81443977355957,-12.910039901733398,1.688686204173848e+18,1.64984814453125,-300.6860717773437,77.21135864257812,-145.633837890625,1.6886862041747722e+18,1.6507723795572915,-0.8365549643834432,-0.0806222210327784,0.11952312042315798,0.528561552365621,0.1191588789224624,-0.2643162906169891,2.030463933944702,1.6886862041747743e+18,1.650774169921875,8.941978454589844,2.242074728012085,-0.34426735341548914
1.7000000000000002,1.688686204226688e+18,1.7026880696614584,-0.746387799580892,-0.4413135846455892,0.7361536423365275,1.6886862042180362e+18,1.6940362141927086,8.692526499430338,2.233101765314738,-0.5126622418562571,1.688686204226688e+18,1.7026880696614584,9.360087076822916,2.6237243016560874,-1.3186817566553752,1.6886862042310116e+18,1.7070118001302081,0.09274970740079873,0.3334815154472986,0.1221730460723241,1.6886862042180362e+18,1.6940362141927086,0.08373944461345671,0.4093306263287862,0.1031853208939234,,,,,,,,,,,,1.6886862042238528e+18,1.6998527343749998,-45.44743881225586,-18.190199661254884,-12.302479934692382,1.6886862042238528e+18,1.6998527343749998,-300.79343872070314,76.83560028076172,-145.02627868652343,1.688686204226688e+18,1.7026880696614584,-0.8334634105364481,-0.0774820894002914,0.1300943593184153,0.5314173301060995,0.14004972080389658,-0.27072446544965106,2.0254815419514975,1.6886862042180362e+18,1.6940362141927086,8.686544418334961,2.2504496574401855,-0.5754738450050354
1.75,1.6886862042785974e+18,1.7545971679687498,-0.5491228103637695,-0.2716536521911621,0.7918567458788554,1.6886862042699482e+18,1.7459484049479166,8.667601267496744,2.4107688268025718,-0.5788636803627014,1.6886862042785974e+18,1.7545971679687498,9.296222050984701,2.7810835043589273,-1.4401874939600627,1.6886862042742804e+18,1.7502805175781249,0.14164438098669052,0.31513009965419764,0.48227810859680176,1.6886862042699482e+18,1.7459484049479166,0.12940162047743795,0.29667688409487397,0.41971532503763836,,,,,,,,,,,,1.6886862042738496e+18,1.7498495605468751,-45.36935958862305,-18.71479949951172,-11.60463981628418,1.6886862042738496e+18,1.7498495605468751,-300.71535034179686,76.31099853515624,-144.32843627929688,1.6886862042785974e+18,1.7545971679687498,-0.8300779461860657,-0.08056512971719103,0.14028058946132657,0.533648153146108,0.1537983864545822,-0.28741879264513653,2.0211904048919678,1.6886862042699482e+18,1.7459484049479166,8.661619186401367,2.428116758664449,-0.6416752735773722
1.8,1.6886862043305193e+18,1.8065192057291668,0.09905942281087238,-0.6270649433135986,0.8348019321759542,1.6886862043218665e+18,1.7978662109375,9.227322260538736,2.3256242275238037,-0.7148557504018148,1.6886862043305193e+18,1.8065192057291668,9.17805004119873,3.0310111840566,-1.6723650693893433,1.6886862043175424e+18,1.7935425618489582,0.10588330620278914,0.5682064990202585,0.48864128192265827,1.6886862043218665e+18,1.7978662109375,0.14726943398515382,0.6043493549029032,0.5143485367298126,,,,,,,,,,,,1.6886862043238543e+18,1.7998542480468749,-45.06679916381836,-19.661519622802736,-10.552999687194824,1.6886862043238543e+18,1.7998542480468749,-300.41279296875,75.3642791748047,-143.27679748535155,1.6886862043305193e+18,1.8065192057291668,-0.8253910740216573,-0.08456344902515406,0.1581810414791107,0.5352644721666971,0.1803526530663172,-0.3140999575455983,2.019629160563151,1.6886862043218665e+18,1.7978662109375,9.221340497334799,2.342972199122111,-0.7776673634847006
1.85,1.6886862043737846e+18,1.8497844238281251,0.027472972869873047,-0.3960845470428467,0.3113745450973511,1.6886862043737843e+18,1.8497840983072917,9.134002049763998,3.0317063331604004,-1.310269792874654,1.6886862043737846e+18,1.8497844238281251,9.001680374145508,3.4378178119659424,-1.8381702899932861,1.6886862043694548e+18,1.8454546712239583,0.7274387081464132,0.5676974356174469,0.9625709255536398,1.6886862043737843e+18,1.8497840983072917,0.7257079283396403,0.5548183719317118,0.9501499931017557,,,,,,,,,,,,1.688686204373855e+18,1.849855078125,-44.93259963989258,-21.059639358520506,-9.847839736938477,1.688686204373855e+18,1.849855078125,-300.2785888671875,73.96616058349609,-142.57163696289064,1.6886862043737846e+18,1.8497844238281251,-0.8138251900672913,-0.09548151120543474,0.1790736317634582,0.5444952547550201,0.20152734220027918,-0.35803215205669403,1.9988670945167544,1.6886862043737843e+18,1.8497840983072917,9.128020286560059,3.049054225285848,-1.3730814059575398
1.9000000000000001,1.6886862044170452e+18,1.8930452473958332,-0.158203125,-0.38297152519226074,0.8792584935824076,1.6886862044257027e+18,1.90170263671875,9.076574643452963,3.3748769760131836,-1.038485050201416,1.6886862044170452e+18,1.8930452473958332,8.912281354268393,3.655711809794108,-1.8554059267044067,1.6886862044213699e+18,1.897369873046875,0.3552181323369344,0.05859215433398887,0.0402662009000778,1.6886862044257027e+18,1.90170263671875,0.3423899710178375,0.03242676332592966,-0.03313944240411119,,,,,,,,,,,,1.6886862044238536e+18,1.899853662109375,-44.19328002929687,-22.201559829711915,-9.730719757080077,1.6886862044238536e+18,1.899853662109375,-299.5392761230469,72.82423858642578,-142.45451965332032,1.6886862044170452e+18,1.8930452473958332,-0.8059129516283671,-0.1026222134629885,0.1876903225978215,0.5520321528116862,0.20534787575403846,-0.38184096415837604,1.9802712599436443,1.6886862044257027e+18,1.90170263671875,9.070592244466146,3.3922248681386313,-1.1012966235478718
1.9500000000000002,1.6886862044689644e+18,1.9449642740885416,0.2750304539998372,-0.2772759596506755,0.34781213601430255,1.6886862044776118e+18,1.9536117350260416,9.164909362792969,3.219144105911255,-1.3936197757720947,1.6886862044689644e+18,1.9449642740885416,8.945448875427246,3.610833724339803,-1.7821851174036663,1.6886862044732854e+18,1.9492852376302083,0.473776896794637,-0.005294166505336766,-0.15327627087632809,1.6886862044776118e+18,1.9536117350260416,0.4794783095518748,-0.010944670066237436,-0.134288544456164,,,,,,,,,,,,1.6886862044738522e+18,1.949852001953125,-44.38359832763672,-21.284119415283204,-9.820999717712402,1.6886862044738522e+18,1.949852001953125,-299.72959594726564,73.74167938232422,-142.5447998046875,1.6886862044689644e+18,1.9449642740885416,-0.8007999857266744,-0.10084106524785356,0.18411817153294882,0.5609257817268372,0.19674975673357642,-0.3769170343875885,1.9571714401245117,1.6886862044776118e+18,1.9536117350260416,9.158927281697592,3.236492077509562,-1.4564313888549805
2.0,1.6886862045208717e+18,1.9968716634114585,0.8964799245198568,-1.1228851079940796,0.26323004563649494,1.6886862045295255e+18,2.005525227864583,10.006784121195475,2.3130618731180825,-1.315653642018636,1.6886862045208717e+18,1.9968716634114585,8.974847157796225,3.5786758263905845,-1.6972042322158813,1.6886862045252022e+18,2.001202067057292,0.30782518287499744,0.13510302950938538,-0.2053016275167465,1.6886862045295255e+18,2.005525227864583,0.29433524111906684,0.19435696303844452,-0.20270545780658722,,,,,,,,,,,,1.688686204523854e+18,1.99985400390625,-44.76667938232422,-20.78147964477539,-10.204079818725585,1.688686204523854e+18,1.99985400390625,-300.1126770019531,74.24431915283203,-142.927880859375,1.6886862045208717e+18,1.9968716634114585,-0.7951093316078186,-0.09991816927989317,0.18051190177599585,0.5702851812044779,0.1869956056276957,-0.3733975092569987,1.9326092004776,1.6886862045295255e+18,2.005525227864583,10.000802357991537,2.33040984471639,-1.3784652551015217
2.0500000000000003,1.688686204572792e+18,2.048792154947917,0.678370475769043,-1.102254311243693,0.3762003183364868,1.688686204581446e+18,2.057446044921875,9.466006596883139,2.5020949045817056,-1.4612170457839966,1.688686204572792e+18,2.048792154947917,8.931740125020346,3.5991218090057373,-1.8691974480946858,1.6886862045771154e+18,2.0531155598958333,0.16966782013575232,0.7204646468162537,0.40999239558974904,1.688686204581446e+18,2.057446044921875,0.14874568581581113,0.7387906312942505,0.4940372755130132,,,,,,,,,,,,1.688686204573853e+18,2.04985283203125,-44.864279174804686,-20.81807975769043,-9.352519989013672,1.688686204573853e+18,2.04985283203125,-300.21027221679685,74.20771789550781,-142.0763153076172,1.688686204572792e+18,2.048792154947917,-0.7891360918680826,-0.09399112313985823,0.18947567542393995,0.576620082060496,0.2064200540383657,-0.3756452302138011,1.9189260005950928,1.688686204581446e+18,2.057446044921875,9.46002451578776,2.519442876180013,-1.5240286588668823
2.1,1.6886862046247096e+18,2.1007096354166666,0.6914567947387695,-0.5750765005747477,-0.348335305849711,1.6886862046247096e+18,2.1007097167968753,9.34487009048462,3.0194430351257324,-1.9363917112350462,1.6886862046247096e+18,2.1007096354166666,8.725234031677246,3.9341578483581543,-2.148251533508301,1.6886862046296338e+18,2.1056337890625,-0.003919718166192365,0.20341811577479044,0.6148358791445693,1.688686204632518e+18,2.1085179850260416,-0.016493361443281132,0.16009759902954102,0.5980879937609037,,,,,,,,,,,,1.6886862046238525e+18,2.099852587890625,-43.97855911254883,-22.39675979614258,-8.510719871520996,1.6886862046238525e+18,2.099852587890625,-299.3245483398438,72.62903747558593,-141.2345184326172,1.6886862046247096e+18,2.1007096354166666,-0.7830962340037028,-0.09945911665757494,0.21300079921881354,0.5757278998692831,0.24153480927149454,-0.4126513600349426,1.9245044787724812,1.6886862046247096e+18,2.1007097167968753,9.338887691497803,3.0367910861968994,-1.9992033243179324
2.15,1.6886862046766252e+18,2.1526251627604167,0.8783254623413086,0.6891967455546061,-0.3159790833791097,1.6886862046679693e+18,2.1439692382812496,9.822138150533041,4.44726022084554,-2.305085817972819,1.6886862046766252e+18,2.1526251627604167,8.684726397196451,4.05413277943929,-2.0914750893910727,1.6886862046766252e+18,2.1526251627604167,0.7076873878637949,0.17832173903783158,-0.013846280674139658,1.6886862046766252e+18,2.1526251627604167,0.7066183785597483,0.18285233030716577,-0.011555533856153497,,,,,,,,,,,,1.688686204673854e+18,2.1498541015625,-44.029798126220705,-22.77495880126953,-8.13007984161377,1.688686204673854e+18,2.1498541015625,-299.37579345703125,72.25083923339844,-140.85387573242187,1.6886862046766252e+18,2.1526251627604167,-0.777975598971049,-0.1048168763518333,0.21533885598182675,0.580822209517161,0.23641836643218994,-0.4260215262571971,1.9103330373764038,1.6886862046679693e+18,2.1439692382812496,9.816156387329102,4.464608192443848,-2.3678974310557046
2.2,1.688686204728537e+18,2.2045372721354166,1.219468116760254,-0.8824309508005778,0.6972300211588541,1.6886862047198843e+18,2.1958843587239585,9.749156951904297,3.6039896806081138,-1.6510476271311443,1.688686204728537e+18,2.2045372721354166,8.538000424702963,4.241312821706136,-2.308871269226074,1.688686204728537e+18,2.2045372721354166,0.6925684809684753,1.257720669110616,0.22250766803820923,1.688686204728537e+18,2.2045372721354166,0.6914994517962137,1.2622512181599934,0.22479840864737824,,,,,,,,,,,,1.6886862047238528e+18,2.1998530273437504,-44.16155853271484,-22.77007942199707,-7.734799766540528,1.6886862047238528e+18,2.1998530273437504,-299.50755004882814,72.25571746826172,-140.4585968017578,1.688686204728537e+18,2.2045372721354166,-0.7593362331390381,-0.10010001560052234,0.2339953780174255,0.5987721085548401,0.2642351488272349,-0.44708256920178724,1.8665800094604492,1.6886862047198843e+18,2.1958843587239585,9.743175188700357,3.621337572733561,-1.7138592004776
2.25,1.688686204780455e+18,2.256454833984375,-0.9134729703267416,-0.6445008118947347,0.17421801884969076,1.6886862047718031e+18,2.247802978515625,7.863213857014974,3.786043643951416,-2.6771697203318277,1.688686204780455e+18,2.256454833984375,8.335746129353842,4.412555535634358,-2.6965277194976807,1.688686204780455e+18,2.256454833984375,0.5394958257675171,0.7332419206698736,0.3421354393164317,1.688686204780455e+18,2.256454833984375,0.538426806529363,0.7376706947882968,0.3444261799256007,,,,,,,,,,,,1.6886862047738516e+18,2.2498517578125,-44.5202392578125,-23.099479293823244,-5.350920009613037,1.6886862047738516e+18,2.2498517578125,-299.8662353515625,71.926318359375,-138.07471618652343,1.688686204780455e+18,2.256454833984375,-0.7430208325386047,-0.08990394572416939,0.25892982880274457,0.6105309327443441,0.31299129128456116,-0.46654753883679706,1.8409016529719036,1.6886862047718031e+18,2.247802978515625,7.857232093811035,3.803391615549723,-2.7399813334147134
2.3000000000000003,1.6886862048237194e+18,2.299719482421875,0.07312750816345215,-1.785419225692749,0.29521113634109497,1.6886862048237187e+18,2.299718424479167,8.177471478780111,2.7320052782694497,-2.1816560427347818,1.6886862048237194e+18,2.299719482421875,8.323422908782959,4.510701656341553,-2.57006299495697,1.6886862048237194e+18,2.299719482421875,1.0389290750026703,-0.279776282608509,-0.44280093908309937,1.6886862048237194e+18,2.299719482421875,1.0378600358963013,-0.2753475084900856,-0.4404338523745537,,,,,,,,,,,,1.6886862048238513e+18,2.299851171875,-44.25427932739258,-23.2361198425293,-5.570519924163818,1.6886862048238513e+18,2.299851171875,-299.60027465820315,71.78967895507813,-138.29431762695313,1.6886862048237194e+18,2.299719482421875,-0.7320587337017059,-0.09376797825098035,0.25880248844623566,0.6231284737586975,0.29959818720817566,-0.47776924073696136,1.8047103881835938,1.6886862048237187e+18,2.299718424479167,8.171489238739014,2.7493531703948975,-2.2444676558176675
2.35,1.688686204866982e+18,2.3429820963541665,1.1254253387451174,-0.8384160200754801,1.5095342795054119,1.688686204875634e+18,2.3516341145833333,9.697312355041504,3.5956149101257324,-0.11206384686132272,1.688686204866982e+18,2.3429820963541665,8.518184979756674,4.303778648376465,-2.2665390968322754,1.688686204866982e+18,2.3429820963541665,0.8380053043365479,-0.17302757998307547,-0.942819615205129,1.688686204866982e+18,2.3429820963541665,0.8369363149007162,-0.16849699616432193,-0.9405288497606913,,,,,,,,,,,,1.6886862048738527e+18,2.3498527343749998,-45.20587921142578,-21.206039428710938,-7.1174798011779785,1.6886862048738527e+18,2.3498527343749998,-300.5518737792969,73.81975860595703,-139.84127807617188,1.688686204866982e+18,2.3429820963541665,-0.721562922000885,-0.08993068337440487,0.24025926987330112,0.6430059274037679,0.2602037787437439,-0.45418761173884076,1.7463314533233643,1.688686204875634e+18,2.3516341145833333,9.691330591837565,3.6129628817240396,-0.17487545311450958
2.4000000000000004,1.6886862049188948e+18,2.3948949381510416,1.5269076029459636,-1.4538171291351318,3.086068630218506,1.6886862049275497e+18,2.4035498860677085,9.958728472391764,2.226920207341512,0.659023235241572,1.6886862049188948e+18,2.3948949381510416,8.653093655904135,3.9602559407552085,-2.3796629905700684,1.6886862049188948e+18,2.3948949381510416,-0.4755076852937539,0.5107342302799225,-0.4403829301397006,1.6886862049188948e+18,2.3948949381510416,-0.476576695839564,0.5152139266331991,-0.4380921882887681,,,,,,,,,,,,1.6886862049238528e+18,2.39985283203125,-46.316079711914064,-19.395559310913086,-6.417199993133545,1.6886862049238528e+18,2.39985283203125,-301.6620727539063,75.63023986816407,-139.1409942626953,1.6886862049188948e+18,2.3948949381510416,-0.7202893098195394,-0.0707219392061233,0.23226730028788248,0.6497646570205688,0.26845696568489075,-0.41555895407994586,1.7305445273717244,1.6886862049275497e+18,2.4035498860677085,9.952746391296385,2.244268218676249,0.5962116519610087
2.45,1.6886862049708127e+18,2.4468128255208335,-1.0209784507751465,-2.717103958129883,2.474440097808838,1.688686204979465e+18,2.4554649251302085,7.248258590698242,1.2677971919377644,0.026719852738703236,1.6886862049708127e+18,2.4468128255208335,8.62650203704834,3.9549480279286704,-2.484286069869995,1.6886862049708127e+18,2.4468128255208335,-0.7003060976664225,-0.6583091293772062,0.48324530323346454,1.6886862049708127e+18,2.4468128255208335,-0.7013751069704691,-0.6538803353905678,0.48553605874379474,,,,,,,,,,,,1.6886862049738524e+18,2.449852392578125,-45.576759338378906,-19.77863998413086,-5.880399894714356,1.6886862049738524e+18,2.449852392578125,-300.92275390625,75.24715881347656,-138.60419921875,1.6886862049708127e+18,2.4468128255208335,-0.7326246500015259,-0.07157962520917253,0.2349027295907338,0.6347347299257914,0.280513862768809,-0.4149525860945384,1.7731407086054485,1.688686204979465e+18,2.4554649251302085,7.242276509602864,1.2851452032725017,-0.036091741019239
2.5,1.6886862050227249e+18,2.4987246907552083,-1.4574488004048665,-2.7993878523508706,1.6693565448125203,1.688686205031378e+18,2.5073778483072915,7.422137101491292,0.7844470056394736,-0.5290132140119871,1.6886862050227249e+18,2.4987246907552083,8.764467557271322,3.882695436477661,-2.0780062675476074,1.6886862050227249e+18,2.4987246907552083,-0.7220427195231119,-1.1718940734863281,-0.4901684435705344,1.6886862050227249e+18,2.4987246907552083,-0.7231117288271586,-1.1674652894337971,-0.4878777116537094,,,,,,,,,,,,1.6886862050238543e+18,2.499854345703125,-44.895999908447266,-20.59847984313965,-7.851919937133789,1.6886862050238543e+18,2.499854345703125,-300.2419921875,74.42732086181641,-140.57571716308593,1.6886862050227249e+18,2.4987246907552083,-0.7503916422526041,-0.08747075746456777,0.21348172922929123,0.6193297902743021,0.23299894233544663,-0.40693796674410504,1.8099228938420613,1.688686205031378e+18,2.5073778483072915,7.416154861450195,0.8017950082818667,-0.5918247799078623
2.5500000000000003,1.688686205074644e+18,2.55064404296875,-2.1516969998677573,-3.962167978286743,0.7653759717941284,1.6886862050746404e+18,2.5506402587890626,6.7932233810424805,-0.8045866191387177,-1.0935199856758118,1.688686205074644e+18,2.55064404296875,9.056921005249023,3.199014107386271,-1.9764188528060913,1.688686205074644e+18,2.55064404296875,-0.8422813415527344,-0.24164811770121253,-1.627243200937907,1.688686205074644e+18,2.55064404296875,-0.843350370724996,-0.23721933861573538,-1.6249524752298992,,,,,,,,,,,,1.6886862050738499e+18,2.549849755859375,-45.39863967895508,-18.661119842529295,-8.925519943237305,1.6886862050738499e+18,2.549849755859375,-300.7446350097656,76.36467742919922,-141.64931640625,1.688686205074644e+18,2.55064404296875,-0.7689041892687479,-0.06655635560552277,0.18385237455368042,0.6085763374964396,0.21499437093734738,-0.33227120836575824,1.8387162288029986,1.6886862050746404e+18,2.5506402587890626,6.787241458892822,-0.7872386276721954,-1.1563315391540527
2.6,1.6886862051265585e+18,2.6025585123697916,-1.9418090184529622,-4.353718280792236,-0.650849183400472,1.6886862051179026e+18,2.593902587890625,7.410771210988362,-1.9954147736231487,-2.2751755317052207,1.6886862051265585e+18,2.6025585123697916,9.347332318623861,2.203923463821411,-1.978938142458598,1.6886862051265585e+18,2.6025585123697916,-1.0516554315884907,-0.29250264664491016,-1.9162333408991497,1.6886862051265585e+18,2.6025585123697916,-1.0527244408925374,-0.28802296519279474,-1.9139425754547117,,,,,,,,,,,,1.688686205123854e+18,2.5998541015625003,-46.87971878051758,-14.608279991149903,-8.783999633789062,1.688686205123854e+18,2.5998541015625003,-302.2257141113281,80.41751861572266,-141.50780029296874,1.6886862051265585e+18,2.6025585123697916,-0.7875723441441854,-0.028877797226111068,0.15014265974362687,0.5967366496721903,0.20876014232635495,-0.22667900224526719,1.8686355352401736,1.6886862051179026e+18,2.593902587890625,7.404788970947266,-1.9780667225519817,-2.3379871447881064
2.6500000000000004,1.6886862051784748e+18,2.654474853515625,-1.6044034957885742,-4.131621281305949,-1.8310004075368245,1.6886862051698237e+18,2.64582373046875,7.617949644724528,-2.9752755165100098,-3.5716866652170816,1.6886862051784748e+18,2.654474853515625,9.54910945892334,1.044637680053711,-1.96050226688385,1.6886862051784748e+18,2.654474853515625,-1.051960865656535,-0.1691587641835213,-2.2205970287323,1.6886862051784748e+18,2.654474853515625,-1.0530298550923665,-0.16472999999920526,-2.218306303024292,,,,,,,,,,,,1.6886862051738514e+18,2.6498513671875,-47.448239135742185,-9.820999717712402,-9.049959945678712,1.6886862051738514e+18,2.6498513671875,-302.7942260742187,85.20479888916016,-141.7737579345703,1.6886862051784748e+18,2.654474853515625,-0.8053664366404215,0.0155041045315253,0.11305729051431013,0.5814167062441508,0.20259104669094077,-0.10673367728789644,1.901875416437785,1.6886862051698237e+18,2.64582373046875,7.61196772257487,-2.957927624384562,-3.634498119354248
2.7,1.688686205230391e+18,2.706390869140625,0.9680658976236979,-2.183532396952311,-2.3250295321146646,1.6886862052217344e+18,2.6977342122395833,9.902497291564941,-2.5986053943634033,-4.26480754216512,1.688686205230391e+18,2.706390869140625,9.542344093322754,-0.3674587408701579,-2.1980786323547363,1.688686205230391e+18,2.706390869140625,-1.5340862274169922,0.9894998868306478,-2.772564649581909,1.688686205230391e+18,2.706390869140625,-1.5351552963256836,0.9939795434474945,-2.7702229817708335,,,,,,,,,,,,1.688686205223852e+18,2.6998520507812502,-48.12411880493164,-4.52131986618042,-7.851919937133789,1.688686205223852e+18,2.6998520507812502,-303.4701171875,90.50447845458984,-140.57571716308593,1.688686205230391e+18,2.706390869140625,-0.8196620941162109,0.07936942577362056,0.08268702278534568,0.5607247948646545,0.2265027662118276,0.03752001871665317,1.93706218401591,1.6886862052217344e+18,2.6977342122395833,9.896514892578125,-2.581257422765096,-4.3276190757751465
2.75,1.6886862052736538e+18,2.7496539306640626,2.755765914916992,-2.2209811210632324,-3.6281121969223022,1.688686205273654e+18,2.749654052734375,11.695120175679525,-3.958127419153849,-6.450252215067546,1.6886862052736538e+18,2.7496539306640626,9.18874216079712,-1.7374882102012634,-2.941557288169861,1.6886862052736538e+18,2.7496539306640626,-2.216906309127808,2.833040237426758,-2.7290403842926025,1.6886862052736538e+18,2.7496539306640626,-2.217975378036499,2.8374691009521484,-2.7267496585845947,,,,,,,,,,,,1.6886862052738524e+18,2.749852587890625,-48.0777587890625,1.5347599625587462,-3.9698798418045045,1.6886862052738524e+18,2.749852587890625,-303.4237487792969,96.56055755615235,-136.6936767578125,1.6886862052736538e+18,2.7496539306640626,-0.8326815068721771,0.15738818049430844,0.081175222992897,0.5242861807346344,0.3100045323371887,0.1781398355960846,1.9895266890525818,1.688686205273654e+18,2.749654052734375,11.689137776692709,-3.940779527028402,-6.513063748677571
2.8000000000000003,1.688686205316916e+18,2.792915934244792,0.9702625274658203,-2.442488670349121,-4.7099043528238935,1.688686205325572e+18,2.8015721842447916,9.612367312113443,-5.407180945078532,-8.539386113484701,1.688686205316916e+18,2.792915934244792,8.614723523457846,-2.9055126508076987,-3.667044242223104,1.688686205316916e+18,2.792915934244792,-1.4485142230987549,1.6258178353309631,-2.075974623362223,1.688686205316916e+18,2.792915934244792,-1.4495832324028015,1.6302466591199238,-2.0736838976542153,,,,,,,,,,,,1.6886862053238508e+18,2.79985078125,-47.09199981689453,6.2854398727417,1.122399951517582,1.6886862053238508e+18,2.79985078125,-302.43800048828126,101.31123962402344,-131.60140075683594,1.688686205316916e+18,2.792915934244792,-0.8382089336713155,0.22906529406706488,0.09031600505113596,0.48620663086573285,0.4026687939961751,0.3008688390254974,2.0282227198282876,1.688686205325572e+18,2.8015721842447916,9.606385231018066,-5.389833132425944,-8.602197329203287
2.85,1.68868620536883e+18,2.8448300781249998,4.3275190989176435,-0.03033932050069173,-4.42621390024821,1.6886862053774856e+18,2.8534852701822917,12.471790631612143,-3.369493087132772,-7.9334031740824384,1.68868620536883e+18,2.8448300781249998,8.103529930114746,-3.808787981669108,-3.9932075341542563,1.68868620536883e+18,2.8448300781249998,-0.42816562453905743,1.4829262693723042,-1.6931148767471313,1.68868620536883e+18,2.8448300781249998,-0.4292346437772115,1.487405925989151,-1.6908241113026936,,,,,,,,,,,,1.688686205373851e+18,2.849850732421875,-45.618238830566405,9.713639831542968,2.874319911003113,1.688686205373851e+18,2.849850732421875,-300.9642272949219,104.73943786621093,-129.84947662353517,1.68868620536883e+18,2.8448300781249998,-0.8331984678904215,0.28151376048723853,0.0863675897320111,0.4677208364009857,0.4581621785958608,0.39886006712913513,2.024013042449951,1.6886862053774856e+18,2.8534852701822917,12.465808232625326,-3.352145195007324,-7.996215025583903
2.9000000000000004,1.6886862054207508e+18,2.896750895182292,0.3806743621826172,2.023875633875529,-1.2212297121683757,1.6886862054293972e+18,2.905397216796875,7.5708909034729,-2.7341986497243247,-6.00139840443929,1.6886862054207508e+18,2.896750895182292,7.238807042439778,-4.584836959838867,-4.7696757316589355,1.6886862054207508e+18,2.896750895182292,-0.7111998796463013,1.6633351345856984,-1.3306172092755635,1.6886862054207508e+18,2.896750895182292,-0.7122688889503479,1.6677639683087666,-1.3283264835675557,,,,,,,,,,,,1.68868620542385e+18,2.899849853515625,-43.517399597167966,13.327279663085937,7.707959842681885,1.68868620542385e+18,2.899849853515625,-298.8633972167969,108.3530776977539,-125.01583709716797,1.6886862054207508e+18,2.896750895182292,-0.8211161295572916,0.344329833984375,0.11115829894940053,0.44120816389719647,0.5828408996264139,0.4864133497079213,2.006706873575846,1.6886862054293972e+18,2.905397216796875,7.564908663431804,-2.716850678126017,-6.064210255940755
2.95,1.6886862054726638e+18,2.948663981119792,3.1558615366617837,2.1660563945770264,-1.9351522127787273,1.6886862054813156e+18,2.9573155110677085,9.44187879562378,-2.870789051055908,-6.629713853200276,1.6886862054726638e+18,2.948663981119792,6.858436902364095,-4.982850392659505,-4.932323932647705,1.6886862054726638e+18,2.948663981119792,-0.42068253954251605,1.2305371661980946,-0.5429064830144247,1.6886862054726638e+18,2.948663981119792,-0.42180245121320087,1.2350168228149414,-0.5406157573064169,,,,,,,,,,,,1.688686205473851e+18,2.949850830078125,-42.4462387084961,14.600959777832031,8.993839836120605,1.688686205473851e+18,2.949850830078125,-297.792236328125,109.6267578125,-123.7299591064453,1.6886862054726638e+18,2.948663981119792,-0.818342129389445,0.3701539635658264,0.11546930919090903,0.4240651528040568,0.6236311594645182,0.5328168670336405,2.0098230044047036,1.6886862054813156e+18,2.9573155110677085,9.435896396636963,-2.853440999984741,-6.692525704701741
