seconds_elapsed_rounded,accelerometer_time,accelerometer_seconds_elapsed,accelerometer_z,accelerometer_y,accelerometer_x,accelerometeruncalibrated_time,accelerometeruncalibrated_seconds_elapsed,accelerometeruncalibrated_z,accelerometeruncalibrated_y,accelerometeruncalibrated_x,gravity_time,gravity_seconds_elapsed,gravity_z,gravity_y,gravity_x,gyroscope_time,gyroscope_seconds_elapsed,gyroscope_z,gyroscope_y,gyroscope_x,gyroscopeuncalibrated_time,gyroscopeuncalibrated_seconds_elapsed,gyroscopeuncalibrated_z,gyroscopeuncalibrated_y,gyroscopeuncalibrated_x,location_time,location_seconds_elapsed,location_bearingAccuracy,location_speedAccuracy,location_verticalAccuracy,location_horizontalAccuracy,location_speed,location_bearing,location_altitude,location_longitude,location_latitude,magnetometer_time,magnetometer_seconds_elapsed,magnetometer_z,magnetometer_y,magnetometer_x,magnetometeruncalibrated_time,magnetometeruncalibrated_seconds_elapsed,magnetometeruncalibrated_z,magnetometeruncalibrated_y,magnetometeruncalibrated_x,orientation_time,orientation_seconds_elapsed,orientation_qz,orientation_qy,orientation_qx,orientation_qw,orientation_roll,orientation_pitch,orientation_yaw
0.0,1.688686543922382e+18,14.996382080078122,0.0962023337682087,0.0267203648885091,0.0590666929880777,1.688686543922382e+18,14.996382080078122,-0.5750750303268433,-9.223134676615397,3.3684961001078286,1.688686543922382e+18,14.996382080078122,-0.6771233876546224,-9.23235034942627,3.246742010116577,1.688686543926704e+18,15.000703857421875,0.0107664996758102,-0.0187841062434018,-0.0197004042565821,1.688686543926704e+18,15.000703857421875,0.0100029185414313,-0.0143553325906395,-0.01725694257766,,,,,,,,,,,,1.6886865439288852e+18,15.002885253906252,21.496399688720704,38.34947967529297,-20.81807975769043,1.6886865439288852e+18,15.002885253906252,-233.8495971679687,133.37528076171876,-153.54187927246093,1.688686543922382e+18,14.996382080078122,-0.2377640455961227,0.013027888101836,-0.7309518257776896,0.6395373543103536,-1.7761282126108806,1.2259787321090698,2.1381119887034097
0.05,1.6886865439742917e+18,15.048291585286458,0.077754259109497,0.0391416549682617,0.1533239682515461,1.6886865439742917e+18,15.048291585286458,-0.5896313985188802,-9.212167739868164,3.459423383076986,1.6886865439742917e+18,15.048291585286458,-0.6732316811879476,-9.233804702758787,3.2434120178222656,1.688686543969969e+18,15.04396875,0.0154752526432275,0.0998764683802922,-0.0132354134693741,1.688686543969969e+18,15.04396875,0.0146098602563142,0.1043052424987156,-0.0107919527217745,,,,,,,,,,,,1.688686543978881e+18,15.052881005859376,21.379279708862303,38.21527938842773,-21.162119674682614,1.688686543978881e+18,15.052881005859376,-233.9667175292969,133.24107971191407,-153.88591613769532,1.6886865439742917e+18,15.048291585286458,-0.2386708011229832,0.0142742947985728,-0.7307929992675781,0.6393539110819498,-1.7751858234405518,1.226417024930318,2.1402982076009116
0.1,1.6886865440262034e+18,15.100203531901045,-0.0514941215515136,0.0900805791219074,0.082444429397583,1.6886865440262034e+18,15.100203531901045,-0.7010970314343771,-9.160722414652506,3.393620808919271,1.6886865440262034e+18,15.100203531901045,-0.6554489334424337,-9.233298301696776,3.248488982518514,1.6886865440218816e+18,15.09588134765625,-0.0029016100646307,0.1887064526478449,-0.0254018126676479,1.6886865440218816e+18,15.09588134765625,-0.0038179077673703,0.1931352267662684,-0.0229583519200483,,,,,,,,,,,,1.688686544028884e+18,15.102883984375,21.308519744873045,38.12499923706055,-21.098679733276366,1.688686544028884e+18,15.102883984375,-234.0374786376953,133.1507995605469,-153.82247619628907,1.6886865440262034e+18,15.100203531901045,-0.2417860478162764,0.0171849528948465,-0.7301101287206014,0.6388908624649048,-1.769625465075175,1.2262638807296753,2.1435428460439048
0.15,1.688686544078118e+18,15.152117838541663,-0.329612374305725,-0.0237010320027668,-0.1976713339487711,1.688686544078118e+18,15.152117838541663,-0.9591230750083924,-9.273184776306152,3.1212377548217773,1.688686544078118e+18,15.152117838541663,-0.6353567242622375,-9.231979052225748,3.2562216917673745,1.6886865440737871e+18,15.147787190755208,-0.0106901417796809,0.0392480927209059,0.0342593589739408,1.6886865440737871e+18,15.147787190755208,-0.0116064399480819,0.0437277716894944,0.0368046313524245,1.688686544066526e+18,15.14052587890625,0.0,0.0,0.93897944688797,8.107000350952148,0.626316249370575,170.0405731201172,40.30000305175781,-122.7531573,49.1902693,1.6886865440788846e+18,15.152884765624998,21.450039672851563,38.53491973876953,-20.99375915527344,1.6886865440788846e+18,15.152884765624998,-233.89595642089844,133.5607177734375,-153.71755676269532,1.688686544078118e+18,15.152117838541663,-0.2440227518479029,0.0188425680001576,-0.7293683489163717,0.6388423442840576,-1.76322869459788,1.2258654435475669,2.142849922180176
0.2,1.6886865441300296e+18,15.204029703776042,-0.0622540513674418,-0.0176725387573241,0.0190335909525553,1.6886865441300296e+18,15.204029703776042,-0.6891329089800516,-9.268797874450684,3.3338001569112143,1.6886865441300296e+18,15.204029703776042,-0.6327248811721802,-9.233620643615724,3.252079168955485,1.6886865441257052e+18,15.199705322265624,0.0018835011093566,-0.1846340199311573,0.0510072478403647,1.6886865441257052e+18,15.199705322265624,0.0009672032513966,-0.1802052458127339,0.0535016153007745,,,,,,,,,,,,1.6886865441288873e+18,15.202887451171875,21.34511947631836,38.371439361572264,-21.193839645385744,1.6886865441288873e+18,15.202887451171875,-234.00087890625,133.3972381591797,-153.91764221191406,1.6886865441300296e+18,15.204029703776042,-0.2414473891258239,0.0161937276522317,-0.729339599609375,0.6399241288503011,-1.762688954671224,1.2263594071070354,2.134660482406616
0.25,1.688686544181941e+18,15.255940999348958,0.0938260356585184,0.0959170659383137,0.1437077522277831,1.688686544181941e+18,15.255940999348958,-0.5583252906799316,-9.155138969421388,3.4536406993865967,1.688686544181941e+18,15.255940999348958,-0.6579973498980204,-9.23355134328206,3.2472455501556396,1.688686544177616e+18,15.25161637369792,0.0077885319478809,-0.0202603631963332,-0.0597629820307095,1.688686544177616e+18,15.25161637369792,0.0068722339347004,-0.0158315918718775,-0.0573195212831099,,,,,,,,,,,,1.6886865441788844e+18,15.252884375,21.545199584960937,38.22747955322266,-20.86443939208984,1.6886865441788844e+18,15.252884375,-233.8007934570313,133.25327758789064,-153.5882354736328,1.688686544181941e+18,15.255940999348958,-0.2396958023309707,0.0149308089166879,-0.730249802271525,0.6395763953526815,-1.7704565127690632,1.226338267326355,2.138026237487793
0.3,1.688686544225194e+18,15.299194091796874,-0.0327844321727752,0.0320005416870116,0.046354055404663,1.688686544225194e+18,15.299194091796874,-0.7097710072994232,-9.216853618621826,3.357429265975952,1.688686544225194e+18,15.299194091796874,-0.6828325986862183,-9.2313494682312,3.2483878135681152,1.6886865442295288e+18,15.303529134114584,0.0008653923869132,0.0772235468029975,-0.0781398465236027,1.6886865442295288e+18,15.303529134114584,1.9402533399381916e-11,0.081652320921421,-0.0756963851551214,,,,,,,,,,,,1.6886865442288824e+18,15.302882324218752,21.349999618530273,38.30555953979492,-20.94495964050293,1.6886865442288824e+18,15.302882324218752,-233.99599914550785,133.33135681152345,-153.66875610351562,1.688686544225194e+18,15.299194091796874,-0.2407137006521224,0.0163517212495207,-0.7310859560966492,0.6382026076316833,-1.7777265310287476,1.225674390792847,2.148879289627075
0.35,1.6886865442684613e+18,15.34246142578125,-0.0811365246772765,-0.0083417892456054,-0.0222551822662353,1.6886865442684613e+18,15.34246142578125,-0.7718847195307413,-9.255637486775717,3.290330489476522,1.6886865442684613e+18,15.34246142578125,-0.696594218413035,-9.229791005452476,3.2498982747395835,1.6886865442814374e+18,15.355437337239584,-0.0055995980122436,-0.0429132827557623,0.014660765727361,1.6886865442814374e+18,15.355437337239584,-0.0064649904767671,-0.0384845089477796,0.017104227716724,,,,,,,,,,,,1.688686544278886e+18,15.352886083984377,21.755039596557616,38.09083938598633,-20.93763961791992,1.688686544278886e+18,15.352886083984377,-233.59095764160156,133.11663818359375,-153.66143493652345,1.6886865442684613e+18,15.34246142578125,-0.2411519189675648,0.0169281152387459,-0.73155277967453,0.6374870538711548,-1.7816888491312664,1.2252052625020344,2.154338995615641
0.4,1.6886865443203776e+18,15.394377604166666,0.0063690543174744,-0.0053647359212239,-0.0051767031351725,1.6886865443203776e+18,15.394377604166666,-0.6795616348584493,-9.252646446228027,3.308476130167643,1.6886865443203776e+18,15.394377604166666,-0.691776712735494,-9.229777018229166,3.250965436299642,1.6886865443333489e+18,15.407348714192707,-0.0113010071218013,-0.1099557429552077,0.0573195219039916,1.6886865443333489e+18,15.407348714192707,-0.0121663991982737,-0.1055269713203111,0.0597629832724729,,,,,,,,,,,,1.6886865443288845e+18,15.402884375000005,21.762359619140625,38.129879760742185,-20.788799285888672,1.6886865443288845e+18,15.402884375000005,-233.58363647460936,133.15567321777343,-153.5125946044922,1.6886865443203776e+18,15.394377604166666,-0.2398402392864227,0.0152713662634293,-0.7314213713010153,0.6381734808286031,-1.7802058458328247,1.225199778874715,2.1485208670298257
0.45,1.688686544372285e+18,15.446284830729168,0.136789560317993,0.0137926737467447,0.0048170089721679,1.688686544372285e+18,15.446284830729168,-0.5332006414731344,-9.23390261332194,3.3206396102905273,1.688686544372285e+18,15.446284830729168,-0.6758362253506979,-9.230190594991049,3.2531352043151855,1.688686544376613e+18,15.450613159179689,-0.0031306843447964,0.0343611696735024,0.0453567430377006,1.688686544376613e+18,15.450613159179689,-0.0040469822852173,0.0388663013000041,0.0478002056479453,,,,,,,,,,,,1.6886865443788808e+18,15.45288076171875,21.83311996459961,38.32263946533203,-20.737559509277343,1.6886865443788808e+18,15.45288076171875,-233.51287536621095,133.34844055175782,-153.46135559082032,1.688686544372285e+18,15.446284830729168,-0.2388324737548827,0.0137240675588448,-0.7308971285820007,0.6391869187355042,-1.7753790219624836,1.2253227631251018,2.1399594148000083
0.5,1.6886865444241984e+18,15.498198649088542,-0.0750889579455057,0.0226046244303385,0.0053159395853678,1.6886865444241984e+18,15.498198649088542,-0.7162515918413798,-9.22712262471517,3.321237881978353,1.6886865444241984e+18,15.498198649088542,-0.6470086574554443,-9.232222557067873,3.253234545389811,1.688686544419871e+18,15.49387109375,0.0150171043351292,0.154498000939687,-0.0020362176777173,1.688686544419871e+18,15.49387109375,0.0142026171088218,0.1589267700910567,0.0004072431474923,,,,,,,,,,,,1.6886865444288865e+18,15.502886669921876,21.879479598999023,38.20063858032226,-20.827839660644532,1.6886865444288865e+18,15.502886669921876,-233.46651916503907,133.2264404296875,-153.5516357421875,1.6886865444241984e+18,15.498198649088542,-0.2409459104140598,0.0157296393687525,-0.7298507491747538,0.6395422418912252,-1.7668646971384685,1.2259342273076377,2.137439727783203
0.55,1.688686544476106e+18,15.550105875651042,-0.2313421765963236,0.0219481786092122,0.0237425168355305,1.688686544476106e+18,15.550105875651042,-0.8646065791447958,-9.230113665262856,3.3345977465311685,1.688686544476106e+18,15.550105875651042,-0.6391104261080424,-9.234557151794434,3.2481678326924643,1.6886865444717834e+18,15.545783284505209,0.0172060380379358,0.0690786782652139,-0.0107919524113337,1.6886865444717834e+18,15.545783284505209,0.016289739559094,0.0735583566129207,-0.0082975858822464,,,,,,,,,,,,1.6886865444788792e+18,15.552879150390629,21.181639862060543,38.31775970458985,-21.04499931335449,1.6886865444788792e+18,15.552879150390629,-234.16435546875,133.34355773925782,-153.768798828125,1.688686544476106e+18,15.550105875651042,-0.2426736454168955,0.0179908821980158,-0.7295235395431519,0.6392035484313965,-1.7648269335428874,1.226638674736023,2.1412058671315513
0.6,1.6886865445280207e+18,15.60202099609375,-0.1115283966064453,0.0606177647908528,0.1432874997456868,1.6886865445280207e+18,15.60202099609375,-0.7425726254781088,-9.19282595316569,3.4506497383117676,1.6886865445280207e+18,15.60202099609375,-0.6368902524312338,-9.235939025878906,3.2446748415629068,1.6886865445236948e+18,15.597694661458334,0.0023925555093834,-0.0397571461896101,0.0130826973666747,1.6886865445236948e+18,15.597694661458334,0.0014762578066438,-0.03532837331295,0.0155770636629313,,,,,,,,,,,,1.6886865445288822e+18,15.60288232421875,21.20847930908203,38.400719451904294,-21.16699943542481,1.6886865445288822e+18,15.60288232421875,-234.13751525878905,133.42651977539063,-153.8907958984375,1.6886865445280207e+18,15.60202099609375,-0.2423228571812311,0.0178348931173483,-0.7294500271479288,0.6394248604774475,-1.7643732229868572,1.227055827776591,2.1399980386098227
0.65,1.6886865445799334e+18,15.653933512369791,-0.0386704007784525,0.0749648412068684,0.038021167119344,1.6886865445799334e+18,15.653933512369791,-0.6881359020868937,-9.174879709879557,3.351945718129476,1.6886865445799334e+18,15.653933512369791,-0.6553115248680115,-9.232339859008787,3.251237154006958,1.688686544575605e+18,15.64960506184896,-0.0179696188618738,-0.0212784723068276,-0.0403680118421713,1.688686544575605e+18,15.64960506184896,-0.0188859173407156,-0.0168497000510493,-0.0378736443817614,,,,,,,,,,,,1.6886865445788805e+18,15.652880322265624,21.83067970275879,38.61788024902344,-20.8839599609375,1.6886865445788805e+18,15.652880322265624,-233.51531677246095,133.6436767578125,-153.60775756835938,1.6886865445799334e+18,15.653933512369791,-0.2419241617123285,0.0171223276605208,-0.7301106055577596,0.6388410925865173,-1.7694438695907593,1.2259690761566162,2.1434808572133384
0.7,1.688686544631839e+18,15.705839029947915,-0.0666914582252502,-0.0506868362426757,-0.0994104544321695,1.688686544631839e+18,15.705839029947915,-0.7441678444544474,-9.296514828999838,3.2201410134633384,1.688686544631839e+18,15.705839029947915,-0.6833224097887675,-9.228323300679524,3.256864070892334,1.6886865446275172e+18,15.70151708984375,-0.0137444681798417,-0.0799724422395228,-0.035175656278928,1.6886865446275172e+18,15.70151708984375,-0.0146607657273609,-0.0755436681210994,-0.0326812906811634,,,,,,,,,,,,1.6886865446288832e+18,15.702883154296876,21.667199325561523,38.39583969116211,-21.33779983520508,1.6886865446288832e+18,15.702883154296876,-233.67879638671872,133.42163696289063,-154.0615997314453,1.688686544631839e+18,15.705839029947915,-0.2412468641996383,0.0162967921545107,-0.7311066389083862,0.637978732585907,-1.777365763982137,1.2247600555419922,2.149247169494629
0.75,1.6886865446750994e+18,15.749099365234375,0.1217806637287139,-0.0431394577026367,-0.0402781963348388,1.6886865446750994e+18,15.749099365234375,-0.5751747488975525,-9.2886381149292,3.276073217391968,1.6886865446750994e+18,15.749099365234375,-0.7028014361858368,-9.227993965148926,3.253664016723633,1.688686544679425e+18,15.753425130208331,0.0110464800770083,-0.0704022205124298,-0.0010181086836382,1.688686544679425e+18,15.753425130208331,0.0101810875542771,-0.065973447014888,0.0014762575738131,,,,,,,,,,,,1.6886865446788792e+18,15.75287919921875,21.69159927368164,38.39583892822266,-21.252399826049803,1.6886865446788792e+18,15.75287919921875,-233.65439453125,133.42163696289063,-153.9761962890625,1.6886865446750994e+18,15.749099365234375,-0.2396141588687896,0.0149508584290742,-0.7318146228790283,0.6378157436847687,-1.7832959294319153,1.2246606349945068,2.150830030441284
0.8,1.6886865447183547e+18,15.792354736328123,0.1598987976710001,0.0391461054484049,0.0643071333567301,1.6886865447183547e+18,15.792354736328123,-0.5383850932121277,-9.208778063456217,3.373481194178263,1.6886865447183547e+18,15.792354736328123,-0.7041299144426981,-9.230419476826986,3.2464866638183594,1.6886865447313354e+18,15.805335123697915,0.0170533216247955,0.06709336489439,-0.0173078486695885,1.6886865447313354e+18,15.805335123697915,0.0161879289274413,0.0715221390128135,-0.0147625768246749,,,,,,,,,,,,1.6886865447288763e+18,15.8028765625,21.90143928527832,38.30311965942383,-20.927879333496097,1.6886865447288763e+18,15.8028765625,-233.4445556640625,133.32891845703125,-153.65167846679688,1.6886865447183547e+18,15.792354736328123,-0.2392951448758443,0.0151723008602856,-0.7318565646807352,0.6378820538520813,-1.7841447591781616,1.2253894805908203,2.151512702306112
0.85,1.6886865447702682e+18,15.844268229166667,0.0299046238263448,0.0026512145996093,0.0436112880706786,1.6886865447702682e+18,15.844268229166667,-0.6574280261993408,-9.246464729309082,3.3517463207244873,1.6886865447702682e+18,15.844268229166667,-0.693178673585256,-9.231611251831056,3.2454476356506348,1.688686544783248e+18,15.857247884114583,-5.0905412839099815e-05,0.1242092649141947,0.0144571444640557,1.688686544783248e+18,15.857247884114583,-0.0009672032902017,0.1286380390326181,0.016900604745994,1.688686544786e+18,15.859999755859375,0.0,0.0,0.8879112601280212,8.770000457763672,0.2777464687824249,175.41610717773438,40.30000305175781,-122.7531663,49.1902913,1.6886865447788754e+18,15.852875244140623,21.41099967956543,38.27139892578125,-20.9669189453125,1.6886865447788754e+18,15.852875244140623,-233.93499450683595,133.29720153808594,-153.6907196044922,1.6886865447702682e+18,15.844268229166667,-0.2409616659084955,0.0170129543791213,-0.7314350207646688,0.6376912792523702,-1.7809900442759197,1.2257479826609294,2.1534685293833413
0.9,1.68868654482218e+18,15.896180175781248,-0.0929748614629109,0.0472062428792317,-0.0330316225687662,1.68868654482218e+18,15.896180175781248,-0.7467600703239441,-9.2027956644694,3.2795628706614175,1.68868654482218e+18,15.896180175781248,-0.6596312324206034,-9.232497215270996,3.2499070962270102,1.6886865448265114e+18,15.900511230468751,0.0004581489483826,0.1010218374431132,0.0436768643558025,1.6886865448265114e+18,15.900511230468751,-0.0004581489483826,0.1054506115615367,0.0461203269660472,,,,,,,,,,,,1.6886865448288763e+18,15.9028763671875,21.557399368286134,38.37875900268555,-20.981559371948244,1.6886865448288763e+18,15.9028763671875,-233.7885925292969,133.40455932617186,-153.70535583496093,1.68868654482218e+18,15.896180175781248,-0.2432090987761815,0.0187575854361056,-0.7302229205767313,0.6381782094637553,-1.770816167195638,1.2260138193766277,2.1491189002990723
0.95,1.6886865448740913e+18,15.948090983072916,-0.1505636970202128,-0.0066105524698893,-0.0001237392425536,1.6886865448740913e+18,15.948090983072916,-0.77986079454422,-9.258827845255531,3.311068296432495,1.6886865448740913e+18,15.948090983072916,-0.6351431210835775,-9.234712600708008,3.248504638671875,1.6886865448697672e+18,15.94376717122396,0.0105883308375874,0.0345647918681303,0.0279470855991045,1.6886865448697672e+18,15.94376717122396,0.0096720331348478,0.0390444708367188,0.0303905457258223,,,,,,,,,,,,1.6886865448788764e+18,15.952876513671873,20.83271942138672,38.35435943603515,-21.188959884643555,1.6886865448788764e+18,15.952876513671873,-234.51327209472657,133.38015747070312,-153.91275634765626,1.6886865448740913e+18,15.948090983072916,-0.2442024797201156,0.0196522021045287,-0.7293447057406107,0.6387763619422913,-1.763651450475057,1.2266817887624104,2.144691467285156
1.0,1.6886865449260032e+18,16.00000325520833,-0.1286335984865824,0.0618553161621093,0.0706408023834228,1.6886865449260032e+18,16.00000325520833,-0.7551349401473999,-9.192227363586426,3.377070347468058,1.6886865449260032e+18,16.00000325520833,-0.6323473652203878,-9.236577987670898,3.2437421480814614,1.6886865449216796e+18,15.995679443359371,0.0099774656506875,-0.004988732902954,-0.0066177072003483,1.6886865449216796e+18,15.995679443359371,0.0090611679479479,-0.000559959715853,-0.0041742459870874,,,,,,,,,,,,1.688686544928877e+18,16.002876953125,21.21823959350586,38.34947891235352,-21.14991912841797,1.688686544928877e+18,16.002876953125,-234.12775268554688,133.37527465820312,-153.87371520996095,1.6886865449260032e+18,16.00000325520833,-0.2441215167442957,0.0198954461763302,-0.7292406558990479,0.6389185587565104,-1.7630998690923054,1.227245529492696,2.144358237584432
1.05,1.6886865449779162e+18,16.051916341145834,-0.092694600423177,0.044894536336263,0.0490352312723795,1.6886865449779162e+18,16.051916341145834,-0.7373881737391154,-9.208179473876957,3.3547373612721763,1.6886865449779162e+18,16.051916341145834,-0.6505395968755087,-9.23556931813558,3.2430147329966226,1.6886865449735905e+18,16.047590494791667,-0.0027488936514904,-0.02204205468297,-0.0357865219314892,1.6886865449735905e+18,16.047590494791667,-0.0036651914318402,-0.0176132811854282,-0.0333430618047714,,,,,,,,,,,,1.6886865449788764e+18,16.052876513671876,21.267039489746093,38.45683898925781,-21.16212043762207,1.6886865449788764e+18,16.052876513671876,-234.0789581298828,133.48263549804688,-153.8859130859375,1.6886865449779162e+18,16.051916341145834,-0.2437648425499597,0.0198076417048771,-0.7298784653345743,0.6383288105328878,-1.7685399055480957,1.2269401550292969,2.1491587162017822
1.1,1.68868654502983e+18,16.103830159505208,-0.0508048733075459,0.0026493072509765,-0.0327707131703694,1.68868654502983e+18,16.103830159505208,-0.7162515918413798,-9.247661272684732,3.2765719095865884,1.68868654502983e+18,16.103830159505208,-0.6712927420934042,-9.232805887858072,3.246655225753784,1.6886865450255045e+18,16.09950472005208,-0.0128281700114408,-0.0673987977206706,-0.0132863188628106,1.6886865450255045e+18,16.09950472005208,-0.0137444681798417,-0.0629700248440106,-0.0107919525859566,1.6886865450381025e+18,16.112102294921876,0.0,0.0,0.8953304290771484,10.07699966430664,0.0510753653943538,0.0,40.30000305175781,-122.7531722,49.190309,1.6886865450288763e+18,16.102876171875,21.391479873657225,38.07619857788086,-21.145039367675786,1.6886865450288763e+18,16.102876171875,-233.9545166015625,133.10199890136718,-153.86883850097655,1.68868654502983e+18,16.103830159505208,-0.2429531663656234,0.0188887901604175,-0.7306272387504578,0.6378091971079508,-1.7744651635487874,1.2261054913202922,2.1525824864705405
1.15,1.6886865450817434e+18,16.15574332682292,0.0569302241007486,-0.0042126973470052,-0.0236311753590901,1.6886865450817434e+18,16.15574332682292,-0.6251249114672343,-9.25244681040446,3.288137118021647,1.6886865450817434e+18,16.15574332682292,-0.6879011591275533,-9.230729420979818,3.2490808963775635,1.6886865450774182e+18,16.151418212890622,-0.0106901417796809,-0.0778853197892506,-0.008653924257184,1.6886865450774182e+18,16.151418212890622,-0.0115555341665942,-0.0734565456708272,-0.0061086525286857,,,,,,,,,,,,1.6886865450788818e+18,16.152881884765627,21.530559158325197,38.12743911743164,-21.35244026184082,1.6886865450788818e+18,16.152881884765627,-233.8154327392578,133.15323791503906,-154.07623901367188,1.6886865450817434e+18,16.15574332682292,-0.2416003495454788,0.0173825590560833,-0.7312442660331726,0.6376587947209676,-1.7792203426361084,1.225479284922282,2.1531805992126465
1.2,1.688686545133658e+18,16.20765771484375,0.0773027737935383,-0.0285749435424804,-0.016272226969401,1.688686545133658e+18,16.20765771484375,-0.6107679804166158,-9.276774088541666,3.294318517049154,1.688686545133658e+18,16.20765771484375,-0.6939167777697245,-9.230694452921549,3.247903347015381,1.6886865451293317e+18,16.203331705729166,0.0050396382575854,-0.0144571443088352,0.0040724349237279,1.6886865451293317e+18,16.203331705729166,0.0041233405936509,-0.0100283709665139,0.0066177068122972,,,,,,,,,,,,1.6886865451288806e+18,16.202880419921875,21.40855903625488,38.059119415283206,-21.001079940795897,1.6886865451288806e+18,16.202880419921875,-233.93743286132812,133.0849151611328,-153.7248748779297,1.688686545133658e+18,16.20765771484375,-0.2409145335356394,0.0167740726222594,-0.7314685781796774,0.6376775105794271,-1.7810693581899006,1.2254679997762044,2.153139034907023
1.25,1.6886865451769196e+18,16.250919555664062,0.0816261172294616,0.047037124633789,0.0554357767105102,1.6886865451769196e+18,16.250919555664062,-0.5997011661529541,-9.20279598236084,3.362813115119934,1.6886865451769196e+18,16.250919555664062,-0.6871733069419861,-9.232328414916992,3.24468994140625,1.6886865451812485e+18,16.255248046875,0.0137953733404476,0.0732020176947116,0.0055486926964173,1.6886865451812485e+18,16.255248046875,0.0129299809535343,0.077630791813135,0.0079921536768475,,,,,,,,,,,,1.6886865451788836e+18,16.25288359375,21.16699981689453,38.18355941772461,-20.73755989074707,1.6886865451788836e+18,16.25288359375,-234.17899475097656,133.20935668945313,-153.46135864257812,1.6886865451769196e+18,16.250919555664062,-0.2412761822342872,0.0173481628298758,-0.731220543384552,0.6378098428249359,-1.779285907745361,1.2259601354599,2.1527063846588135
1.3,1.6886865452201818e+18,16.29418172200521,-0.0414355595906575,0.0764563878377278,0.0705126126607258,1.6886865452201818e+18,16.29418172200521,-0.7042874693870544,-9.174879709879557,3.377469221750895,1.6886865452201818e+18,16.29418172200521,-0.6686979333559672,-9.233831405639648,3.2442692120869956,1.6886865452331569e+18,16.307156819661458,-0.0019853120077945,0.1038470938801765,0.0149661982432007,1.6886865452331569e+18,16.307156819661458,-0.0028507046517916,0.1082758655150731,0.0175114705537755,,,,,,,,,,,,1.6886865452288827e+18,16.3028826171875,21.0205997467041,38.42755966186523,-21.29143943786621,1.6886865452288827e+18,16.3028826171875,-234.3253967285156,133.45335998535157,-154.015234375,1.6886865452201818e+18,16.29418172200521,-0.2427951643864313,0.0188588183373212,-0.7305390238761902,0.637971023718516,-1.77385679880778,1.2264124155044556,2.1516892115275064
1.35,1.6886865452720886e+18,16.346088541666667,-0.1827260057131448,0.0258140563964843,-0.045853853225708,1.6886865452720886e+18,16.346088541666667,-0.8275178074836731,-9.223334630330404,3.2709885438283286,1.6886865452720886e+18,16.346088541666667,-0.6506378253300985,-9.231643994649252,3.254155000050863,1.688686545276419e+18,16.35041906738281,-0.0321467844769358,0.0133626768365502,0.0105374250560998,1.688686545276419e+18,16.35041906738281,-0.0330630801618098,0.0177914500236511,0.012980886735022,,,,,,,,,,,,1.6886865452788864e+18,16.352886376953126,20.84491958618164,38.09084014892578,-21.330479431152344,1.6886865452788864e+18,16.352886376953126,-234.5010772705078,133.11663818359375,-154.0542785644531,1.6886865452720886e+18,16.346088541666667,-0.2444337407747903,0.0196928419172763,-0.7298871676127116,0.6380666891733805,-1.767928123474121,1.2257524331410723,2.1493968963623047
1.4,1.688686545324006e+18,16.398005859375,-0.136529525121053,-0.0807660420735676,-0.1654228369394937,1.688686545324006e+18,16.398005859375,-0.7852446436882019,-9.326424916585283,3.16051983833313,1.688686545324006e+18,16.398005859375,-0.6545611421267191,-9.228154182434082,3.2632552782694497,1.6886865453196808e+18,16.393680826822916,-0.0235183121015627,-0.1418225492040316,0.0402152954290309,1.6886865453196808e+18,16.393680826822916,-0.0244346096490819,-0.1373937750856081,0.042709662268559,,,,,,,,,,,,1.6886865453288863e+18,16.4028861328125,21.193839263916015,38.53735885620117,-21.36707992553711,1.6886865453288863e+18,16.4028861328125,-234.1521545410156,133.5631591796875,-154.09087829589845,1.688686545324006e+18,16.398005859375,-0.2431772351264952,0.01759191788733,-0.7300773660341898,0.6383893887201945,-1.768548329671224,1.2247014840443928,2.145144780476888
1.45,1.688686545375913e+18,16.4499130859375,0.114098290602366,0.0266644159952799,0.0610454082489013,1.688686545375913e+18,16.4499130859375,-0.5495515863100687,-9.219944636027018,3.3812578519185386,1.688686545375913e+18,16.4499130859375,-0.6694959004720052,-9.229104359944662,3.2575250466664634,1.688686545371591e+18,16.445590576171877,0.0128281699338306,-0.102727174758911,-0.0136426572377483,1.688686545371591e+18,16.445590576171877,0.0119118725415318,-0.0982984012613693,-0.0111991971110304,,,,,,,,,,,,1.6886865453788884e+18,16.4528884765625,21.315839767456055,38.24699935913086,-21.2426399230957,1.6886865453788884e+18,16.4528884765625,-234.0301544189453,133.27279968261718,-153.9664337158203,1.688686545375913e+18,16.4499130859375,-0.2405694971481958,0.0152726139252383,-0.7306511998176575,0.6387813488642374,-1.7732915878295898,1.2249858379364014,2.1426801681518555
1.5,1.688686545427825e+18,16.50182503255208,0.0377504626909891,0.0610491434733072,0.1401221752166747,1.688686545427825e+18,16.50182503255208,-0.6470591028531393,-9.186644554138184,3.4528430302937827,1.688686545427825e+18,16.50182503255208,-0.6906555891036987,-9.230189005533854,3.250033458073934,1.6886865454235034e+18,16.497503255208333,0.0233655950675407,0.1057814992964267,-0.0697404493888218,1.6886865454235034e+18,16.497503255208333,0.0224492978304624,0.1102611757814883,-0.0672969867785771,,,,,,,,,,,,1.6886865454288822e+18,16.502882324218753,21.43051948547363,38.444638061523435,-21.16455993652344,1.6886865454288822e+18,16.502882324218753,-233.915478515625,133.47044067382814,-153.88835754394532,1.688686545427825e+18,16.50182503255208,-0.2410759776830672,0.0167436158905426,-0.731356660525004,0.6377447843551636,-1.7799866199493408,1.225312312444051,2.152252991994222
1.55,1.688686545479741e+18,16.553740804036458,-0.1145463784535725,0.0348529815673827,0.0212722619374592,1.688686545479741e+18,16.553740804036458,-0.8057830333709717,-9.21256669362386,3.3334012826283774,1.688686545479741e+18,16.553740804036458,-0.6970826784769694,-9.229914983113607,3.249441623687744,1.688686545475417e+18,16.549417154947918,-0.001628973831733,0.0357356183230876,-0.0182750516881545,1.688686545475417e+18,16.549417154947918,-0.00244346090282,0.040164390578866,-0.0157806860903898,,,,,,,,,,,,1.6886865454788828e+18,16.5528830078125,21.44515953063965,38.390959930419925,-21.191400146484376,1.6886865454788828e+18,16.5528830078125,-233.9008361816406,133.41676025390626,-153.91519470214843,1.688686545479741e+18,16.553740804036458,-0.242469956477483,0.0184812527149915,-0.7315394481023153,0.6369590560595194,-1.781917651494344,1.2252297401428225,2.158762296040853
1.6,1.6886865455316488e+18,16.60564851888021,-0.0362793405850728,-0.0352226893107096,-0.1102221012115478,1.6886865455316488e+18,16.60564851888021,-0.722034215927124,-9.280562400817873,3.208974520365397,1.6886865455316488e+18,16.60564851888021,-0.6916008989016215,-9.227835019429524,3.256509224573771,1.6886865455273275e+18,16.601327718098958,-0.0280998013913631,-0.1333722447355587,0.0723366277913252,1.6886865455273275e+18,16.601327718098958,-0.0290160986284414,-0.1289434706171353,0.0748309915264446,,,,,,,,,,,,1.6886865455288812e+18,16.602881103515625,21.276799392700195,38.405599975585936,-21.0205997467041,1.6886865455288812e+18,16.602881103515625,-234.06919555664064,133.4313995361328,-153.74439697265626,1.6886865455316488e+18,16.60564851888021,-0.2411908109982808,0.0163751626387237,-0.7313981850941976,0.6376629670461019,-1.7798639138539631,1.2246033747990923,2.151783227920532
1.65,1.6886865455835628e+18,16.65756258138021,0.0972104271252949,-0.0527591705322265,-0.0660099188486734,1.6886865455835628e+18,16.65756258138021,-0.5706882079442342,-9.2989075978597,3.2546376387278237,1.6886865455835628e+18,16.65756258138021,-0.6737446586290995,-9.228643735249838,3.2579601605733237,1.6886865455792402e+18,16.653240234375,-0.0059050305280833,-0.0966694255669911,0.0691804885864257,1.6886865455792402e+18,16.653240234375,-0.0067704229926069,-0.0922406514485676,0.071623949954907,,,,,,,,,,,,1.6886865455788826e+18,16.652882470703126,21.281679153442383,38.33727874755859,-20.94007987976074,1.6886865455788826e+18,16.652882470703126,-234.06431274414064,133.36307373046876,-153.66387939453125,1.6886865455835628e+18,16.65756258138021,-0.2390166322390238,0.0135204667846361,-0.7308349013328552,0.6391934355099996,-1.7745226621627808,1.224844654401143,2.139090140660604
1.7,1.6886865456268247e+18,16.700824707031252,0.0018345415592193,0.0209364891052245,-0.0476993322372436,1.6886865456268247e+18,16.700824707031252,-0.6517450511455536,-9.22851848602295,3.266502022743225,1.6886865456268247e+18,16.700824707031252,-0.6594256162643433,-9.231950283050535,3.251513957977295,1.688686545631152e+18,16.705152018229168,0.034310265444219,0.0531452754512428,0.0296778697520494,1.688686545631152e+18,16.705152018229168,0.0333939672758181,0.0575740492592255,0.032121330499649,,,,,,,,,,,,1.6886865456288865e+18,16.702886523437503,21.454919815063477,38.25919952392578,-20.92787971496582,1.6886865456288865e+18,16.702886523437503,-233.89107666015624,133.28500061035157,-153.65167846679688,1.6886865456268247e+18,16.700824707031252,-0.2386771216988563,0.0134451063349842,-0.7303372025489807,0.6398906111717224,-1.770690619945526,1.2258392572402954,2.1346203088760376
1.75,1.688686545670086e+18,16.7440859375,-0.0237954258918762,0.0901892979939778,0.217801809310913,1.688686545670086e+18,16.7440859375,-0.6538387934366862,-9.16630490620931,3.5166516304016113,1.688686545670086e+18,16.7440859375,-0.6358893911043803,-9.23898951212565,3.2361624240875244,1.688686545683064e+18,16.757064046223956,0.0380772671972711,0.203825369477272,-0.0285579509412249,1.688686545683064e+18,16.757064046223956,0.0371609688736498,0.2082541386286417,-0.0260635837912559,,,,,,,,,,,,1.6886865456788856e+18,16.75288564453125,21.076719665527342,38.38119964599609,-21.064519500732423,1.6886865456788856e+18,16.75288564453125,-234.26927795410157,133.40699768066406,-153.78831787109374,1.688686545670086e+18,16.7440859375,-0.2399371018012364,0.0157686149080594,-0.7294684052467346,0.6403558651606241,-1.7646199067433674,1.2279674609502156,2.1337126890818277
1.8,1.6886865457219955e+18,16.795995686848958,-0.2128503918647765,0.1574519475301106,0.2422902584075927,1.6886865457219955e+18,16.795995686848958,-0.8356933196385702,-9.100502967834473,3.538386503855387,1.6886865457219955e+18,16.795995686848958,-0.6286889513333639,-9.240450223286947,3.2334088484446206,1.6886865457263237e+18,16.80032373046875,0.0167987935710698,0.1975385472178458,-0.087353728711605,1.6886865457263237e+18,16.80032373046875,0.0158824955578893,0.2019673213362693,-0.0849102698266505,,,,,,,,,,,,1.6886865457288845e+18,16.802884472656253,20.73511962890625,38.24211959838867,-21.386599731445312,1.6886865457288845e+18,16.802884472656253,-234.61087646484376,133.26791381835938,-154.1103942871094,1.6886865457219955e+18,16.795995686848958,-0.2436405171950657,0.0201072618365287,-0.7291103601455688,0.63924241065979,-1.762640913327535,1.228410720825195,2.143467346827189
1.85,1.688686545773906e+18,16.84790576171875,-0.3108456134796142,-0.0169429779052734,-0.0266719659169514,1.688686545773906e+18,16.84790576171875,-0.9565308690071106,-9.26919682820638,3.281158049901326,1.688686545773906e+18,16.84790576171875,-0.6515312989552816,-9.23474915822347,3.245142618815104,1.6886865457695877e+18,16.84358780924479,-0.0384336051841576,-0.081601416071256,-0.0208203246196111,1.6886865457695877e+18,16.84358780924479,-0.0393499036629994,-0.0771726456781228,-0.0182241474588712,,,,,,,,,,,,1.6886865457788846e+18,16.852884521484377,21.074279403686525,38.13231887817383,-21.35,1.6886865457788846e+18,16.852884521484377,-234.27171020507816,133.15811767578126,-154.07379455566405,1.688686545773906e+18,16.84790576171875,-0.244571362932523,0.0205733465651671,-0.72989555199941,0.6379754940668741,-1.7687382300694785,1.2266846895217896,2.1516643365224204
1.9,1.6886865458258207e+18,16.899820556640623,0.1175293028354644,-0.0048592885335287,-0.1012082894643147,1.6886865458258207e+18,16.899820556640623,-0.5613163113594055,-9.250652313232422,3.218147039413452,1.6886865458258207e+18,16.899820556640623,-0.6846916476885477,-9.228288332621258,3.2566679318745932,1.688686545821496e+18,16.895495849609375,-0.0420987966159979,-0.2958114941914876,0.0246891373147566,1.688686545821496e+18,16.895495849609375,-0.0429641890029111,-0.2913318177064259,0.0271325974414745,,,,,,,,,,,,1.688686545828887e+18,16.90288701171875,21.27924003601074,38.405599212646486,-21.123079681396483,1.688686545828887e+18,16.90288701171875,-234.06675720214844,133.431396484375,-153.8468780517578,1.6886865458258207e+18,16.899820556640623,-0.2403888007005055,0.0153437849755088,-0.7311802307764689,0.6382389465967814,-1.7778304815292358,1.2247370481491089,2.147067864735922
1.95,1.6886865458777326e+18,16.95173258463542,0.2578786114851633,-0.0599816640218098,-0.1359579563140869,1.6886865458777326e+18,16.95173258463542,-0.4496512611707051,-9.301898320515951,3.1882367928822837,1.6886865458777326e+18,16.95173258463542,-0.7133759260177612,-9.224411964416504,3.2615073521931968,1.688686545873403e+18,16.947402832031248,-0.0154752526432275,-0.0875064459008474,-0.0147116715088486,1.688686545873403e+18,16.947402832031248,-0.0163915509668488,-0.0830776720734623,-0.0122682106060285,,,,,,,,,,,,1.6886865458788844e+18,16.95288447265625,21.76723976135254,38.24700012207031,-20.92544021606445,1.6886865458788844e+18,16.95288447265625,-233.5787567138672,133.27279663085938,-153.64923706054688,1.6886865458777326e+18,16.95173258463542,-0.2375470101833343,0.0120983698094884,-0.7322422862052917,0.6381585001945496,-1.7859487533569336,1.2235730489095051,2.146336078643799
2.0,1.688686545929646e+18,17.00364591471354,0.1442531347274779,-0.0628522237141926,-0.0902160803476969,1.688686545929646e+18,17.00364591471354,-0.5688935915629069,-9.306684176127115,3.2273194789886475,1.688686545929646e+18,17.00364591471354,-0.7189927498499552,-9.226327260335289,3.2548481623331704,1.6886865459253166e+18,16.999316487630207,0.0283543281257152,0.0794124814371267,-0.0311032223204771,1.6886865459253166e+18,16.999316487630207,0.0274889357388019,0.0838412555555502,-0.0285579506307839,,,,,,,,,,,,1.6886865459288837e+18,17.00288330078125,21.92339973449707,38.481239318847656,-20.99619941711426,1.6886865459288837e+18,17.00288330078125,-233.4225921630859,133.5070373535156,-153.71999816894532,1.688686545929646e+18,17.00364591471354,-0.2379846175511677,0.0132060290003816,-0.7324188152949015,0.6377704540888468,-1.788025697072347,1.224147041638692,2.1506500244140625
2.05,1.688686545981554e+18,17.055553873697917,0.0138779878616332,0.0607722600301106,0.0633052984873453,1.688686545981554e+18,17.055553873697917,-0.6771688063939413,-9.189236323038736,3.3680973052978516,1.688686545981554e+18,17.055553873697917,-0.6968928178151449,-9.232503890991213,3.2421046098073325,1.688686545977232e+18,17.051231852213544,0.0333939660340547,0.1370374336838722,0.0144571443088351,1.688686545977232e+18,17.051231852213544,0.0325285736471414,0.1415171176195144,0.0169006050564348,,,,,,,,,,,,1.6886865459788856e+18,17.052885546875,21.781879806518553,38.27871932983398,-21.13527946472168,1.6886865459788856e+18,17.052885546875,-233.56411743164065,133.3045166015625,-153.85907592773438,1.688686545981554e+18,17.055553873697917,-0.2398124535878499,0.0160077440862853,-0.7315936287244161,0.6379682620366415,-1.7823445002237956,1.226003646850586,2.151668071746826
2.1,1.6886865460334728e+18,17.107472737630207,-0.0685078104337056,0.0593649546305338,0.1153550148010253,1.6886865460334728e+18,17.107472737630207,-0.7280162771542867,-9.194022496541342,3.4171501795450845,1.6886865460334728e+18,17.107472737630207,-0.6653544902801514,-9.235882759094238,3.2391077677408853,1.6886865460291402e+18,17.103140380859376,0.0077885316956477,0.0754927645126978,0.0446949737767378,1.6886865460291402e+18,17.103140380859376,0.0068722338764927,0.0799215386311212,0.0471893399953841,,,,,,,,,,,,1.6886865460288804e+18,17.102880517578125,21.367079162597655,38.50075836181641,-20.830279541015624,1.6886865460288804e+18,17.102880517578125,-233.97891540527343,133.52655639648438,-153.5540771484375,1.6886865460334728e+18,17.107472737630207,-0.2414152771234511,0.0176373378684123,-0.7304572860399882,0.6386231184005737,-1.7732129096984863,1.2270231246948242,2.147224187850952
2.15,1.688686546076717e+18,17.150716918945314,-0.1250123381614685,0.0397276878356933,0.0898752212524413,1.688686546076717e+18,17.150716918945314,-0.7501499056816101,-9.214760303497314,3.3954153060913086,1.688686546076717e+18,17.150716918945314,-0.6309835910797119,-9.236983299255373,3.242852687835694,1.6886865460810545e+18,17.155054443359376,-0.0052941655740141,0.0683660010496775,0.0602720379829406,1.6886865460810545e+18,17.155054443359376,-0.0061595579609274,0.0727947751681009,0.0627154993514219,1.6886865460708623e+18,17.1448623046875,0.0,0.0,0.9056556224822998,12.317999839782717,0.1614636033773422,339.7461853027344,40.30000305175781,-122.7531763,49.1903254,1.6886865460788823e+18,17.1528822265625,21.318279266357425,38.39339904785156,-21.003519821166993,1.6886865460788823e+18,17.1528822265625,-234.02771911621093,133.41919860839843,-153.7273162841797,1.688686546076717e+18,17.150716918945314,-0.2426162138581275,0.0182251939550041,-0.7292430996894836,0.6395386457443237,-1.7627963423728945,1.227355778217316,2.139410138130188
2.2,1.6886865461199885e+18,17.193988606770834,-0.15958833694458,0.0634183883666991,0.0550492604573567,1.6886865461199885e+18,17.193988606770834,-0.7645068168640137,-9.190632502237955,3.3657044569651284,1.6886865461199885e+18,17.193988606770834,-0.6107645034790039,-9.236546198527018,3.247967799504598,1.6886865461329677e+18,17.2069677734375,-0.0100792764375606,0.0271835029125213,-0.0075340047478675,1.6886865461329677e+18,17.2069677734375,-0.0109955742955207,0.0316122767205039,-0.0050396379083394,,,,,,,,,,,,1.6886865461288822e+18,17.202882324218752,21.193839645385744,38.449520111083984,-21.18652000427246,1.6886865461288822e+18,17.202882324218752,-234.1521545410156,133.4753204345703,-153.91031494140626,1.6886865461199885e+18,17.193988606770834,-0.2436288992563883,0.0186865273863076,-0.7285246650377909,0.6399590373039246,-1.7564964294433594,1.22722331682841,2.135268529256185
2.25,1.6886865461718996e+18,17.24589949544271,-0.2187900543212889,0.0009857813517252,-0.0495242277781168,1.6886865461718996e+18,17.24589949544271,-0.8370891213417053,-9.250452995300291,3.2660035292307534,1.6886865461718996e+18,17.24589949544271,-0.6241450905799866,-9.23393408457438,3.2528403600056968,1.6886865461762232e+18,17.250223022460936,-0.0116827976889907,-0.0670424606651067,-0.0297033227980136,1.6886865461762232e+18,17.250223022460936,-0.0125227374956011,-0.0626136884093284,-0.027259862050414,,,,,,,,,,,,1.6886865461788805e+18,17.252880224609374,21.213359451293947,38.417798614501955,-21.271919631958006,1.6886865461788805e+18,17.252880224609374,-234.13263549804688,133.44359741210937,-153.99571533203124,1.6886865461718996e+18,17.24589949544271,-0.2436141918102899,0.0184769009550412,-0.7289979855219523,0.6394313375155131,-1.7601955731709795,1.2264339526494343,2.1386660734812417
2.3,1.6886865462238075e+18,17.297807373046876,-0.0688056747118632,-0.0193541844685872,-0.1062729358673095,1.6886865462238075e+18,17.297807373046876,-0.7284151117006937,-9.267999966939293,3.208974599838257,1.6886865462238075e+18,17.297807373046876,-0.6654554605484009,-9.231141090393066,3.2525601387023926,1.6886865462194872e+18,17.293487467447918,-0.0143553332115212,-0.233350525299708,-0.0148643873011071,1.6886865462194872e+18,17.293487467447918,-0.0152716307590404,-0.2288708438475926,-0.0123700210436557,,,,,,,,,,,,1.6886865462288847e+18,17.302884716796875,21.42807960510254,38.237239074707034,-21.01083984375,1.6886865462288847e+18,17.302884716796875,-233.91791381835935,133.263037109375,-153.73463745117186,1.6886865462238075e+18,17.297807373046876,-0.2405066887537638,0.0155344679951667,-0.7305083076159159,0.6389596859614054,-1.772434155146281,1.2255914608637493,2.1420942147572837
2.35,1.688686546275721e+18,17.349720865885416,0.2023440798123677,-0.0076376597086588,-0.0181828339894612,1.688686546275721e+18,17.349720865885416,-0.4963112870852152,-9.254640261332195,3.293521006902059,1.688686546275721e+18,17.349720865885416,-0.7045014103253683,-9.229497909545898,3.249016443888346,1.688686546271399e+18,17.34539892578125,-0.010079276592781,-0.210341269771258,0.0032579479351018,1.688686546271399e+18,17.34539892578125,-0.0109955746059615,-0.2059124956528345,0.0057523143477737,,,,,,,,,,,,1.6886865462788826e+18,17.352882470703126,21.779439544677736,38.30555953979492,-20.84003944396973,1.6886865462788826e+18,17.352882470703126,-233.566552734375,133.33135681152345,-153.5638397216797,1.688686546275721e+18,17.349720865885416,-0.2361568063497543,0.0113743748515844,-0.7319467465082804,0.6390249729156494,-1.7841610511144002,1.2250961860020957,2.1414153575897217
2.4,1.6886865463276362e+18,17.40163631184896,0.220803827047348,-0.0399103164672851,0.0400619506835937,1.6886865463276362e+18,17.40163631184896,-0.4885346094767251,-9.286943435668944,3.349353472391764,1.6886865463276362e+18,17.40163631184896,-0.7151844700177511,-9.229528427124023,3.2466041247049966,1.6886865463233126e+18,17.39731258138021,0.0026470827093968,-0.0367028204103311,0.0104865198178837,1.6886865463233126e+18,17.39731258138021,0.0017307848902419,-0.0322740462919076,0.0129808867350219,,,,,,,,,,,,1.6886865463288845e+18,17.402884423828123,21.837999725341795,38.271399688720706,-20.759519577026367,1.6886865463288845e+18,17.402884423828123,-233.50799560546875,133.29720153808594,-153.48331604003906,1.6886865463276362e+18,17.40163631184896,-0.2344202001889546,0.0097196797529856,-0.7323434352874756,0.6392384568850199,-1.7874590555826824,1.2251042127609253,2.1397666931152344
2.45,1.6886865463795464e+18,17.453546305338545,0.1422035495440164,0.0559174219767252,0.1425705750783284,1.6886865463795464e+18,17.453546305338545,-0.5451647440592448,-9.193423906962076,3.450051466623942,1.6886865463795464e+18,17.453546305338545,-0.6932143171628317,-9.231836636861166,3.24479349454244,1.6886865463752266e+18,17.44922664388021,0.0171042267854014,0.1497128928701082,0.0047851110381694,1.6886865463752266e+18,17.44922664388021,0.0161879289274413,0.1541416669885317,0.0073303828636804,,,,,,,,,,,,1.6886865463788856e+18,17.45288564453125,21.56471939086914,38.417799377441405,-20.749759674072266,1.6886865463788856e+18,17.45288564453125,-233.78127746582032,133.44359741210937,-153.4735565185547,1.6886865463795464e+18,17.453546305338545,-0.2359788964192072,0.0113528100773691,-0.731554905573527,0.6395395000775655,-1.7811122337977092,1.2257984081904094,2.13805357615153
2.5,1.6886865464314604e+18,17.505460286458334,-0.1615561644236246,0.0718857447306314,0.0794605414072672,1.6886865464314604e+18,17.505460286458334,-0.8043872117996216,-9.180861790974935,3.386442184448242,1.6886865464314604e+18,17.505460286458334,-0.6486770709355673,-9.23524284362793,3.2442942460378013,1.6886865464271352e+18,17.501135416666667,0.0181732413669426,0.2250529328982035,0.0277943682546416,1.6886865464271352e+18,17.501135416666667,0.0173078483591476,0.2294817070166269,0.030288734473288,,,,,,,,,,,,1.6886865464288865e+18,17.50288671875,21.25239944458008,38.4226791381836,-20.935199737548828,1.6886865464288865e+18,17.50288671875,-234.09359741210935,133.44847412109374,-153.65899658203125,1.6886865464314604e+18,17.505460286458334,-0.2399067133665084,0.0152686734994251,-0.7299306193987528,0.6398521661758423,-1.767979621887207,1.2268264293670654,2.1363350550333657
2.55,1.6886865464833708e+18,17.55737052408854,-0.2151420513788858,0.0536804199218749,0.0836182435353596,1.6886865464833708e+18,17.55737052408854,-0.8187441428502401,-9.200403213500977,3.3944183190663657,1.6886865464833708e+18,17.55737052408854,-0.6094481150309244,-9.236578941345217,3.248112678527832,1.6886865464790438e+18,17.553043782552084,-0.0067704233030478,0.0500909499824046,0.0558941699564456,1.6886865464790438e+18,17.553043782552084,-0.0076358156511559,0.0545706295718748,0.0583376313249269,,,,,,,,,,,,1.6886865464788792e+18,17.552879052734376,21.16699981689453,38.73011932373047,-21.29631996154785,1.6886865464788792e+18,17.552879052734376,-234.1789978027344,133.75591735839845,-154.0201202392578,1.6886865464833708e+18,17.55737052408854,-0.2419317016998926,0.0167247522622346,-0.7285285989443461,0.6406522989273071,-1.7561159133911133,1.227230151494344,2.1295416355133057
2.6,1.6886865465266324e+18,17.60063232421875,-0.2085572481155395,0.0524172782897948,-0.0169776678085327,1.6886865465266324e+18,17.60063232421875,-0.7977072596549988,-9.199804782867432,3.3017961978912354,1.6886865465266324e+18,17.60063232421875,-0.5949960350990295,-9.23471736907959,3.2560864686965942,1.6886865465309563e+18,17.604956217447917,-0.0244855148096878,-0.0542651948829491,0.0219911483582108,1.6886865465309563e+18,17.604956217447917,-0.0253509078174829,-0.0497855187083283,0.0244346098043024,,,,,,,,,,,,1.6886865465288824e+18,17.60288251953125,20.944959259033205,38.62031936645508,-21.152359008789062,1.6886865465288824e+18,17.60288251953125,-234.40103454589843,133.6461181640625,-153.87615661621095,1.6886865465266324e+18,17.60063232421875,-0.2420917004346847,0.0160737996920942,-0.7280375361442566,0.6411665678024292,-1.7513795495033264,1.226666510105133,2.1241066455841064
2.65,1.688686546569886e+18,17.64388614908854,-0.1215111811955769,-0.0375410715738931,-0.106287399927775,1.688686546569886e+18,17.64388614908854,-0.7266204754511515,-9.287142753601074,3.2169506549835205,1.688686546569886e+18,17.64388614908854,-0.6109553178151449,-9.232096989949545,3.2605506579081216,1.6886865465828723e+18,17.656872477213543,-0.0045305841291944,-0.1143336122234662,-0.021787527638177,1.6886865465828723e+18,17.656872477213543,-0.0053450708898405,-0.1098539332548776,-0.0193440659592548,,,,,,,,,,,,1.688686546578887e+18,17.652886767578128,21.37928009033203,38.53003997802735,-21.03523941040039,1.688686546578887e+18,17.652886767578128,-233.9667175292969,133.55583801269532,-153.7590362548828,1.688686546569886e+18,17.64388614908854,-0.2407678663730621,0.0144407097250222,-0.7286299665768942,0.6410304307937622,-1.7558701833089192,1.225875735282898,2.12430469195048
2.7,1.6886865466218043e+18,17.695804443359375,0.031897485256195,-0.0100425084431966,-0.0117758115132649,1.6886865466218043e+18,17.695804443359375,-0.6091727813084921,-9.259226481119793,3.305684487024943,1.6886865466218043e+18,17.695804443359375,-0.6469162901242574,-9.23167928059896,3.254772901535034,1.6886865466261286e+18,17.700128662109375,0.0121409469284116,-0.0819322988390922,-0.0684169065207242,1.6886865466261286e+18,17.700128662109375,0.0112246489152311,-0.0775035247206687,-0.0659734439104795,,,,,,,,,,,,1.6886865466288837e+18,17.702883740234377,21.206039047241212,38.4202392578125,-20.99863967895508,1.6886865466288837e+18,17.702883740234377,-234.13995971679688,133.44603881835937,-153.7224365234375,1.6886865466218043e+18,17.695804443359375,-0.2387435634930928,0.0130899983147779,-0.7299124201138815,0.6403573751449585,-1.76684574286143,1.2257500489552815,2.130356947580973
2.75,1.6886865466737124e+18,17.747712565104166,0.1217277646064757,0.0125077565511067,0.0477005640665689,1.6886865466737124e+18,17.747712565104166,-0.5651049415270487,-9.235697428385416,3.3585259914398193,1.6886865466737124e+18,17.747712565104166,-0.6926787296930949,-9.230700492858888,3.2481380303700766,1.6886865466693926e+18,17.743392496744793,0.0103338037927944,-0.026725354604423,-0.0771217371026674,1.6886865466693926e+18,17.743392496744793,0.0094684110954403,-0.0222965814173221,-0.0746273696422576,,,,,,,,,,,,1.688686546678883e+18,17.752883251953126,21.44515953063965,38.222599029541016,-20.947399520874026,1.688686546678883e+18,17.752883251953126,-233.9008331298828,133.24840087890624,-153.67119750976562,1.6886865466737124e+18,17.747712565104166,-0.2375792960325876,0.0129125698780019,-0.7315118312835693,0.6389676133791605,-1.7807525793711343,1.2254552443822224,2.142315149307251
2.8,1.6886865467256271e+18,17.799627278645833,0.1213340560595194,0.0502099990844726,0.0547263622283935,1.6886865467256271e+18,17.799627278645833,-0.5782654682795206,-9.197611490885416,3.3639098008473716,1.6886865467256271e+18,17.799627278645833,-0.7054455478986105,-9.230316797892252,3.246496041615804,1.6886865467212997e+18,17.79529947916667,0.0053450710450609,0.0703513137996196,-0.0343102651337781,1.6886865467212997e+18,17.79529947916667,0.0044287729542701,0.0747800854345162,-0.0318158982942501,,,,,,,,,,,,1.6886865467288847e+18,17.802884619140624,21.39879913330078,38.30555953979492,-21.09135971069336,1.6886865467288847e+18,17.802884619140624,-233.94719543457032,133.33135986328125,-153.81515502929688,1.6886865467256271e+18,17.799627278645833,-0.2383207480112711,0.0140675557777285,-0.731935441493988,0.6381814479827881,-1.7846173842748003,1.22533917427063,2.148951609929403
2.85,1.6886865467775414e+18,17.851541259765625,0.0029020110766092,-0.0322678883870442,-0.0659836928049723,1.6886865467775414e+18,17.851541259765625,-0.6837490598360697,-9.279565493265787,3.247459093729655,1.6886865467775414e+18,17.851541259765625,-0.6924970944722494,-9.229792912801107,3.2507553895314536,1.6886865467732134e+18,17.847213460286458,-0.0067704231478273,0.0456621771057446,0.0352774672210216,1.6886865467732134e+18,17.847213460286458,-0.0076867210057873,0.0500909487406412,0.0377718329740067,,,,,,,,,,,,1.688686546778886e+18,17.852885937499998,21.213359451293947,38.35679931640625,-20.837599563598634,1.688686546778886e+18,17.852885937499998,-234.13263244628905,133.38259887695312,-153.56139526367187,1.6886865467775414e+18,17.851541259765625,-0.2395335137844085,0.0149408793076872,-0.7314674854278564,0.6382441322008768,-1.7805392742156982,1.2251810630162556,2.1479241847991943
2.9,1.688686546829452e+18,17.9034521484375,0.0120034615198771,0.00977357228597,-0.056740919748942,1.688686546829452e+18,17.9034521484375,-0.6396812399228414,-9.23968505859375,3.2578279972076416,1.688686546829452e+18,17.9034521484375,-0.6575307250022888,-9.231953938802084,3.2518815199534097,1.6886865468251277e+18,17.899127685546876,-0.0006108653033152,0.0038688130831966,0.0681114743153253,1.6886865468251277e+18,17.899127685546876,-0.0015271630448599,0.0082975864158167,0.0706058405339717,,,,,,,,,,,,1.6886865468288824e+18,17.902882421875,21.55983963012695,38.19087905883789,-21.013279724121094,1.6886865468288824e+18,17.902882421875,-233.7861572265625,133.2166778564453,-153.73707580566406,1.688686546829452e+18,17.9034521484375,-0.2398175100485483,0.0146907549351453,-0.7302536368370056,0.6395320892333984,-1.7701611518859863,1.225831389427185,2.1375744342803955
2.95,1.6886865468813622e+18,17.9553623046875,-0.0676918427149454,0.001162846883138,-0.0071176687876383,1.6886865468813622e+18,17.9553623046875,-0.6937191685040792,-9.25085163116455,3.305285692214966,1.6886865468813622e+18,17.9553623046875,-0.631873349348704,-9.234509785970053,3.24971596399943,1.6886865468770363e+18,17.951036376953127,0.0091629784243801,0.0496328013638655,0.027030787585924,1.6886865468770363e+18,17.951036376953127,0.0082975861926872,0.0540615742405254,0.029525153338909,,,,,,,,,,,,1.6886865468788836e+18,17.95288369140625,21.432959747314452,38.234799194335935,-21.074279403686525,1.6886865468788836e+18,17.95288369140625,-233.913037109375,133.2605987548828,-153.79807739257814,1.6886865468813622e+18,17.9553623046875,-0.2403717885414759,0.015136532485485,-0.7293487191200256,0.6403456926345825,-1.762695034344991,1.2266016801198325,2.1315436363220215
3.0,1.688686546933273e+18,18.007273274739585,-0.1318144996960957,0.0419314702351887,0.0452262560526529,1.688686546933273e+18,18.007273274739585,-0.7549355626106262,-9.211370150248207,3.3545379638671875,1.688686546933273e+18,18.007273274739585,-0.6289670864741007,-9.235796928405762,3.246624310811361,1.688686546928946e+18,18.00294580078125,0.0097738439217209,0.0378227395315964,-0.0201585534960031,1.688686546928946e+18,18.00294580078125,0.0088575459085403,0.0422515124082565,-0.0176641863460341,1.6886865469420165e+18,18.0160166015625,0.0,0.0,0.913642406463623,12.397000312805176,0.2932449579238891,347.22052001953125,40.30000305175781,-122.7531783,49.1903391,1.688686546928885e+18,18.002884814453125,21.225559616088866,38.38363800048828,-21.188959503173827,1.688686546928885e+18,18.002884814453125,-234.12043151855468,133.40943908691406,-153.91275634765626,1.688686546933273e+18,18.007273274739585,-0.2410557816425958,0.0161194546769062,-0.7292263905207316,0.6402039726575216,-1.7620136737823486,1.2269905805587769,2.133283774058024
3.05,1.688686546976536e+18,18.05053588867187,-0.1479001641273498,0.0384659767150878,0.0338948965072631,1.688686546976536e+18,18.05053588867187,-0.7860422432422638,-9.21416187286377,3.342175006866455,1.688686546976536e+18,18.05053588867187,-0.6439881026744843,-9.23512315750122,3.245592713356018,1.688686546980861e+18,18.054861002604166,-0.0053959761668616,-0.0727947751681009,-0.0269798822700977,1.688686546980861e+18,18.054861002604166,-0.0062613688448133,-0.0683660016705592,-0.0244855154305695,,,,,,,,,,,,1.6886865469788838e+18,18.0528837890625,21.230439758300783,38.4226791381836,-20.835159683227538,1.6886865469788838e+18,18.0528837890625,-234.1155517578125,133.44847717285157,-153.5589599609375,1.688686546976536e+18,18.05053588867187,-0.2407735586166381,0.0160898268222808,-0.729751855134964,0.6397119164466858,-1.7665303945541382,1.2267868518829346,2.137351632118225
3.1,1.6886865470197924e+18,18.093792561848957,-0.0034013787905374,0.0102179845174153,0.0049448013305663,1.6886865470197924e+18,18.093792561848957,-0.6652047038078308,-9.240084012349444,3.315056403477987,1.6886865470197924e+18,18.093792561848957,-0.6676493485768636,-9.232797304789225,3.2474242051442466,1.6886865470327754e+18,18.106775472005207,-0.0157297799984613,-0.125380091369152,-0.006617706734687,1.6886865470327754e+18,18.106775472005207,-0.0165951726958154,-0.1209004148840903,-0.0041742459094772,,,,,,,,,,,,1.6886865470288865e+18,18.102886230468748,21.371959686279297,38.61788024902344,-20.988879776000974,1.6886865470288865e+18,18.102886230468748,-233.97403869628903,133.6436798095703,-153.71267395019532,1.6886865470197924e+18,18.093792561848957,-0.2391072511672972,0.0143716232851147,-0.7306133310000101,0.6393938859303793,-1.7734240293502808,1.2260846694310503,2.139326333999634
3.15,1.6886865470717082e+18,18.145708170572917,0.1276668508847554,0.0123526255289713,0.00908096631368,1.6886865470717082e+18,18.145708170572917,-0.5539384484291077,-9.23549779256185,3.3220353921254477,1.6886865470717082e+18,18.145708170572917,-0.6874513228734335,-9.230345726013184,3.2502670288085938,1.6886865470760356e+18,18.15003564453125,-0.0080176063347607,-0.0570395439863204,-0.0119118723087012,1.6886865470760356e+18,18.15003564453125,-0.0088575459085404,-0.052610769867897,-0.0094684110954403,,,,,,,,,,,,1.688686547078884e+18,18.152884228515624,21.489079666137695,38.60567855834961,-20.80099945068359,1.688686547078884e+18,18.152884228515624,-233.8569152832031,133.63147583007813,-153.52479858398436,1.6886865470717082e+18,18.145708170572917,-0.2374058018128077,0.0124730241174499,-0.7313390374183655,0.6392385959625244,-1.7790932655334473,1.2253450552622478,2.1397647857666016
3.2,1.6886865471236114e+18,18.197611409505207,0.128061294555664,-0.0252590179443359,0.0467378298441568,1.6886865471236114e+18,18.197611409505207,-0.5585246880849203,-9.272586504618326,3.360121250152588,1.6886865471236114e+18,18.197611409505207,-0.6924320062001547,-9.229822794596354,3.2506960233052573,1.6886865471192904e+18,18.193290201822915,0.0066177068122972,0.059101214321951,-0.0246382312228281,1.6886865471192904e+18,18.193290201822915,0.0057014088767269,0.0635299856464067,-0.0221438650041818,,,,,,,,,,,,1.688686547128884e+18,18.202884033203127,21.61107940673828,38.193318939208986,-20.930319213867183,1.688686547128884e+18,18.202884033203127,-233.7349151611328,133.21912231445313,-153.65411682128905,1.6886865471236114e+18,18.197611409505207,-0.2377083202203114,0.0128532753636438,-0.731506327788035,0.6389270226160685,-1.780536413192749,1.2251873811086018,2.1422093709309897
