seconds_elapsed_rounded,accelerometer_time,accelerometer_seconds_elapsed,accelerometer_z,accelerometer_y,accelerometer_x,accelerometeruncalibrated_time,accelerometeruncalibrated_seconds_elapsed,accelerometeruncalibrated_z,accelerometeruncalibrated_y,accelerometeruncalibrated_x,gravity_time,gravity_seconds_elapsed,gravity_z,gravity_y,gravity_x,gyroscope_time,gyroscope_seconds_elapsed,gyroscope_z,gyroscope_y,gyroscope_x,gyroscopeuncalibrated_time,gyroscopeuncalibrated_seconds_elapsed,gyroscopeuncalibrated_z,gyroscopeuncalibrated_y,gyroscopeuncalibrated_x,location_time,location_seconds_elapsed,location_bearingAccuracy,location_speedAccuracy,location_verticalAccuracy,location_horizontalAccuracy,location_speed,location_bearing,location_altitude,location_longitude,location_latitude,magnetometer_time,magnetometer_seconds_elapsed,magnetometer_z,magnetometer_y,magnetometer_x,magnetometeruncalibrated_time,magnetometeruncalibrated_seconds_elapsed,magnetometeruncalibrated_z,magnetometeruncalibrated_y,magnetometeruncalibrated_x,orientation_time,orientation_seconds_elapsed,orientation_qz,orientation_qy,orientation_qx,orientation_qw,orientation_roll,orientation_pitch,orientation_yaw
0.0,1.688686573927577e+18,45.00157722981771,0.3111157317956288,-0.0632273356119791,0.0103818575541178,1.688686573927577e+18,45.00157722981771,-0.4372883339722951,-9.285747528076172,3.3798619906107583,1.688686573927577e+18,45.00157722981771,-0.7542501091957092,-9.205015500386557,3.306792736053467,1.688686573923246e+18,44.997246256510415,0.0162897392486532,-0.1841758713126181,0.0189368226759445,1.688686573923246e+18,44.997246256510415,0.0153734423220157,-0.1797470971941947,0.0214311889527985,1.688686573926552e+18,45.000552001953125,0.0,0.5326093435287476,0.9130883812904358,7.144999980926514,0.1788420379161834,4.712676048278809,40.20000076293945,-122.7531523,49.1903779,1.6886865739288878e+18,45.0028876953125,21.423199081420897,38.01275863647461,-21.98683967590332,1.6886865739288878e+18,45.0028876953125,-233.92279357910155,133.03855895996094,-154.71063842773438,1.688686573927577e+18,45.00157722981771,-0.2549170355002085,0.0291656690339247,-0.7332110206286112,0.6297359069188436,-1.7950897614161174,1.2177659273147583,2.206071058909098
0.05,1.688686573979491e+18,45.05349080403645,0.1453147133191426,0.0704692204793293,0.1952106952667235,1.688686573979491e+18,45.05349080403645,-0.593420018752416,-9.157332102457682,3.55214524269104,1.688686573979491e+18,45.05349080403645,-0.7445807655652364,-9.210296630859377,3.2942471504211426,1.6886865739751657e+18,45.049165771484375,0.0353792781631151,0.1467094731827576,-0.0043778676384438,1.6886865739751657e+18,45.049165771484375,0.0345138870179652,0.1511382460594176,-0.00183259571592,,,,,,,,,,,,1.6886865739788815e+18,45.05288134765625,21.20847969055176,38.2274787902832,-21.994159698486328,1.6886865739788815e+18,45.05288134765625,-234.13751831054688,133.25327758789064,-154.71795654296875,1.688686573979491e+18,45.05349080403645,-0.2552983264128367,0.0304551993807156,-0.7328219413757324,0.629972497622172,-1.7931209405263264,1.2193259398142495,2.206496079762777
0.1,1.6886865740314012e+18,45.10540120442709,-0.2813774347305298,0.1507399876912434,0.1127697626749674,1.6886865740314012e+18,45.10540120442709,-0.9836495121320088,-9.080761909484863,3.4673994382222495,1.6886865740314012e+18,45.10540120442709,-0.7081181208292643,-9.21399720509847,3.291942278544108,1.6886865740270764e+18,45.101076334635415,0.0135917517667015,0.1791362340251604,0.0118100616770485,1.6886865740270764e+18,45.101076334635415,0.0127263589141269,0.1835650081435839,0.0143044280509153,,,,,,,,,,,,1.68868657402888e+18,45.10287998046876,20.73267936706543,38.056678771972656,-22.045399475097657,1.68868657402888e+18,45.10287998046876,-234.61331481933593,133.0824737548828,-154.76919860839843,1.6886865740314012e+18,45.10540120442709,-0.2587169706821441,0.0340284543732801,-0.7313955823580424,0.630053182442983,-1.7827107508977251,1.2204233805338542,2.2063106695810952
0.15,1.6886865740833103e+18,45.157310058593744,-0.3298310041427612,-0.0709028244018554,-0.2202660242716471,1.6886865740833103e+18,45.157310058593744,-1.0400802493095398,-9.296913464864096,3.1479576428731284,1.6886865740833103e+18,45.157310058593744,-0.7160952687263489,-9.208505948384603,3.3055362701416016,1.6886865740789906e+18,45.15299055989584,-0.0516690189639726,-0.1262454811173181,-0.0113010071218013,1.6886865740789906e+18,45.15299055989584,-0.052585316201051,-0.1218167074645559,-0.0088066409031549,,,,,,,,,,,,1.688686574078883e+18,45.152883105468746,20.930319595336915,38.06155853271484,-22.106399536132812,1.688686574078883e+18,45.152883105468746,-234.415673828125,133.0873565673828,-154.8301971435547,1.6886865740833103e+18,45.157310058593744,-0.2589164574940999,0.0333090138932068,-0.7317056059837341,0.6296486854553223,-1.7841622432072957,1.2187977234522502,2.2070604165395102
0.2,1.6886865741265807e+18,45.200580932617186,0.1754155457019806,-0.1569676399230957,-0.4002882242202759,1.6886865741265807e+18,45.200580932617186,-0.5778666585683823,-9.377471923828123,2.9736803770065308,1.6886865741265807e+18,45.200580932617186,-0.7591282427310944,-9.202999591827393,3.311281204223633,1.6886865741308936e+18,45.204893473307294,-0.0169515103722612,-0.3438153167565663,0.0249945698305964,1.6886865741308936e+18,45.204893473307294,-0.0177659982194503,-0.3393865525722503,0.0275398412098486,,,,,,,,,,,,1.6886865741288852e+18,45.20288510742187,21.25239944458008,37.90051956176758,-21.930719757080077,1.6886865741288852e+18,45.20288510742187,-234.09359436035157,132.926318359375,-154.6545166015625,1.6886865741265807e+18,45.200580932617186,-0.2545618414878845,0.0284704249352216,-0.7334069013595581,0.6296819448471069,-1.7961919903755188,1.2171720266342163,2.205654263496399
0.25,1.6886865741698355e+18,45.24383544921875,0.6655897498130798,-0.0691006978352864,0.0998914241790771,1.6886865741698355e+18,45.24383544921875,-0.1016949663559595,-9.295118967692057,3.4552358786265054,1.6886865741698355e+18,45.24383544921875,-0.7731307744979858,-9.208513577779136,3.2926570574442544,1.6886865741828145e+18,45.2568145345052,0.0628173102935154,0.1059851224223772,0.0018835016332256,1.6886865741828145e+18,45.2568145345052,0.0620028215150038,0.1104138940572738,0.0043269624778379,,,,,,,,,,,,1.6886865741788846e+18,45.25288466796875,21.323159408569335,37.81999893188477,-21.684279251098634,1.6886865741788846e+18,45.25288466796875,-234.02283630371093,132.84579467773438,-154.40807495117187,1.6886865741698355e+18,45.24383544921875,-0.2509799202283223,0.0260009591778118,-0.7339861989021301,0.6305529475212097,-1.801460901896159,1.2187995115915935,2.201988935470581
0.3,1.6886865742217477e+18,45.29574763997396,-0.0336853067080179,0.1939051946004231,0.3505350748697917,1.6886865742217477e+18,45.29574763997396,-0.7571289837360382,-9.041080792744957,3.69072953859965,1.6886865742217477e+18,45.29574763997396,-0.729289710521698,-9.21748129526774,3.277507066726685,1.6886865742260751e+18,45.3000751953125,0.052381696179509,0.4426482170820236,-0.0304669039323925,1.6886865742260751e+18,45.3000751953125,0.0514653977006673,0.4470769912004471,-0.0279470849782228,,,,,,,,,,,,1.688686574228884e+18,45.30288393554687,21.088919830322265,38.13475875854492,-21.957559204101564,1.688686574228884e+18,45.30288393554687,-234.2570770263672,133.16055908203126,-154.68135681152344,1.6886865742217477e+18,45.29574763997396,-0.2553352812925974,0.031585307791829,-0.7322393655776978,0.6305727561314901,-1.7897766431172688,1.221459190050761,2.204786618550618
0.35,1.688686574273656e+18,45.347656331380215,-0.4846848646799723,0.056529680887858,0.215574026107788,1.688686574273656e+18,45.347656331380215,-1.1758729616800945,-9.181260426839192,3.5549368063608804,1.688686574273656e+18,45.347656331380215,-0.6970341205596924,-9.220285415649414,3.2766753832499185,1.6886865742693353e+18,45.34333520507812,0.0121663991982738,0.1289943822969992,-0.008043058856856,1.6886865742693353e+18,45.34333520507812,0.0113010074322422,0.1334231539318959,-0.0055995979346334,,,,,,,,,,,,1.6886865742788846e+18,45.352884619140625,20.90835952758789,38.371439361572264,-22.19423942565918,1.6886865742788846e+18,45.352884619140625,-234.43763427734376,133.39723510742186,-154.91803588867188,1.688686574273656e+18,45.347656331380215,-0.2599368294080098,0.036475176612536,-0.7308915654818217,0.6299998958905538,-1.7804347276687622,1.2222959597905476,2.209350347518921
0.4,1.6886865743255634e+18,45.39956355794271,-0.1005822618802388,0.1140333811442056,-0.0499703089396158,1.6886865743255634e+18,45.39956355794271,-0.8093722462654114,-9.118448893229166,3.30049999554952,1.6886865743255634e+18,45.39956355794271,-0.7146360079447428,-9.214977582295736,3.287782907485962,1.6886865743212462e+18,45.39524625651041,-0.041080688436826,-0.1151480947931607,-0.0099265601796407,1.6886865743212462e+18,45.39524625651041,-0.0419460808237392,-0.1107193281253178,-0.0074321939609944,,,,,,,,,,,,1.6886865743288837e+18,45.402883642578125,21.274359893798827,38.08839950561523,-22.064919662475585,1.6886865743288837e+18,45.402883642578125,-234.07163696289064,133.11419372558595,-154.78871459960936,1.6886865743255634e+18,45.39956355794271,-0.2590627670288085,0.0348659803469975,-0.7315828601519266,0.629647970199585,-1.784859339396159,1.2207158009211223,2.21018648147583
0.45,1.6886865743774843e+18,45.45148429361979,0.2602141201496124,-0.1716810862223307,-0.2521959940592447,1.6886865743774843e+18,45.45148429361979,-0.4803591469923655,-9.397212346394856,3.1106693744659424,1.6886865743774843e+18,45.45148429361979,-0.7464193105697632,-9.208026568094889,3.300177971522013,1.6886865743731602e+18,45.447160319010415,-0.0339539262155691,-0.1502219413717587,-0.0163406451853612,1.6886865743731602e+18,45.447160319010415,-0.0348702234526474,-0.1457931697368621,-0.0137953734956681,,,,,,,,,,,,1.6886865743788823e+18,45.452882128906246,21.598879623413087,37.946878814697264,-21.908759689331056,1.6886865743788823e+18,45.452882128906246,-233.7471160888672,132.9726806640625,-154.63255920410157,1.6886865743774843e+18,45.45148429361979,-0.2568742632865906,0.0318470758696396,-0.7328267892201742,0.6292576988538107,-1.7932631969451904,1.2186545133590698,2.211019992828369
0.5,1.6886865744293962e+18,45.50339615885417,0.2728514472643534,-0.0716892878214518,-0.1197049617767334,1.6886865744293962e+18,45.50339615885417,-0.4590231378873189,-9.29930623372396,3.239283641179403,1.6886865744293962e+18,45.50339615885417,-0.7377206285794576,-9.21011225382487,3.2963012059529624,1.6886865744250675e+18,45.49906730143229,0.0239764608753223,0.1168788804983098,0.0118100615994383,1.6886865744250675e+18,45.49906730143229,0.0230601632113878,0.1213076543062924,0.0143553333667416,,,,,,,,,,,,1.688686574428885e+18,45.50288500976562,21.103559494018555,37.920039367675784,-21.69891929626465,1.688686574428885e+18,45.50288500976562,-234.2424346923828,132.94583740234376,-154.42271423339844,1.6886865744293962e+18,45.50339615885417,-0.2570411761601766,0.0322102569043635,-0.7325083216031393,0.6295413772265116,-1.7910043398539226,1.2192716201146443,2.2095162073771157
0.55,1.6886865744813064e+18,45.55530631510417,-0.1418820818265278,0.1255060831705729,0.1125618616739908,1.6886865744813064e+18,45.55530631510417,-0.8512466549873352,-9.10808022816976,3.459822098414103,1.6886865744813064e+18,45.55530631510417,-0.7152105967203776,-9.216081619262695,3.2845728397369385,1.688686574476984e+18,45.55098396809896,0.0388917544235785,0.1880955894788105,-0.0405207276344299,1.688686574476984e+18,45.55098396809896,0.0379754559447367,0.192524363597234,-0.0380263620366652,,,,,,,,,,,,1.6886865744788833e+18,45.552883349609374,21.06451988220215,37.92735977172852,-21.884359741210936,1.6886865744788833e+18,45.552883349609374,-234.28147583007816,132.95315551757812,-154.6081573486328,1.6886865744813064e+18,45.55530631510417,-0.2600631614526112,0.0362932843466599,-0.7315336664517721,0.6292113264401754,-1.78523584206899,1.2210426330566406,2.214118162790934
0.6,1.6886865745332142e+18,45.60721427408854,-0.2783536712328592,0.0381908416748046,0.065450112024943,1.6886865745332142e+18,45.60721427408854,-0.9842477242151896,-9.195218722025553,3.4139597415924072,1.6886865745332142e+18,45.60721427408854,-0.7117400765419006,-9.21590487162272,3.2858222325642905,1.688686574528895e+18,45.60289477539063,-0.0122682104508082,-0.0012726370089997,0.0074321934953331,1.688686574528895e+18,45.60289477539063,-0.013133602682501,0.0031561367213725,0.009875654708594,,,,,,,,,,,,1.6886865745288904e+18,45.60289033203125,20.710719680786134,37.86391906738281,-22.03075942993164,1.6886865745288904e+18,45.60289033203125,-234.6352722167969,132.88971862792968,-154.75455627441406,1.6886865745332142e+18,45.60721427408854,-0.2613326907157897,0.037613126138846,-0.7313463687896729,0.6288265188535055,-1.784145991007487,1.2209904193878174,2.21683669090271
0.65,1.6886865745764744e+18,45.65047436523437,0.0252209603786468,0.0434927940368652,-0.0493233203887939,1.6886865745764744e+18,45.65047436523437,-0.6975077986717224,-9.185746669769289,3.3071800470352173,1.6886865745764744e+18,45.65047436523437,-0.7285747826099396,-9.211734771728516,3.2938159704208374,1.688686574580808e+18,45.65480810546875,-0.0309505059073368,-0.1611157059669494,-0.0037160968252767,1.688686574580808e+18,45.65480810546875,-0.0318668037652968,-0.1566869368155796,-0.0012217305290202,,,,,,,,,,,,1.688686574578881e+18,45.65288100585938,21.418319320678712,37.97127838134766,-22.0917594909668,1.688686574578881e+18,45.65288100585938,-233.92767944335935,132.99708251953126,-154.81555786132813,1.6886865745764744e+18,45.65047436523437,-0.2597232908010483,0.0353822577744721,-0.7320437133312225,0.6288110315799713,-1.7885195016860962,1.2197518348693848,2.2156128883361816
0.7,1.688686574619741e+18,45.693740885416666,0.2587067683537801,-0.1202405293782551,-0.1158399581909179,1.688686574619741e+18,45.693740885416666,-0.4795615474383036,-9.34716288248698,3.2436704635620117,1.688686574619741e+18,45.693740885416666,-0.744114359219869,-9.209417661031088,3.296823024749756,1.688686574632719e+18,45.706719156901045,0.0038179079225907,-0.0213802823175986,0.0067704231478273,1.688686574632719e+18,45.706719156901045,0.002952515380457,-0.0169515097513794,0.0092138843610882,,,,,,,,,,,,1.688686574628889e+18,45.702888916015624,21.262159729003905,38.14207992553711,-21.999039459228516,1.688686574628889e+18,45.702888916015624,-234.083837890625,133.16787719726562,-154.72283630371095,1.688686574619741e+18,45.693740885416666,-0.258119394381841,0.0335276337961355,-0.7326720158259074,0.6288416981697083,-1.792818506558736,1.219065546989441,2.2148563861846924
0.75,1.6886865746716495e+18,45.74564925130208,0.1285131772359211,0.0539261500040689,0.010289986928304,1.6886865746716495e+18,45.74564925130208,-0.599003275235494,-9.176674207051596,3.361915826797486,1.6886865746716495e+18,45.74564925130208,-0.7333624760309855,-9.21309566497803,3.2889384428660073,1.688686574675975e+18,45.749974853515624,0.0354301836341619,0.1113301925361155,-0.0019089540001004,1.688686574675975e+18,45.749974853515624,0.0345138851553201,0.115758966654539,0.0005345072131604,,,,,,,,,,,,1.6886865746788805e+18,45.75288046875,20.7473201751709,37.81267929077149,-21.977079010009767,1.6886865746788805e+18,45.75288046875,-234.5986755371094,132.8384796142578,-154.70087890625,1.6886865746716495e+18,45.74564925130208,-0.258525272210439,0.0344529002904891,-0.7322547833124796,0.6291104555130005,-1.7902202208836873,1.2201557159423828,2.2141722043355307
0.8,1.6886865747235607e+18,45.79756095377604,-0.1312058170636494,0.0102637608846028,0.1230607827504475,1.6886865747235607e+18,45.79756095377604,-0.844068189462026,-9.224729855855308,3.465604782104492,1.6886865747235607e+18,45.79756095377604,-0.7187083959579468,-9.217488924662272,3.2798566023508706,1.6886865747192364e+18,45.79323649088542,0.0250963798413673,0.1203913564483324,-0.0175623757143814,1.6886865747192364e+18,45.79323649088542,0.0241800822938481,0.1248201305667559,-0.0150680094957351,,,,,,,,,,,,1.6886865747288863e+18,45.80288652343749,20.495999908447267,37.981038665771486,-21.989279556274415,1.6886865747288863e+18,45.80288652343749,-234.84999389648436,133.00684204101563,-154.71307983398438,1.6886865747235607e+18,45.79756095377604,-0.2604119479656219,0.037130453934272,-0.7316136558850607,0.6289259394009908,-1.7865502039591472,1.2214616934458415,2.2171594301859536
0.85,1.6886865747754775e+18,45.8494775390625,-0.1659556428591409,0.0873953501383463,-0.0282963911692301,1.6886865747754775e+18,45.8494775390625,-0.8805587291717529,-9.146963119506836,3.3156545956929526,1.6886865747754775e+18,45.8494775390625,-0.7204491098721822,-9.216853777567543,3.281263589859009,1.688686574771153e+18,45.84515299479167,-0.009570221727093,-0.0186822960774103,-0.0053959762056668,1.688686574771153e+18,45.84515299479167,-0.0104865200119092,-0.0142026171088218,-0.0029016099870204,,,,,,,,,,,,1.6886865747788795e+18,45.8528796875,21.206039810180663,37.78827896118164,-22.18692016601563,1.6886865747788795e+18,45.8528796875,-234.13995666503905,132.81407470703124,-154.91071472167968,1.6886865747754775e+18,45.8494775390625,-0.2610074977080027,0.0377403423190116,-0.7316428820292155,0.6286090612411499,-1.7869632641474409,1.221272389094035,2.2193519274393716
0.9,1.6886865748273866e+18,45.90138655598958,0.0821771025657653,-0.0932286580403645,-0.0693136056264241,1.6886865748273866e+18,45.90138655598958,-0.6452645262082418,-9.32602628072103,3.2761730353037515,1.6886865748273866e+18,45.90138655598958,-0.7332876523335775,-9.215292930603027,3.282799243927002,1.6886865748230612e+18,45.89706119791666,-0.010741047017897,-0.1363247608145077,0.0226020142436026,1.6886865748230612e+18,45.89706119791666,-0.0116064394824206,-0.1318450818459192,0.0250454749912023,,,,,,,,,,,,1.6886865748288865e+18,45.9028861328125,20.859559631347658,37.9737190246582,-22.13567962646485,1.6886865748288865e+18,45.9028861328125,-234.48643188476564,132.99952087402343,-154.8594757080078,1.6886865748273866e+18,45.90138655598958,-0.2590810855229695,0.035586609194676,-0.7321974436442057,0.6288851698239645,-1.7905929883321126,1.220808267593384,2.2170024712880454
0.95,1.6886865748793014e+18,45.95330135091146,0.1834074159463246,0.1003109614054361,0.0455876191457111,1.6886865748793014e+18,45.95330135091146,-0.5401797195275625,-9.133803049723308,3.3882368405659995,1.6886865748793014e+18,45.95330135091146,-0.7294331789016724,-9.216609319051107,3.2799618244171143,1.688686574874977e+18,45.94897688802084,0.0118609669928748,0.0784452793498833,-0.0102828983217477,1.688686574874977e+18,45.94897688802084,0.0109955742955207,0.08287405098478,-0.0078394364876051,,,,,,,,,,,,1.6886865748788795e+18,45.95287944335937,20.522839736938476,38.083518981933594,-22.12347984313965,1.6886865748788795e+18,45.95287944335937,-234.82315368652343,133.10931701660155,-154.84727783203124,1.6886865748793014e+18,45.95330135091146,-0.258849819501241,0.0354798274735609,-0.7320684989293417,0.6291365424791971,-1.789657711982727,1.221199631690979,2.215555508931478
1.0,1.6886865749312164e+18,46.00521638997395,-0.2801318168640136,-0.0662720998128254,-0.0901940663655598,1.6886865749312164e+18,46.00521638997395,-0.9974082509676616,-9.301101048787435,3.251845916112264,1.6886865749312164e+18,46.00521638997395,-0.7231224576632181,-9.217324256896974,3.27935258547465,1.6886865749268846e+18,46.00088460286458,0.0065668012636402,0.0655152983963489,-0.0126754542191823,1.6886865749268846e+18,46.00088460286458,0.0056505036385108,0.0699949736396471,-0.010231992850701,1.688686574919275e+18,45.99327502441406,0.0,0.5242146551609039,0.8677328824996948,7.2134997844696045,0.1703421995043754,4.652240514755249,40.400001525878906,-122.75315235,49.1903778,1.6886865749288852e+18,46.00288544921875,21.066959381103516,37.92735900878906,-22.055159759521484,1.6886865749288852e+18,46.00288544921875,-234.27903442382816,132.95315551757812,-154.7789520263672,1.6886865749312164e+18,46.00521638997395,-0.2607591946919759,0.0376471392810344,-0.7317408323287964,0.6286037564277649,-1.787863294283549,1.2214124202728271,2.2197444438934326
1.05,1.6886865749831278e+18,46.05712776692709,0.0188581546147664,0.0165952046712239,0.0065453052520751,1.6886865749831278e+18,46.05712776692709,-0.7052844762802124,-9.219545682271322,3.3433714707692466,1.6886865749831278e+18,46.05712776692709,-0.7299886544545492,-9.218636194864908,3.2741387685139975,1.688686574978801e+18,46.05280110677083,0.0019853120320475,-0.1277217417955398,0.0268780707071224,1.688686574978801e+18,46.05280110677083,0.0011199196160305,-0.1232420628269512,0.029321531454722,,,,,,,,,,,,1.688686574978885e+18,46.05288515625,20.964479827880854,38.117678833007815,-21.957559204101564,1.688686574978885e+18,46.05288515625,-234.3815155029297,133.1434783935547,-154.68135681152344,1.6886865749831278e+18,46.05712776692709,-0.2590223550796509,0.0361525577803452,-0.7320550680160522,0.629042903582255,-1.7901975711186726,1.2218034664789836,2.2173142433166504
1.1,1.6886865750263846e+18,46.10038464355469,0.0985928773880004,0.0411348342895507,0.0530636310577392,1.6886865750263846e+18,46.10038464355469,-0.625723123550415,-9.196215629577637,3.386442184448242,1.6886865750263846e+18,46.10038464355469,-0.7301620244979858,-9.219845771789553,3.270691156387329,1.688686575030711e+18,46.104710937499995,0.005090543689827,-0.0053959769817689,0.017664186656475,1.688686575030711e+18,46.104710937499995,0.0041742458318669,-0.0009672032513966,0.0201076474040746,,,,,,,,,,,,1.688686575028883e+18,46.10288310546875,21.176759719848633,38.00055847167969,-21.92339973449707,1.688686575028883e+18,46.10288310546875,-234.1692352294922,133.02636108398437,-154.64719848632814,1.6886865750263846e+18,46.10038464355469,-0.2578902393579483,0.0351120773702859,-0.7321120202541351,0.629501223564148,-1.790471613407135,1.2221643328666687,2.2143826484680176
1.15,1.6886865750696468e+18,46.14364664713542,-0.0266790588696797,0.0519158045450846,0.0928142070770263,1.6886865750696468e+18,46.14364664713542,-0.7391827901204427,-9.186245600382486,3.4265219370524087,1.6886865750696468e+18,46.14364664713542,-0.7183497548103333,-9.220656712849935,3.2710203329722085,1.6886865750826222e+18,46.156622477213546,0.0045305838187534,0.087659162779649,-0.0105374250560998,1.6886865750826222e+18,46.156622477213546,0.003614286019001,0.0920879368980725,-0.008043059380725,,,,,,,,,,,,1.688686575078884e+18,46.152884228515624,21.176759719848633,38.190879821777344,-21.972199630737304,1.688686575078884e+18,46.152884228515624,-234.1692352294922,133.2166748046875,-154.69599609375,1.6886865750696468e+18,46.14364664713542,-0.2586706578731536,0.0358011536300182,-0.731667141119639,0.6296591361363729,-1.7870072921117146,1.2224063873291016,2.2130678494771323
1.2,1.6886865751215588e+18,46.19555867513021,-0.133581519126892,0.02766482035319,-0.0205353895823161,1.6886865751215588e+18,46.19555867513021,-0.8500502506891886,-9.209376017252604,3.315455198287964,1.6886865751215588e+18,46.19555867513021,-0.7223147551218668,-9.219536145528158,3.273303190867106,1.6886865751258865e+18,46.19988635253906,-0.0018325956771149,0.0174860171973705,-0.0479529220610856,1.6886865751258865e+18,46.19988635253906,-0.0026725354837253,0.0219147908501327,-0.0453567449003457,,,,,,,,,,,,1.6886865751288847e+18,46.202884667968746,21.03523979187012,38.01763916015625,-21.903879928588868,1.6886865751288847e+18,46.202884667968746,-234.31075439453124,133.04343872070314,-154.62767639160157,1.6886865751215588e+18,46.19555867513021,-0.2598917881647746,0.0371047295629978,-0.7317404747009277,0.6289954980214437,-1.7880164782206218,1.2220717668533323,2.217799663543701
1.25,1.6886865751734743e+18,46.24747452799479,0.1611577669779459,-0.1217953364054362,-0.0241576035817464,1.6886865751734743e+18,46.24747452799479,-0.5766702592372894,-9.35832945505778,3.308476130167643,1.6886865751734743e+18,46.24747452799479,-0.7436740597089132,-9.219029426574709,3.269946336746216,1.688686575169146e+18,46.243146240234374,0.000458148914428,-0.1177951768040656,-0.0031561371094237,1.688686575169146e+18,46.243146240234374,-0.0004581489095774,-0.1133664076526959,-0.0006108653421203,,,,,,,,,,,,1.688686575178883e+18,46.2528830078125,20.625319290161137,37.89563903808594,-22.011240005493164,1.688686575178883e+18,46.2528830078125,-234.72067565917968,132.921435546875,-154.73503723144532,1.6886865751734743e+18,46.24747452799479,-0.2584965229034423,0.036096221456925,-0.7325341502825419,0.6287046472231547,-1.7944529851277669,1.2219204902648926,2.2207098801930747
1.3,1.68868657522538e+18,46.29938020833333,0.4109826882680257,0.0643692016601562,0.0377187728881836,1.68868657522538e+18,46.29938020833333,-0.3218346486488977,-9.174281438191732,3.36550505956014,1.68868657522538e+18,46.29938020833333,-0.738663375377655,-9.221145947774252,3.2650988896687827,1.6886865752210511e+18,46.29505102539063,0.0137953733404476,0.081652320921421,0.0094175056243935,1.6886865752210511e+18,46.29505102539063,0.0129299809535343,0.0860810950398445,0.0119118721534807,,,,,,,,,,,,1.6886865752288817e+18,46.30288173828125,20.77659912109375,38.039599609375,-21.8770393371582,1.6886865752288817e+18,46.30288173828125,-234.56939086914065,133.06539611816407,-154.60083618164063,1.68868657522538e+18,46.29938020833333,-0.2581193049748738,0.035959863414367,-0.7323666214942932,0.629062275091807,-1.7933148543039958,1.2225520610809326,2.2187930742899575
1.35,1.6886865752772954e+18,46.35129532877604,-0.2747758030891418,0.0261322657267252,-0.1378034750620523,1.6886865752772954e+18,46.35129532877604,-0.965703328450521,-9.214560826619469,3.193421204884847,1.6886865752772954e+18,46.35129532877604,-0.6967735489209493,-9.223188400268556,3.2685372829437256,1.6886865752729705e+18,46.34697062174479,-0.0061086524122704,0.0887281789133946,0.0576249572137991,1.6886865752729705e+18,46.34697062174479,-0.0070249502702305,0.0931569524109363,0.0601193209489186,,,,,,,,,,,,1.6886865752788838e+18,46.35288383789062,20.75219955444336,37.72483901977539,-21.979519271850585,1.6886865752788838e+18,46.35288383789062,-234.5937957763672,132.75063781738282,-154.70331420898438,1.6886865752772954e+18,46.35129532877604,-0.2606960237026214,0.037996166696151,-0.7308049201965332,0.6296966274579366,-1.7808639605840046,1.2231628100077312,2.2130977312723794
1.4,1.6886865753292076e+18,46.40320760091146,-0.0854649742444355,-0.0574919382731119,-0.0899590651194254,1.6886865753292076e+18,46.40320760091146,-0.774476945400238,-9.296913464864096,3.2452657222747803,1.6886865753292076e+18,46.40320760091146,-0.6948579947153727,-9.221916834513346,3.272537390391032,1.6886865753248827e+18,46.39888273111979,-0.0149661980879802,-0.1068505123257636,0.0034615699939119,1.6886865753248827e+18,46.39888273111979,-0.0158824962563812,-0.1024217382073402,0.0060068411597361,,,,,,,,,,,,1.6886865753288852e+18,46.40288515625,20.822959899902344,38.10791931152344,-22.208879470825195,1.6886865753288852e+18,46.40288515625,-234.52303771972657,133.13371887207032,-154.93267822265625,1.6886865753292076e+18,46.40320760091146,-0.259652058283488,0.0364364522198835,-0.7308173576990763,0.6302051941553751,-1.780053973197937,1.2227824529012044,2.2084755897521973
1.45,1.6886865753811128e+18,46.45511263020833,0.1967025796572367,-0.0828081766764322,-0.0163214206695556,1.6886865753811128e+18,46.45511263020833,-0.5244269669055939,-9.323234558105469,3.309074322382609,1.6886865753811128e+18,46.45511263020833,-0.7269755800565084,-9.2229216893514,3.2627083460489907,1.688686575376795e+18,46.450795084635416,0.0254018126676479,-0.0751364268362521,-0.0422006075580914,1.688686575376795e+18,46.450795084635416,0.0245364205911755,-0.070656749109427,-0.0397571461896101,,,,,,,,,,,,1.688686575378883e+18,46.45288310546875,21.06695976257324,38.13475875854492,-22.040519332885744,1.688686575378883e+18,46.45288310546875,-234.27903442382816,133.16055908203126,-154.76431579589843,1.6886865753811128e+18,46.45511263020833,-0.2576695084571838,0.0354372722407181,-0.7319857279459635,0.6297199527422587,-1.7900669574737549,1.2230827808380127,2.214096705118815
1.5,1.6886865754330317e+18,46.50703165690104,0.270684669415156,0.1576773325602213,0.2153103351593017,1.6886865754330317e+18,46.50703165690104,-0.4454638262589772,-9.088738123575846,3.524827082951864,1.6886865754330317e+18,46.50703165690104,-0.7219945391019186,-9.228910764058432,3.246829350789388,1.6886865754287066e+18,46.50270670572917,0.0367537258813778,0.0872519191664953,0.0221947710961103,1.6886865754287066e+18,46.50270670572917,0.035837427402536,0.0917315979798634,0.0247400421649217,,,,,,,,,,,,1.6886865754288845e+18,46.5028845703125,21.005959701538085,37.97859954833984,-22.05027961730957,1.6886865754288845e+18,46.5028845703125,-234.3400329589844,133.0043975830078,-154.77407836914062,1.6886865754330317e+18,46.50703165690104,-0.2575578192869822,0.0364855043590068,-0.7317606012026469,0.6299668947855631,-1.7896382411321003,1.224878986676534,2.214975674947103
1.55,1.688686575476292e+18,46.550292114257815,-0.2281556725502014,0.1260170936584472,0.1958684921264648,1.688686575476292e+18,46.550292114257815,-0.9014959335327148,-9.122037887573242,3.5099717378616333,1.688686575476292e+18,46.550292114257815,-0.6791862845420837,-9.230550289154053,3.251415848731994,1.688686575480615e+18,46.55461466471354,-0.0225002026806275,0.1545998106400171,0.03884084833165,1.688686575480615e+18,46.55461466471354,-0.0234165009266386,0.1590285847584406,0.0412843090792496,,,,,,,,,,,,1.688686575478883e+18,46.5528830078125,20.471599578857425,37.93955841064453,-22.325999450683593,1.688686575478883e+18,46.5528830078125,-234.87439880371093,132.96535949707032,-155.04979553222657,1.688686575476292e+18,46.550292114257815,-0.2603660225868225,0.0386780593544244,-0.7301556766033173,0.6305439472198486,-1.7767632603645325,1.2253719568252563,2.2094295024871826
1.6,1.6886865755195482e+18,46.593547932942705,-0.440237541993459,-0.0216957728068033,-0.1961719989776611,1.6886865755195482e+18,46.593547932942705,-1.1022936503092449,-9.263414065043133,3.1381869316101074,1.6886865755195482e+18,46.593547932942705,-0.6679021318753561,-9.224213600158691,3.2716715335845947,1.6886865755325294e+18,46.606529296875,-0.0630209321777025,-0.1811215517421563,0.0311541277915239,1.6886865755325294e+18,46.606529296875,-0.0639372281730174,-0.1766927776237329,0.033699399481217,,,,,,,,,,,,1.6886865755288788e+18,46.60287885742187,21.005959701538085,38.06155853271484,-22.19423942565918,1.6886865755288788e+18,46.60287885742187,-234.34003601074215,133.0873596191406,-154.91803588867188,1.6886865755195482e+18,46.593547932942705,-0.261344571908315,0.0380219432214895,-0.7297954559326172,0.6305956244468689,-1.7722105979919434,1.22347088654836,2.205423911412557
1.65,1.688686575571459e+18,46.645459309895834,0.0787181953589121,-0.1368697484334309,-0.3427472114562988,1.688686575571459e+18,46.645459309895834,-0.6137590209643046,-9.3722874323527,3.0029923915863037,1.688686575571459e+18,46.645459309895834,-0.6983232498168945,-9.217912991841631,3.2830522060394287,1.688686575575788e+18,46.64978796386719,-0.0235183127224445,-0.29306261241436,0.0233655963093042,1.688686575575788e+18,46.64978796386719,-0.0243582525290548,-0.2886338382959366,0.0258090561255812,,,,,,,,,,,,1.6886865755788836e+18,46.652883691406245,20.92787971496582,38.04203872680664,-22.191799926757813,1.6886865755788836e+18,46.652883691406245,-234.4181121826172,133.06783752441407,-154.91559448242188,1.688686575571459e+18,46.645459309895834,-0.2572906911373138,0.0329210460186004,-0.7311036189397176,0.6310317118962606,-1.780412475268046,1.221588095029195,2.200247844060262
1.7,1.6886865756233766e+18,46.69737646484375,0.4532227218151092,-0.0009765625,0.0431585311889648,1.6886865756233766e+18,46.69737646484375,-0.2671985278526941,-9.23809019724528,3.378067413965861,1.6886865756233766e+18,46.69737646484375,-0.7262672980626425,-9.219608942667644,3.272221485773722,1.6886865756190556e+18,46.69305541992187,0.0256563400228817,-0.0126245459541677,-0.0473929612586895,1.6886865756190556e+18,46.69305541992187,0.0247400421649217,-0.0081448666751384,-0.044796785339713,,,,,,,,,,,,1.6886865756288824e+18,46.70288232421875,21.123079681396483,38.17379913330078,-22.001479721069337,1.6886865756288824e+18,46.70288232421875,-234.2229156494141,133.19959716796876,-154.72527770996095,1.6886865756233766e+18,46.69737646484375,-0.2546446522076924,0.0311578313509622,-0.7321555813153585,0.6309778690338135,-1.789241870244344,1.2220930258433025,2.202586015065511
1.75,1.6886865756752886e+18,46.74928849283854,-0.0950904885927836,0.0471111933390299,0.0860315958658853,1.6886865756752886e+18,46.74928849283854,-0.8043872117996216,-9.192426999409994,3.4165519873301187,1.6886865756752886e+18,46.74928849283854,-0.7151427467664083,-9.222033500671388,3.2678329944610596,1.6886865756709604e+18,46.74496053059895,0.0192422550171613,0.1903354277213413,-0.0170533213143547,1.6886865756709604e+18,46.74496053059895,0.0184277684117356,0.1947642018397648,-0.0146098608771959,,,,,,,,,,,,1.6886865756788833e+18,46.752883154296875,20.805879974365233,38.1664794921875,-21.91119956970215,1.6886865756788833e+18,46.752883154296875,-234.5401153564453,133.19227905273436,-154.63499755859374,1.6886865756752886e+18,46.74928849283854,-0.2573521236578623,0.0344700229664643,-0.731619397799174,0.6303278803825378,-1.7862781286239624,1.2228168646494548,2.2084314823150635
1.8,1.6886865757272005e+18,46.80120068359375,-0.2558961908022562,0.0630518595377603,-0.0122045675913492,1.6886865757272005e+18,46.80120068359375,-0.950548787911733,-9.177073160807293,3.319841941197714,1.6886865757272005e+18,46.80120068359375,-0.700498620669047,-9.222620328267416,3.2693591117858887,1.688686575722874e+18,46.79687418619792,-0.0086030185727091,-0.0563014149665832,0.0348193198442458,1.688686575722874e+18,46.79687418619792,-0.0094684113719267,-0.0518217335144678,0.0372627787292003,,,,,,,,,,,,1.6886865757288817e+18,46.80288154296875,20.932759475708007,38.059119415283206,-22.19423942565918,1.6886865757288817e+18,46.80288154296875,-234.413232421875,133.0849151611328,-154.91803588867188,1.6886865757272005e+18,46.80120068359375,-0.2580572267373403,0.0349311108390489,-0.7310873866081238,0.6306321223576864,-1.781901756922404,1.2229924996693928,2.205760955810547
1.85,1.6886865757791086e+18,46.85310864257812,0.1314568519592285,0.003094991048177,0.1195125579833984,1.6886865757791086e+18,46.85310864257812,-0.5702893833319346,-9.234899520874022,3.45603346824646,1.6886865757791086e+18,46.85310864257812,-0.7075922687848409,-9.220489819844564,3.2738335132598877,1.6886865757747878e+18,46.84878808593751,-0.01771509150664,-0.1085303910076618,0.0229583524633198,1.6886865757747878e+18,46.84878808593751,-0.0186313896750409,-0.10410161751012,0.0254527181386946,,,,,,,,,,,,1.688686575778886e+18,46.85288583984375,21.098679733276366,38.08839950561523,-21.857519149780273,1.688686575778886e+18,46.85288583984375,-234.247314453125,133.11419677734375,-154.58131713867186,1.6886865757791086e+18,46.85310864257812,-0.2559693058331807,0.0322703346610068,-0.7314570943514506,0.6311961611111959,-1.7836938699086506,1.2223565578460691,2.2006045977274575
1.9,1.6886865758310223e+18,46.90502229817708,0.0483352740605672,0.096541404724121,0.1266291936238606,1.6886865758310223e+18,46.90502229817708,-0.6570292115211487,-9.137392044067385,3.4737802346547446,1.6886865758310223e+18,46.90502229817708,-0.7112105091412863,-9.216428756713867,3.28446364402771,1.6886865758267003e+18,46.900700439453125,-0.0161879292378822,0.1253291890025138,-0.056810467193524,1.6886865758267003e+18,46.900700439453125,-0.0170533213143546,0.1297579631209373,-0.0543670058250426,,,,,,,,,,,,1.688686575828883e+18,46.90288305664062,21.14015922546387,38.13719863891602,-22.10395927429199,1.688686575828883e+18,46.90288305664062,-234.2058349609375,133.16300048828126,-154.8277557373047,1.6886865758310223e+18,46.90502229817708,-0.2573347191015879,0.0330683402717113,-0.7315473357836405,0.6304938594500223,-1.7840773661931355,1.2211464643478394,2.204209884007772
1.95,1.688686575882937e+18,46.95693717447917,-0.1362945636113484,-0.0877504348754882,-0.1011970837910969,1.688686575882937e+18,46.95693717447917,-0.8492526412010193,-9.315856615702312,3.2606197198232016,1.688686575882937e+18,46.95693717447917,-0.7188041011492411,-9.210601488749186,3.2991294066111245,1.6886865758786092e+18,46.95260913085937,-0.0233655953779815,0.0343611699839433,-0.0264708277148504,1.6886865758786092e+18,46.95260913085937,-0.0242818935463825,0.0387899441023667,-0.0239764602544406,,,,,,,,,,,,1.6886865758788864e+18,46.95288642578125,20.79368019104004,38.10791854858398,-21.98195953369141,1.6886865758788864e+18,46.95288642578125,-234.55231018066405,133.1337158203125,-154.70575866699218,1.688686575882937e+18,46.95693717447917,-0.2593460381031036,0.0343620566030343,-0.7317523757616679,0.6293626030286154,-1.7853549321492512,1.21941606203715,2.2104074160257974
2.0,1.6886865759261972e+18,47.00019738769531,0.2112879604101181,0.0028557777404784,-0.1168781518936156,1.6886865759261972e+18,47.00019738769531,-0.512961357831955,-9.224031925201416,3.245863914489746,1.6886865759261972e+18,47.00019738769531,-0.7300953567028046,-9.209383010864258,3.300054669380188,1.6886865759305216e+18,47.00452164713541,0.0008653923869132,-0.0401134857287009,-0.0084503027804505,1.6886865759305216e+18,47.00452164713541,-5.090543224166675e-05,-0.0355829015995065,-0.0060068413149565,1.688686575926583e+18,47.0005830078125,0.0,0.4685213565826416,0.8830947279930115,7.117000102996826,0.1617991477251052,4.565327167510986,40.400001525878906,-122.7531524,49.1903776,1.688686575928885e+18,47.00288505859375,20.957159423828124,37.97371978759766,-22.135679244995117,1.688686575928885e+18,47.00288505859375,-234.3888366699219,132.99952087402343,-154.85947875976564,1.6886865759261972e+18,47.00019738769531,-0.2586644142866134,0.0336786694824695,-0.732177346944809,0.629185825586319,-1.788561999797821,1.2190549969673157,2.211622834205627
2.05,1.6886865759694574e+18,47.04345768229167,0.105423480272293,-0.0578120549519856,0.0213901996612548,1.6886865759694574e+18,47.04345768229167,-0.6127619942029318,-9.285348256429035,3.383650620778402,1.6886865759694574e+18,47.04345768229167,-0.7240315079689026,-9.210031509399414,3.299573024113973,1.6886865759824366e+18,47.05643660481771,-0.0063631795152711,0.0587448738515376,0.0199040264512101,1.6886865759824366e+18,47.05643660481771,-0.0072794776351656,0.0631736479699611,0.0223983926698565,,,,,,,,,,,,1.6886865759788854e+18,47.05288525390625,20.85955924987793,37.86635894775391,-22.160079956054688,1.6886865759788854e+18,47.05288525390625,-234.48643798828124,132.89215698242188,-154.88387756347657,1.6886865759694574e+18,47.04345768229167,-0.2589733600616454,0.0339781716465949,-0.7319526473681132,0.6293039520581564,-1.7868423859278362,1.219247341156006,2.210789759953817
2.1,1.6886865760213696e+18,47.09536962890625,-0.0269707838694254,0.0412336985270182,-0.0778979460398355,1.6886865760213696e+18,47.09536962890625,-0.7258228460947672,-9.185448010762531,3.290928761164347,1.6886865760213696e+18,47.09536962890625,-0.7046980857849121,-9.209177017211914,3.3061393102010093,1.6886865760256973e+18,47.099697265625,-0.0112246486824005,0.0469602644443511,0.0201585534960031,1.6886865760256973e+18,47.099697265625,-0.0121409464627503,0.0513890385627746,0.0226020142436027,,,,,,,,,,,,1.688686576028885e+18,47.10288500976562,21.267039489746093,38.05179901123047,-22.108839416503905,1.688686576028885e+18,47.10288500976562,-234.078955078125,133.07760009765624,-154.8326385498047,1.6886865760213696e+18,47.09536962890625,-0.2601456840833028,0.0345050444205601,-0.7312545577685038,0.6296032667160034,-1.7808398008346558,1.21899418036143,2.207293748855591
2.15,1.6886865760732782e+18,47.147278238932294,-0.0474884907404581,0.0280141830444335,0.0181527137756347,1.6886865760732782e+18,47.147278238932294,-0.7326025168100992,-9.200402895609535,3.385046402613322,1.6886865760732782e+18,47.147278238932294,-0.6909600496292114,-9.210912386576334,3.304206291834513,1.6886865760689574e+18,47.14295735677083,0.019496782682836,0.1065959855914115,-0.020209458656609,1.6886865760689574e+18,47.14295735677083,0.018580484514435,0.1110756670435269,-0.0177150915066401,,,,,,,,,,,,1.6886865760788874e+18,47.152887255859376,20.988879013061524,37.88099899291992,-22.36747932434082,1.6886865760788874e+18,47.152887255859376,-234.35711669921875,132.90679626464845,-155.09127807617188,1.6886865760732782e+18,47.147278238932294,-0.2615447541077931,0.0360576920211314,-0.7307001948356628,0.629579762617747,-1.7769773403803508,1.219508210817973,2.20775039990743
2.2,1.6886865761251904e+18,47.19919059244791,-0.1542670130729674,0.0652554829915364,0.0499177773793538,1.6886865761251904e+18,47.19919059244791,-0.8636095722516378,-9.160323143005373,3.419542948404948,1.6886865761251904e+18,47.19919059244791,-0.7151885827382406,-9.208073933919271,3.3069377740224204,1.6886865761208655e+18,47.194865559895824,-0.0132354136245946,0.0361937681833903,-0.0916806931296984,1.6886865761208655e+18,47.194865559895824,-0.0141517119482159,0.04062253733476,-0.0892372305194536,,,,,,,,,,,,1.6886865761288852e+18,47.20288500976562,20.51551971435547,38.02739944458008,-22.31623954772949,1.6886865761288852e+18,47.20288500976562,-234.8304748535156,133.0531982421875,-155.0400390625,1.6886865761251904e+18,47.19919059244791,-0.2629791498184203,0.0379100951055685,-0.7314510146776835,0.6279998024304708,-1.783813754717509,1.2186688979466755,2.219453652699789
2.25,1.6886865761771036e+18,47.25110335286458,0.344345360994339,-0.1998907725016275,-0.1629152297973632,1.6886865761771036e+18,47.25110335286458,-0.4057828386624654,-9.418748219807943,3.216352383295695,1.6886865761771036e+18,47.25110335286458,-0.7559742530186971,-9.201352755228678,3.3165802160898843,1.6886865761727816e+18,47.246781575520835,-0.0329867241283257,-0.1758273790280023,-0.0023925558974345,1.6886865761727816e+18,47.246781575520835,-0.0338521158943573,-0.1713986049095789,5.09049277752661e-05,,,,,,,,,,,,1.6886865761788846e+18,47.25288471679688,20.96935958862305,37.98347854614258,-22.46751937866211,1.6886865761788846e+18,47.25288471679688,-234.3766357421875,133.0092742919922,-155.19131774902343,1.6886865761771036e+18,47.25110335286458,-0.2610279421011607,0.0355417417983213,-0.7329888741175333,0.6271577874819437,-1.7949392000834148,1.216687003771464,2.2243038018544516
2.3,1.6886865762290184e+18,47.30301839192708,0.2878407140572865,0.0598236719767252,0.0131683349609374,1.6886865762290184e+18,47.30301839192708,-0.4241278022527694,-9.164510726928713,3.3856446743011475,1.6886865762290184e+18,47.30301839192708,-0.717814564704895,-9.2068297068278,3.309788942337036,1.688686576224694e+18,47.29869392903646,0.0339539255946874,0.0810414540270964,0.1003346169988314,1.688686576224694e+18,47.29869392903646,0.0330885347599783,0.0854702281455198,0.1027780771255492,,,,,,,,,,,,1.688686576228886e+18,47.302886083984376,21.149919509887695,37.93955917358399,-22.325999450683593,1.688686576228886e+18,47.302886083984376,-234.19607543945312,132.9653564453125,-155.04979553222657,1.6886865762290184e+18,47.30301839192708,-0.2605211635430653,0.0348638507227102,-0.7316938440004984,0.628916323184967,-1.7843879063924153,1.2183012167612712,2.211947838465373
2.35,1.6886865762809234e+18,47.35492366536459,-0.3514306743939717,0.0423628489176432,0.1665851275126139,1.6886865762809234e+18,47.35492366536459,-1.0053842862447102,-9.189435958862305,3.5304104487101235,1.6886865762809234e+18,47.35492366536459,-0.6597996354103088,-9.21429411570231,3.301137924194336,1.688686576276607e+18,47.35060717773438,0.0263690169279773,0.2014328191677729,0.0209730399462083,1.688686576276607e+18,47.35060717773438,0.0254527187595764,0.2059124956528345,0.0234674068633466,,,,,,,,,,,,1.688686576278883e+18,47.35288310546875,20.86443977355957,38.071318817138675,-22.377239990234376,1.688686576278883e+18,47.35288310546875,-234.48155517578124,133.097119140625,-155.10103454589844,1.6886865762809234e+18,47.35492366536459,-0.2637236615022023,0.0383088054756322,-0.7294976512591044,0.6299316684405009,-1.7681023279825847,1.2205108801523843,2.2053519090016684
2.4,1.688686576332843e+18,47.406842773437496,-0.2903260787328084,0.1613941192626952,0.035921812057495,1.688686576332843e+18,47.406842773437496,-0.9453643560409546,-9.070592562357584,3.3990046183268228,1.688686576332843e+18,47.406842773437496,-0.6608843008677164,-9.214481989542644,3.300395409266154,1.688686576328519e+18,47.402518554687504,0.0012217305290202,-0.0064649901663263,-0.031154127481083,1.688686576328519e+18,47.402518554687504,0.0003563382973273,-0.002036217910548,-0.0287106661126017,,,,,,,,,,,,1.6886865763288847e+18,47.40288466796875,20.788799667358397,38.071319580078125,-22.250359344482423,1.6886865763288847e+18,47.40288466796875,-234.55719604492188,133.09711608886718,-154.97415771484376,1.688686576332843e+18,47.406842773437496,-0.2647454937299092,0.0395701676607131,-0.7294683655103048,0.6294599572817484,-1.7684584458669026,1.2205675045649211,2.2090651194254556
2.45,1.688686576376103e+18,47.450103027343744,0.0125564038753509,-0.0657916069030761,-0.1262717247009276,1.688686576376103e+18,47.450103027343744,-0.6843472719192505,-9.29282569885254,3.2419755458831787,1.688686576376103e+18,47.450103027343744,-0.7027496993541718,-9.209529399871826,3.3055598735809326,1.6886865763804242e+18,47.45442423502604,-0.0340048316866158,-0.1278744563460349,-0.0755436693628628,1.6886865763804242e+18,47.45442423502604,-0.0349211301654577,-0.1234456896781921,-0.0730493031442165,,,,,,,,,,,,1.6886865763788846e+18,47.4528845703125,20.55211944580078,37.9737190246582,-22.38455924987793,1.6886865763788846e+18,47.4528845703125,-234.7938720703125,132.99951782226563,-155.1083557128906,1.688686576376103e+18,47.450103027343744,-0.2636060416698456,0.0385409481823443,-0.7309843003749847,0.6282418966293335,-1.7803034782409668,1.2190988659858704,2.2177770137786865
2.5,1.6886865764193636e+18,47.493363606770835,0.2481507658958435,-0.1204357147216796,-0.3963013490041097,1.6886865764193636e+18,47.493363606770835,-0.4801597396532694,-9.342178026835125,2.9798618157704673,1.6886865764193636e+18,47.493363606770835,-0.7341565489768982,-9.204237620035808,3.313475767771403,1.6886865764323418e+18,47.50634171549479,-0.0326812913020451,-0.1644754707813262,0.0601702261095245,1.6886865764323418e+18,47.50634171549479,-0.0335975891600052,-0.1600466966629028,0.0626645935699343,,,,,,,,,,,,1.6886865764288824e+18,47.502882421875,21.37439956665039,38.071319580078125,-22.233279037475587,1.6886865764288824e+18,47.502882421875,-233.97159423828128,133.09711608886718,-154.9570770263672,1.6886865764193636e+18,47.493363606770835,-0.2615785797437032,0.0360725348194439,-0.732204000155131,0.6278146704037985,-1.7888748248418171,1.217536250750224,2.219796578089396
2.55,1.6886865764712717e+18,47.54527180989584,0.1514722307523091,-0.103288968404134,-0.1543879508972167,1.6886865764712717e+18,47.54527180989584,-0.5575276811917623,-9.32742182413737,3.2193435033162436,1.6886865764712717e+18,47.54527180989584,-0.7148459355036417,-9.2066281636556,3.3110440572102866,1.6886865764756037e+18,47.54960363769531,0.0158824964892118,-0.1520290896296501,0.1182024255394935,1.6886865764756037e+18,47.54960363769531,0.014966198359616,-0.1475239545106887,0.1206458881497382,,,,,,,,,,,,1.688686576478883e+18,47.552883056640624,21.07183990478516,37.94199905395508,-22.11615943908691,1.688686576478883e+18,47.552883056640624,-234.2741546630859,132.9677978515625,-154.83995666503907,1.6886865764712717e+18,47.54527180989584,-0.2587357958157857,0.0326430462300776,-0.7316930890083313,0.62977268298467,-1.783463478088379,1.218241532643636,2.20513923962911
2.6,1.6886865765231877e+18,47.5971874186198,-0.0258018573125203,0.0840396881103515,0.1007196903228759,1.6886865765231877e+18,47.5971874186198,-0.7140581607818604,-9.148358980814615,3.455834070841471,1.6886865765231877e+18,47.5971874186198,-0.6941023270289103,-9.21489397684733,3.2924269835154214,1.688686576518861e+18,47.5928612467448,0.0416915534685054,0.0224492984513442,0.0144571441536148,1.688686576518861e+18,47.5928612467448,0.0408261604607105,0.0268780700862407,0.0169006055220961,,,,,,,,,,,,1.6886865765288863e+18,47.60288642578125,20.85711975097656,38.1859992980957,-21.891679763793945,1.6886865765288863e+18,47.60288642578125,-234.48887634277344,133.21179809570313,-154.6154754638672,1.6886865765231877e+18,47.5971874186198,-0.2573709785938262,0.0322039350867271,-0.730989952882131,0.6311708490053812,-1.7786080837249756,1.220689296722412,2.1975413163503013
2.65,1.6886865765750958e+18,47.649095703125,-0.2344332337379455,0.0221576690673827,0.0433119932810465,1.6886865765750958e+18,47.649095703125,-0.9379864533742268,-9.212566375732422,3.3886357148488364,1.6886865765750958e+18,47.649095703125,-0.7093992431958517,-9.217219352722168,3.2826363245646157,1.6886865765707735e+18,47.64477351888021,0.0062613690582414,-0.1307760681957006,0.0050905431465556,1.6886865765707735e+18,47.64477351888021,0.00534507073462,-0.126296387054026,0.0075849100636938,,,,,,,,,,,,1.688686576578883e+18,47.652883203125,20.95227966308594,38.14451904296875,-22.20399932861328,1.688686576578883e+18,47.652883203125,-234.39371643066409,133.17032165527343,-154.92779541015625,1.6886865765750958e+18,47.649095703125,-0.2561592062314351,0.0318203674008448,-0.7315392891565958,0.6310455004374186,-1.7836659749348958,1.2213811874389648,2.2002317905426025
2.7,1.6886865766270116e+18,47.70101163736979,0.1591418385505676,0.0921827952067056,0.2299294471740722,1.6886865766270116e+18,47.70101163736979,-0.550349215666453,-9.141579310099283,3.5766716798146567,1.6886865766270116e+18,47.70101163736979,-0.715337077776591,-9.216257413228352,3.28405483563741,1.6886865766226872e+18,47.696687174479166,-0.0181732413669426,-0.1137736526628335,0.0429641883820295,1.6886865766226872e+18,47.696687174479166,-0.0190386334434151,-0.10934487854441,0.0455094606926043,,,,,,,,,,,,1.688686576628883e+18,47.70288310546875,20.93763961791992,38.09571914672851,-21.95999946594238,1.688686576628883e+18,47.70288310546875,-234.4083526611328,133.12151184082032,-154.68380126953124,1.6886865766270116e+18,47.70101163736979,-0.2534564435482024,0.0286700191597143,-0.7318767110506693,0.6318971514701843,-1.7853039503097534,1.2210951646169026,2.1932924588521323
2.75,1.6886865766789284e+18,47.752928466796874,-0.0569374958674112,0.0635032653808593,0.0718576113382975,1.6886865766789284e+18,47.752928466796874,-0.763310432434082,-9.1671028137207,3.428117275238037,1.6886865766789284e+18,47.752928466796874,-0.7122189601262411,-9.213101387023926,3.293572266896566,1.688686576674601e+18,47.748601155598955,-0.0084503025282173,0.0746782782177129,-0.0208203239987293,1.688686576674601e+18,47.748601155598955,-0.0093156952255715,0.0791579534610112,-0.0182750523090362,,,,,,,,,,,,1.688686576678888e+18,47.75288779296875,20.56187934875488,38.222599029541016,-22.243038940429688,1.688686576678888e+18,47.75288779296875,-234.78411254882812,133.24839782714844,-154.9668395996094,1.6886865766789284e+18,47.752928466796874,-0.2542320092519124,0.0287637977550426,-0.7317644158999125,0.6317113439242045,-1.7837974230448406,1.220157782236735,2.1930955251057944
2.8,1.6886865767308326e+18,47.80483268229167,-0.1717931628227233,-0.0236018498738606,-0.0472736358642578,1.6886865767308326e+18,47.80483268229167,-0.8877372145652771,-9.253643353780111,3.308476130167643,1.6886865767308326e+18,47.80483268229167,-0.721790075302124,-9.212536811828612,3.293062369028727,1.6886865767265068e+18,47.80050675455729,0.0048869221160808,-0.0474438667297363,-0.0160352128247419,1.6886865767265068e+18,47.80050675455729,0.0040215295739471,-0.0429641890029112,-0.0135408461404342,,,,,,,,,,,,1.6886865767288832e+18,47.80288310546875,20.527719497680664,38.1030387878418,-22.1015193939209,1.6886865767288832e+18,47.80288310546875,-234.81827697753903,133.1288330078125,-154.8253173828125,1.6886865767308326e+18,47.80483268229167,-0.2544391751289367,0.0291937881459792,-0.7320804993311564,0.6312417387962341,-1.7866034905115764,1.2199901739756267,2.1968424320220947
2.85,1.6886865767827484e+18,47.85674812825521,0.3202722171942392,-0.0402323404947916,0.0953856309254963,1.6886865767827484e+18,47.85674812825521,-0.4187439580758412,-9.270393053690592,3.445664644241333,1.6886865767827484e+18,47.85674812825521,-0.7448622186978658,-9.212656021118164,3.2875916163126626,1.6886865767784172e+18,47.8524170735677,-0.0002036217483691,-0.1165225443740685,-0.0061086523346602,1.6886865767784172e+18,47.8524170735677,-0.0010690141740875,-0.112093770255645,-0.00366519135423,,,,,,,,,,,,1.6886865767788818e+18,47.85288193359375,21.413439559936524,38.10060043334961,-21.772119522094727,1.6886865767788818e+18,47.85288193359375,-233.93255310058595,133.12639465332032,-154.49591979980468,1.6886865767827484e+18,47.85674812825521,-0.2520669400691985,0.0272343450536329,-0.7329587737719218,0.631261924902598,-1.7936374346415205,1.220025380452474,2.1975225607554116
2.9,1.6886865768260086e+18,47.90000842285156,0.3123412430286407,0.0026636123657226,0.0287848711013793,1.6886865768260086e+18,47.90000842285156,-0.4202394634485245,-9.22762155532837,3.380161166191101,1.6886865768260086e+18,47.90000842285156,-0.7384267449378967,-9.212780475616457,3.288688898086548,1.6886865768303355e+18,47.90433585611979,0.0092647892888634,0.1397354255119959,0.0034615697804838,1.6886865768303355e+18,47.90433585611979,0.0083993972511961,0.1441641996304194,0.0059050306833038,,,,,,,,,,,,1.6886865768288845e+18,47.902884521484374,21.376839447021485,38.129879760742185,-22.00147933959961,1.6886865768288845e+18,47.902884521484374,-233.96915283203128,133.15567932128906,-154.72527465820312,1.6886865768260086e+18,47.90000842285156,-0.2526756972074508,0.0277543403208255,-0.7327157258987427,0.63127800822258,-1.7917054295539856,1.220062434673309,2.1972440481185913
2.95,1.6886865768692687e+18,47.94326863606771,-0.1661071181297302,0.0464655558268229,-0.0323923428853352,1.6886865768692687e+18,47.94326863606771,-0.8679964145024618,-9.186843554178871,3.317249854405721,1.6886865768692687e+18,47.94326863606771,-0.7077353199323019,-9.21580441792806,3.2869548002878823,1.6886865768822477e+18,47.95624755859375,0.0133881301929552,0.0975348204374313,0.0425569439927736,1.6886865768822477e+18,47.95624755859375,0.0124718318693339,0.1019635883470376,0.0450004066030184,,,,,,,,,,,,1.6886865768788795e+18,47.95287939453125,21.24995994567871,38.02739944458008,-21.650119400024415,1.6886865768788795e+18,47.95287939453125,-234.09603576660157,133.0531982421875,-154.37391357421876,1.6886865768692687e+18,47.94326863606771,-0.254947155714035,0.0300468746572732,-0.7315566738446554,0.6316036780675253,-1.7829087972640991,1.2209607760111492,2.195108652114868
3.0,1.688686576921177e+18,47.99517724609375,-0.2961615324020385,0.0084117253621419,-0.0065680344899495,1.688686576921177e+18,47.99517724609375,-0.9774680336316428,-9.22692330678304,3.341776212056478,1.688686576921177e+18,47.99517724609375,-0.6871525247891744,-9.217830340067543,3.2856568495432534,1.688686576925507e+18,47.999507080078125,-0.0058032199740409,-0.0619264654815196,0.0197004044894128,1.688686576925507e+18,47.999507080078125,-0.0067195177543907,-0.0574976922944187,0.0222202234435826,1.688686576926571e+18,48.00057104492188,0.0,0.5137783288955688,0.8926674127578735,7.123000144958496,0.1547914743423462,4.4680352210998535,40.400001525878906,-122.7531525,49.1903777,1.6886865769288883e+18,48.00288813476563,20.674119567871095,38.12499847412109,-21.89167938232422,1.6886865769288883e+18,48.00288813476563,-234.671875,133.15079650878906,-154.61547241210937,1.688686576921177e+18,47.99517724609375,-0.2554704546928406,0.0304318393270174,-0.7308232188224792,0.6322230696678162,-1.7769953807195027,1.2215640942255657,2.1905055046081543
3.05,1.6886865769730908e+18,48.04709098307291,0.0650339921315511,0.0505965550740559,-0.0439789295196532,1.6886865769730908e+18,48.04709098307291,-0.6464609106381735,-9.182457288106283,3.304288625717163,1.6886865769730908e+18,48.04709098307291,-0.7173409263292948,-9.2155491511027,3.2855801582336426,1.6886865769687693e+18,48.042769205729165,-0.0086030190189678,-0.1168279772003491,-0.0466802859057982,1.6886865769687693e+18,48.042769205729165,-0.0095193167217075,-0.1123992055654525,-0.0441350142161051,,,,,,,,,,,,1.688686576978884e+18,48.05288408203125,21.120639419555665,38.051798248291014,-21.9843994140625,1.688686576978884e+18,48.05288408203125,-234.22535095214843,133.07760009765624,-154.70820007324218,1.6886865769730908e+18,48.04709098307291,-0.2535673677921294,0.028707959378759,-0.7319445808728536,0.6317720611890157,-1.7857839663823445,1.2208856741587322,2.193998495737711
3.1,1.6886865770250048e+18,48.09900504557291,0.2763131459554036,-0.0684254964192707,0.0645762284596761,1.6886865770250048e+18,48.09900504557291,-0.4630111853281657,-9.30030345916748,3.4099717140197754,1.6886865770250048e+18,48.09900504557291,-0.7451703747113546,-9.214373270670572,3.2827080885569253,1.6886865770206769e+18,48.09467659505208,0.0069740447797811,-0.0354810903469721,-0.0213802827832599,1.6886865770206769e+18,48.09467659505208,0.0060577469606262,-0.0310523177807529,-0.0188350115592281,,,,,,,,,,,,1.688686577028882e+18,48.10288188476562,20.66923942565918,38.029840087890626,-21.606199645996092,1.688686577028882e+18,48.10288188476562,-234.6767578125,133.0556396484375,-154.3299987792969,1.6886865770250048e+18,48.09900504557291,-0.25228218237559,0.0278778485953807,-0.7329452236493429,0.6311638752619425,-1.7940460443496704,1.2205356359481812,2.199171543121338
3.15,1.6886865770769142e+18,48.15091438802083,0.1003963152567545,0.0384511947631835,0.1736797491709391,1.6886865770769142e+18,48.15091438802083,-0.6151548226674398,-9.196813583374023,3.514857053756714,1.6886865770769142e+18,48.15091438802083,-0.7213971614837646,-9.21776008605957,3.278489907582601,1.688686577072592e+18,48.14659204101562,0.016696983637909,0.0930551414688427,0.0401643899579842,1.688686577072592e+18,48.14659204101562,0.0158315909405548,0.0975348154703775,0.0426078500847021,,,,,,,,,,,,1.6886865770788808e+18,48.15288081054688,21.34023971557617,38.18112030029297,-21.933159255981444,1.6886865770788808e+18,48.15288081054688,-234.0057586669922,133.20691528320313,-154.6569580078125,1.6886865770769142e+18,48.15091438802083,-0.253118375937144,0.028814161196351,-0.7320818106333414,0.6317882140477499,-1.7874170541763306,1.2215430736541748,2.195104996363322
3.2,1.688686577128829e+18,48.20282853190105,-0.2250178456306457,0.0877291361490885,-0.043248971303304,1.688686577128829e+18,48.20282853190105,-0.907677392164866,-9.148358980814615,3.3026934464772544,1.688686577128829e+18,48.20282853190105,-0.6885055700937907,-9.218583424886068,3.2832550207773843,1.6886865771245056e+18,48.1985057779948,-0.0075849100636939,0.1157589654127756,0.0219911492119232,1.6886865771245056e+18,48.1985057779948,-0.0084503025282174,0.1201877395311991,0.0244346099595228,,,,,,,,,,,,1.68868657712888e+18,48.20288002929688,20.803439331054687,38.06399993896484,-21.898999404907222,1.68868657712888e+18,48.20288002929688,-234.5425537109375,133.089794921875,-154.62279663085937,1.688686577128829e+18,48.20282853190105,-0.2554490665594736,0.0306189879775046,-0.7308625976244608,0.6321768760681152,-1.7775382995605469,1.2217884461085002,2.191283384958903
3.25,1.688686577180742e+18,48.25474194335937,-0.1701012253761291,-0.0048561096191406,-0.1934065024058023,1.688686577180742e+18,48.25474194335937,-0.8524430791536967,-9.238688151041666,3.158924659093221,1.688686577180742e+18,48.25474194335937,-0.6881878773371378,-9.216327349344889,3.2896437644958496,1.6886865771764134e+18,48.25041373697917,-0.0161879289274413,-0.0661770667647943,-0.007992153832068,1.6886865771764134e+18,48.25041373697917,-0.0171042270958423,-0.0616973900857071,-0.0054468815214931,,,,,,,,,,,,1.6886865771788805e+18,48.25288041992187,20.696079635620116,38.193318939208986,-22.035639572143555,1.6886865771788805e+18,48.25288041992187,-234.6499145507813,133.2191192626953,-154.75943908691406,1.688686577180742e+18,48.25474194335937,-0.2556207180023193,0.0303058462838331,-0.7308643658955892,0.6321205496788025,-1.777052680651347,1.2211174567540486,2.1906150182088218
