,seconds_elapsed_rounded,accelerometer_time,accelerometer_seconds_elapsed,accelerometer_z,accelerometer_y,accelerometer_x,accelerometeruncalibrated_time,accelerometeruncalibrated_seconds_elapsed,accelerometeruncalibrated_z,accelerometeruncalibrated_y,accelerometeruncalibrated_x,gravity_time,gravity_seconds_elapsed,gravity_z,gravity_y,gravity_x,gyroscope_time,gyroscope_seconds_elapsed,gyroscope_z,gyroscope_y,gyroscope_x,gyroscopeuncalibrated_time,gyroscopeuncalibrated_seconds_elapsed,gyroscopeuncalibrated_z,gyroscopeuncalibrated_y,gyroscopeuncalibrated_x,location_time,location_seconds_elapsed,location_bearingAccuracy,location_speedAccuracy,location_verticalAccuracy,location_horizontalAccuracy,location_speed,location_bearing,location_altitude,location_longitude,location_latitude,magnetometer_time,magnetometer_seconds_elapsed,magnetometer_z,magnetometer_y,magnetometer_x,magnetometeruncalibrated_time,magnetometeruncalibrated_seconds_elapsed,magnetometeruncalibrated_z,magnetometeruncalibrated_y,magnetometeruncalibrated_x,orientation_time,orientation_seconds_elapsed,orientation_qz,orientation_qy,orientation_qx,orientation_qw,orientation_roll,orientation_pitch,orientation_yaw,totalacceleration_time,totalacceleration_seconds_elapsed,totalacceleration_z,totalacceleration_y,totalacceleration_x
0,0.0,,,,,,,,,,,,,,,,,,,,,,,,,,,,,,,,,,,,,,,,,,,,,,,,,,,,,,,,1.6886865289631386e+18,0.037138671875,9.465408325195312,3.5371899604797363,-0.6999006271362305
1,0.1,,,,,,1.688686529049641e+18,0.12364095052083333,7.853243827819824,4.114059766133626,-0.31904302040735877,,,,,,1.688686529036645e+18,0.11064521484375,0.13768902607262132,0.2954144310206175,0.260198051482439,1.6886865290496374e+18,0.1236373291015625,0.06207917828578505,0.2412535889307037,0.1729894032469019,,,,,,,,,,,,1.6886865290438802e+18,0.11788037109375,-47.596265157063804,-5.455433289210002,12.319966475168863,1.6886865290438802e+18,0.11788037109375,-302.9422658284505,89.57036590576172,-120.40383275349934,,,,,,,,,,1.6886865290323412e+18,0.10634130859375,8.155188202857971,4.0648073554039,-0.3248256742954254
2,0.2,1.6886865291275118e+18,0.201511767578125,0.007483291625976563,-0.48367676734924314,0.07342550754547114,1.6886865291275098e+18,0.201509765625,8.747162342071533,3.914757490158081,-0.3298107211788495,1.6886865291275118e+18,0.201511767578125,8.737582015991212,4.438212203979492,-0.4347371935844421,1.6886865291318354e+18,0.20583548990885417,0.009392053044090617,0.14905112050473687,-0.210188552737236,1.6886865291275118e+18,0.201511767578125,0.010323622357100201,0.1300837537273764,-0.2051896333694458,,,,,,,,,,,,1.6886865291238825e+18,0.19788266601562501,-47.40187873840332,-5.402159833908081,12.935659790039063,1.6886865291238825e+18,0.19788266601562501,-302.7478729248047,89.62363967895507,-119.78813781738282,1.6886865291275118e+18,0.201511767578125,0.25729557275772097,0.08354353755712506,0.2183320045471191,0.9376239657402039,0.04970773756504052,-0.4694814682006836,-0.5237590432167053,1.6886865291275098e+18,0.201509765625,8.741180578867594,3.932105541229248,-0.39262231687704724
3,0.30000000000000004,1.6886865292226819e+18,0.29668180338541666,0.3098074595133463,-0.769873857498169,-0.13189351061979926,1.6886865292313352e+18,0.3053352457682292,9.094321250915527,3.50199564297994,-0.6617151548465093,1.6886865292226819e+18,0.29668180338541666,8.810073534647623,4.267938296000163,-0.6329876482486725,1.6886865292270106e+18,0.30101064453125004,-0.0387593990191817,0.12773192301392555,-0.07916813530027864,1.6886865292226819e+18,0.29668180338541666,-0.03683008272976922,0.15465071673194566,-0.093666002775232,,,,,,,,,,,,1.688686529223883e+18,0.29788288574218746,-47.426279067993164,-4.538399982452392,13.970219802856445,1.688686529223883e+18,0.29788288574218746,-302.77228088378905,90.48739852905274,-118.75357818603516,1.6886865292226819e+18,0.29668180338541666,0.2604801853497823,0.09161719058950739,0.2063091918826103,0.9387145042419434,0.0717214482525984,-0.45010748008886975,-0.5249336361885071,1.6886865292313352e+18,0.3053352457682292,9.08833932876587,3.5193435748418174,-0.7245267530282339
4,0.4,1.688686529326506e+18,0.40050614420572916,-0.041770299275716134,-0.5467473665873209,0.9122527837753296,1.6886865293265055e+18,0.40050546875000004,8.76682357788086,3.746562099456787,0.14799607843160628,1.688686529326506e+18,0.40050614420572916,8.77710485458374,4.298151890436809,-0.8397457400957743,1.6886865293221806e+18,0.3961805419921875,-0.0944295867035786,0.39159006997942924,0.049658252741210156,1.688686529326506e+18,0.40050614420572916,-0.09498954378068443,0.4254421852529049,0.046502117766067386,,,,,,,,,,,,1.6886865293238833e+18,0.3978833984375,-47.23229904174805,-4.521319913864136,14.546059703826904,1.6886865293238833e+18,0.3978833984375,-302.5782928466797,90.50447845458984,-118.17773666381837,1.688686529326506e+18,0.40050614420572916,0.2581148892641067,0.10209042951464647,0.20535074174404144,0.9384727478027344,0.0953908152878284,-0.4535286873579025,-0.5147722462813059,1.6886865293265055e+18,0.40050546875000004,8.760841751098633,3.7639099597930907,0.08518448788672686
5,0.5,1.6886865294303286e+18,0.50432861328125,-0.29134321212768555,-1.047732671101888,0.8059143324693044,1.6886865294216788e+18,0.49567891438802086,8.34437084197998,3.19511616230011,-0.30069805309176445,1.6886865294303286e+18,0.50432861328125,8.731563091278076,4.261250575383504,-1.348362684249878,1.6886865294260052e+18,0.5000053710937501,-0.35941783835490543,0.3640756805737813,-0.0757981970285376,1.6886865294303286e+18,0.50432861328125,-0.3801363483071327,0.3599523405234019,-0.08391761314123869,,,,,,,,,,,,1.6886865294238828e+18,0.49788264160156254,-46.50151901245117,-4.293179965019226,16.57369956970215,1.6886865294238828e+18,0.49788264160156254,-301.847509765625,90.73261795043945,-116.15009841918945,1.6886865294303286e+18,0.50432861328125,0.2529913410544395,0.12642160927255944,0.19734675437211988,0.9386191169420878,0.1531851266821225,-0.44935401280721027,-0.4915185421705246,1.6886865294216788e+18,0.49567891438802086,8.338388681411743,3.2124640544255576,-0.36350963136646897
6,0.6000000000000001,1.6886865295255004e+18,0.599500537109375,0.2346017837524414,0.48986525535583497,-3.058560872077942,1.6886865295256323e+18,0.5996323649088542,8.915956179300943,4.734797835350037,-4.282853484153748,1.6886865295255004e+18,0.599500537109375,8.657980918884277,4.297970581054687,-1.6670199632644653,1.6886865295230925e+18,0.5970924072265625,0.49467358489831287,0.3512984241048495,0.2626975042124589,1.6886865295305492e+18,0.6045492350260416,0.6109161569426457,0.35129842658837634,0.26315566524863243,,,,,,,,,,,,1.6886865295238825e+18,0.597882421875,-45.97691879272461,-4.4005399465560915,18.280479431152344,1.6886865295238825e+18,0.597882421875,-301.3229125976562,90.62525787353516,-114.44331741333008,1.6886865295255004e+18,0.599500537109375,0.25191228091716766,0.14328684508800504,0.19528829157352443,0.9368528485298157,0.19021469652652737,-0.4535661518573761,-0.4813796401023865,1.6886865295256323e+18,0.5996323649088542,8.909974098205566,4.752145727475484,-4.345665017763774
7,0.7000000000000001,1.6886865296206735e+18,0.6946736653645833,0.14391406377156576,0.1507636706034343,0.3730781078338623,1.6886865296293284e+18,0.7033284098307292,8.947062969207764,4.275076707204183,-1.0875379020969074,1.6886865296206735e+18,0.6946736653645833,8.627312978108725,4.338926474253337,-1.7195148666699727,1.6886865296249997e+18,0.6989995930989584,0.5168428967396418,0.6726899047692617,-0.4198680445551872,1.688686529625001e+18,0.6990008789062501,0.5307502686977387,0.694431608915329,-0.45521679520606995,,,,,,,,,,,,1.688686529623883e+18,0.697882958984375,-44.82767944335937,-5.282599878311157,20.02263946533203,1.688686529623883e+18,0.697882958984375,-300.1736724853516,89.74319763183594,-112.70115966796875,1.6886865296206735e+18,0.6946736653645833,0.2903185039758682,0.15449917813142136,0.19052692254384354,0.9248317778110504,0.19667734702428177,-0.45818524559338886,-0.562390516201655,1.6886865296293284e+18,0.7033284098307292,8.941081047058105,4.29242471853892,-1.1503494729598363
8,0.8,1.688686529724495e+18,0.7984950764973958,1.253703276316325,-1.808140496412913,0.2487004597981771,1.6886865297244982e+18,0.798498095703125,9.843952751159668,2.1716061592102056,-1.770569086074829,1.688686529724495e+18,0.7984950764973958,8.671462217966715,4.0011195341746015,-2.228736678759257,1.6886865297288225e+18,0.8028225504557293,0.17715092251698175,1.0048733229438465,-0.3371721568206946,1.6886865297201743e+18,0.7941742757161458,0.12067134430011113,0.8378780235846838,-0.396018847823143,1.688686529696e+18,0.77,0.0,0.0,0.9003691673278809,11.58199977874756,0.0,0.0,40.30000305175781,-122.7532002,49.1903854,1.6886865297238815e+18,0.7978814208984375,-43.72357940673828,-4.173619937896729,22.79325942993164,1.6886865297238815e+18,0.7978814208984375,-299.0695739746094,90.85217819213867,-109.93053741455078,1.688686529724495e+18,0.7984950764973958,0.3134780277808507,0.1786124830444654,0.16101603706677747,0.918519934018453,0.25148603071769077,-0.420170138279597,-0.6039921840031942,1.6886865297244982e+18,0.798498095703125,9.837970733642578,2.1889541387557983,-1.8333806991577148
9,0.9,1.6886865298283182e+18,0.9023181559244792,-0.20039812723795572,-1.5660857756932576,0.5336957573890686,1.6886865298196675e+18,0.89366748046875,7.831010659535726,2.696810801823934,-2.734198729197184,1.6886865298283182e+18,0.9023181559244792,7.630248467127482,4.7290553251902265,-3.8411503235499063,1.6886865298326467e+18,0.9066466471354167,1.8346574107805889,3.0292298396428428,1.4634040395418804,1.6886865298239951e+18,0.8979951578776042,1.7647642195224762,3.18245522181193,1.3524556756019592,,,,,,,,,,,,1.6886865298238828e+18,0.8978827636718749,-36.77689952850342,-8.125199890136718,31.44183979034424,1.6886865298238828e+18,0.8978827636718749,-292.1228942871094,86.9005973815918,-101.2819580078125,1.6886865298283182e+18,0.9023181559244792,0.36815592149893445,0.2924167563517888,0.1527828052639961,0.8671271602312723,0.46923649311065674,-0.5042390078306198,-0.6780602733294169,1.6886865298196675e+18,0.89366748046875,7.825028419494629,2.7141587932904563,-2.797010213136673
10,1.0,1.6886865299321408e+18,1.0061409505208332,-0.3303391138712564,0.30847533543904626,-0.07618991533915202,1.688686529923491e+18,0.9974910074869792,5.487041433652242,6.4224356810251875,-3.9380875627199807,1.6886865299321408e+18,1.0061409505208332,6.496479908625285,6.0751339594523115,-4.129171411196391,1.688686529927819e+18,1.001819140625,0.8451626062393188,-0.13139713406562806,0.0998459171503782,1.688686529927819e+18,1.00181884765625,0.9932923416296641,-0.03212131187319755,0.23533584363758564,,,,,,,,,,,,1.6886865299238833e+18,0.997883203125,-29.183619499206543,-17.493579864501953,36.465799713134764,1.6886865299238833e+18,0.997883203125,-284.5296173095703,77.53221893310547,-96.25799942016602,1.6886865299321408e+18,1.0061409505208332,0.4234488258759181,0.36232030391693115,0.19363359113534287,0.8072716593742371,0.5659177998701731,-0.6678819457689921,-0.7652081251144409,1.688686529923491e+18,0.9974910074869792,5.481059392293294,6.439783573150635,-4.000899136066437
11,1.1,1.688686530027314e+18,1.1013138671875,-0.752048397064209,-2.7240105628967286,1.471988821029663,1.6886865300273134e+18,1.101313435872396,6.329813559850057,3.174378341063857,-1.9602202276388805,1.688686530027314e+18,1.1013138671875,6.979505348205566,5.9940790176391605,-3.3808585166931153,1.688686530022987e+18,1.096987060546875,0.8579347928365072,-0.3493385553980867,-1.525712291399638,1.6886865300316436e+18,1.1056437581380207,0.7083746219674746,-0.5357542708516121,-1.7752762337525685,,,,,,,,,,,,1.6886865300238812e+18,1.0978810546875,-30.78791923522949,-19.185719680786132,34.129499435424805,1.6886865300238812e+18,1.0978810546875,-286.1339141845703,75.8400779724121,-98.59429702758788,1.688686530027314e+18,1.1013138671875,0.4732804536819458,0.32903225421905513,0.18871330916881557,0.7947025179862977,0.45186694860458376,-0.6577566385269165,-0.9168610811233521,1.6886865300273134e+18,1.101313435872396,6.323831558227539,3.1917263381183147,-2.0230318357547126
12,1.2000000000000002,1.6886865301224837e+18,1.1964837646484374,-0.9794940153757731,-5.3627876440684,2.4798284669717154,1.6886865301311368e+18,1.2051369222005208,7.665008465449016,-1.4690934320290883,0.1438684662183126,1.6886865301224837e+18,1.1964837646484374,8.546233812967936,4.183481931686401,-2.25138912598292,1.6886865301268132e+18,1.20081298828125,-0.6651813313364983,-1.4326571561396122,-2.2949697772661843,1.6886865301268132e+18,1.2008130859375001,-0.6862460285425186,-1.4709329903125763,-2.260995554924011,,,,,,,,,,,,1.6886865301238828e+18,1.1978826416015624,-38.33361968994141,-10.7884596824646,28.511399459838866,1.6886865301238828e+18,1.1978826416015624,-293.6796142578125,84.23733749389649,-104.21239776611328,1.6886865301224837e+18,1.1964837646484374,0.4927635788917541,0.2150116513172785,0.1290781957407792,0.8321879605452219,0.2591226523121198,-0.4417295108238856,-1.0091971258322399,1.6886865301311368e+18,1.2051369222005208,7.659026463826497,-1.4517454355955124,0.08105685313542683
13,1.3,1.6886865302263112e+18,1.300311075846354,-2.6054925123850503,-4.749614953994751,-0.005382855733235677,1.6886865302263066e+18,1.3003066894531252,6.533841514587403,-2.8264020919799804,-2.9934210777282715,1.6886865302263112e+18,1.300311075846354,9.02866236368815,1.7011159807443619,-3.1595990657806396,1.6886865302306386e+18,1.3046385091145833,-2.6782369017601013,2.7294477621714273,-2.5400795539220176,1.688686530221983e+18,1.2959829101562501,-2.4622959891955056,2.3801346719264984,-2.497242530186971,,,,,,,,,,,,1.6886865302238843e+18,1.2978843505859374,-38.3555793762207,1.2834399566054344,29.09943962097168,1.6886865302238843e+18,1.2978843505859374,-293.7015747070312,96.30923843383789,-103.62435760498047,1.6886865302263112e+18,1.300311075846354,0.44343415399392444,0.18870074053605393,0.004829999680320417,0.8732632696628571,0.3351326584815979,-0.17519661132246253,-0.914626826842626,1.6886865302263066e+18,1.3003066894531252,6.527859401702881,-2.809054136276245,-3.056232738494873
14,1.4000000000000001,1.6886865303301315e+18,1.4041313883463544,-1.3932952086130779,-4.6033640305201216,-6.917199452718099,1.6886865303214838e+18,1.3954837239583335,5.88604458173116,-6.612066984176636,-11.613863865534464,1.6886865303301315e+18,1.4041313883463544,7.702207803726196,-2.0801314612229667,-5.590957800547282,1.6886865303258097e+18,1.3998095214843749,-2.845532512664795,1.676947259902954,-2.611509990692139,1.6886865303258074e+18,1.3998074544270833,-2.873001058896383,1.896023948987325,-2.597958962122599,,,,,,,,,,,,1.688686530323881e+18,1.397880908203125,-25.28083953857422,19.166199970245362,35.06279945373535,1.688686530323881e+18,1.397880908203125,-280.6268341064453,114.19199905395507,-97.6609977722168,1.6886865303301315e+18,1.4041313883463544,0.316232959429423,0.24817530562480286,-0.207496332625548,0.889796108007431,0.6288049320379893,0.21500576287508008,-0.7551000515619913,1.6886865303214838e+18,1.3954837239583335,5.880062540372212,-6.594718774159749,-11.67667547861735
15,1.5,1.688686530425304e+18,1.49930400390625,3.3392210960388184,-1.0526293754577636,-9.188997936248779,1.688686530425307e+18,1.499306884765625,8.933603366216024,-6.128118515014648,-15.181961218516031,1.688686530425304e+18,1.49930400390625,5.5482172012329105,-5.152281475067139,-6.153297328948975,1.6886865304209807e+18,1.4949807535807293,-1.6282104055086772,2.6169721484184265,-2.796515623728434,1.6886865304296325e+18,1.503632568359375,-1.5051719844341278,2.7342073917388916,-2.6933812300364175,,,,,,,,,,,,1.6886865304238838e+18,1.497883837890625,-9.351299831271172,32.828979110717775,33.05101890563965,1.6886865304238838e+18,1.497883837890625,-264.6972961425781,127.85477676391602,-99.67277755737305,1.688686530425304e+18,1.49930400390625,0.23378266096115108,0.26460348963737484,-0.38098334670066836,0.8528829216957092,0.8409769415855408,0.5546125829219818,-0.7921622037887573,1.688686530425307e+18,1.499306884765625,8.927621205647787,-6.1107704639434814,-15.24477243423462
16,1.6,1.6886865305204739e+18,1.5944739990234373,2.7016819516817727,1.9111839930216472,-5.47743288675944,1.6886865305291284e+18,1.6031285400390625,5.166702349980672,-4.312464594841003,-12.057931741078695,1.6886865305204739e+18,1.5944739990234373,2.722085694471995,-6.328576644261678,-6.932219823201497,1.688686530524806e+18,1.5988059488932294,-0.07032585920145114,3.083215077718099,-0.8423577149709066,1.6886865305248015e+18,1.5988015136718752,-0.0895528495311737,3.181630516052246,-0.7941859126091003,,,,,,,,,,,,1.688686530523883e+18,1.597882958984375,7.627439773082733,36.36697959899902,30.850139617919922,1.688686530523883e+18,1.597882958984375,-247.71855621337892,131.3927780151367,-101.87365798950195,1.6886865305204739e+18,1.5944739990234373,0.16273038089275355,0.35228640337785083,-0.4854157318671544,0.7818958063920339,1.1975831588109334,0.7012438674767812,-0.9008475542068481,1.6886865305291284e+18,1.6031285400390625,5.160720229148865,-4.295116742451985,-12.12074359258016
17,1.7000000000000002,1.6886865306242977e+18,1.6982975260416666,4.054132342338562,3.391786495844523,-0.4841939608256021,1.6886865306242985e+18,1.69829853515625,4.733003163337708,-2.5427329778671264,-7.772366619110107,1.6886865306242977e+18,1.6982975260416666,0.46684327224890393,-6.127324183781941,-7.627450466156006,1.6886865306286287e+18,1.7026287434895835,0.29268081734577817,2.9909744262695312,0.8721883110702038,1.6886865306199729e+18,1.6939729817708333,0.3060943931341171,2.976619084676107,0.7340818444887797,,,,,,,,,,,,1.6886865306238845e+18,1.6978844970703126,16.934819793701173,35.522739028930665,29.456899452209473,1.6886865306238845e+18,1.6978844970703126,-238.41117401123046,130.5485366821289,-103.26689987182617,1.6886865306242977e+18,1.6982975260416666,0.10176209049920237,0.4722338120142619,-0.501840204000473,0.7157359520594279,1.5093644460042317,0.6746618151664734,-0.9184954563776652,1.6886865306242985e+18,1.69829853515625,4.727021265029907,-2.525385046005249,-7.835178184509277
18,1.8,1.6886865307281247e+18,1.8021249186197916,-0.2461304863293966,1.636824607849121,0.6741237640380859,1.6886865307194685e+18,1.7934686279296876,-0.2776671291018526,-4.032903174559276,-7.620940685272217,1.6886865307281247e+18,1.8021249186197916,-0.36230801915129024,-5.393499215443929,-8.167323191960653,1.68868653073245e+18,1.8064501546223959,1.646230936050415,0.26460646589597064,1.0188468893369038,1.6886865307237993e+18,1.7977993977864584,1.6193782985210419,0.5723807240525881,1.0968085428078969,,,,,,,,,,,,1.6886865307238815e+18,1.7978813232421875,18.11699981689453,35.17869911193848,28.733439445495605,1.6886865307238815e+18,1.7978813232421875,-237.22899627685547,130.20449523925782,-103.99035949707032,1.6886865307281247e+18,1.8021249186197916,0.049030649165312405,0.5706821580727895,-0.43797027071317035,0.6920971274375916,1.6158189972241719,0.583108385403951,-0.750538170337677,1.6886865307194685e+18,1.7934686279296876,-0.2836491729443273,-4.015555123488109,-7.683752218882243
19,1.9000000000000001,1.6886865308319496e+18,1.905949462890625,-0.2833748161792755,2.071297605832418,2.024259328842163,1.6886865308232973e+18,1.8972974039713542,-0.07028914491335558,-2.378166615962982,-6.439883311589559,1.6886865308319496e+18,1.905949462890625,0.594378374516964,-4.496565977732341,-8.693330605824789,1.6886865308276204e+18,1.9016203613281248,0.37769797891378404,-1.2732264518737793,-0.18102991729974743,1.6886865308276204e+18,1.9016201985677084,0.35901059955358505,-1.1834750721851985,-0.11611530060569446,,,,,,,,,,,,1.6886865308238843e+18,1.8978842529296873,14.044639682769775,32.26655902862549,34.011159896850586,1.6886865308238843e+18,1.8978842529296873,-241.30135650634764,127.2923568725586,-98.71263885498047,1.6886865308319496e+18,1.905949462890625,0.09562174230813976,0.5621577898661295,-0.3918684373299281,0.7217386563618978,1.5027138789494832,0.47621044516563416,-0.7093662122885386,1.6886865308232973e+18,1.8972974039713542,-0.07627122600873319,-2.3608186642328897,-6.502694924672444
20,2.0,1.6886865309271178e+18,2.0011177734375,-0.6943738341331482,-1.110429334640503,1.814211368560791,1.688686530927119e+18,2.001118896484375,0.16181463996569315,-6.4246290524800616,-6.493123690287272,1.6886865309271178e+18,2.0011177734375,0.6702227413654327,-5.119606399536133,-8.324239730834961,1.688686530922793e+18,1.9967930501302085,-1.6925548563400905,0.28843019902706146,-0.3582724643250306,1.6886865309314478e+18,2.0054478759765626,-1.824450860420863,0.30449088166157406,-0.40650536492466927,,,,,,,,,,,,1.6886865309238845e+18,1.9978846191406248,13.404139709472656,33.556100082397464,32.74235916137695,1.6886865309238845e+18,1.9978846191406248,-241.94185485839844,128.5818992614746,-99.98143768310547,1.6886865309271178e+18,2.0011177734375,0.0800243161618709,0.538453483581543,-0.41892571449279786,0.7262413144111634,1.4910387754440309,0.5499207258224488,-0.7295646905899048,1.688686530927119e+18,2.001118896484375,0.1558325837055842,-6.407281200091044,-6.5559351444244385
21,2.1,1.6886865310222876e+18,2.096287353515625,-0.638406569759051,-2.6705331007639566,0.5175782839457194,1.688686531030943e+18,2.1049429931640624,-0.25503502289454144,-9.0114696820577,-6.948856671651204,1.6886865310222876e+18,2.096287353515625,0.45459433396657306,-6.314359347025554,-7.491634845733643,1.6886865310266186e+18,2.1006185302734375,-0.5656612198799849,-1.040787120660146,-0.9204466740290324,1.688686531026618e+18,2.10061826171875,-0.5008789454586804,-1.0448239237070083,-0.981446647644043,,,,,,,,,,,,1.6886865310238843e+18,2.0978843994140624,15.297579669952393,37.472298812866214,26.933939361572264,1.6886865310238843e+18,2.0978843994140624,-240.0484161376953,132.49809722900392,-105.78985824584962,1.6886865310222876e+18,2.096287353515625,0.05146900191903109,0.49483385185400647,-0.4811737686395645,0.7213809589544932,1.5101056098937988,0.699379046758016,-0.8035120864709219,1.688686531030943e+18,2.1049429931640624,-0.2610170741875966,-8.99412194887797,-7.0116682052612305
22,2.2,1.6886865311261146e+18,2.200114705403646,-1.28634117046992,-1.8027385075887044,-0.6580723921457926,1.6886865311261125e+18,2.2001124023437497,-0.19166508913040164,-7.972885036468506,-8.165148258209229,1.6886865311261146e+18,2.200114705403646,0.9489895105361938,-6.203489303588867,-7.537620147069295,1.6886865311304387e+18,2.2044385172526044,0.5399539694190025,-0.7577019706368446,-0.3445534451554219,1.6886865311217902e+18,2.1957903645833334,0.5475897863507271,-0.8318457528948784,-0.34916038749118644,,,,,,,,,,,,1.6886865311238856e+18,2.1978856201171877,14.87789945602417,36.14371910095215,29.057959365844727,1.6886865311238856e+18,2.1978856201171877,-240.4680953979492,131.16951599121094,-103.66583786010742,1.6886865311261146e+18,2.200114705403646,0.10462699582179386,0.453379362821579,-0.49601251383622486,0.7329943180084229,1.4455673694610596,0.6846700310707092,-0.8926587502161661,1.6886865311261125e+18,2.2001124023437497,-0.1976471334695816,-7.955537128448486,-8.227960014343262
23,2.3000000000000003,1.6886865312299377e+18,2.3039378255208334,-0.9773062368233999,-0.11084278424580891,0.09299985567728679,1.688686531221285e+18,2.2952853597005207,-0.11615159610907237,-5.790531078974406,-7.604789098103841,1.6886865312299377e+18,2.3039378255208334,1.1138331492741902,-6.221505959828694,-7.498063723246257,1.688686531225612e+18,2.299612109375,-0.46914449632167815,-0.9502008736133576,-0.542845395207405,1.6886865312256136e+18,2.2996138102213544,-0.45229481098552543,-0.9861401319503784,-0.5093343518674374,,,,,,,,,,,,1.6886865312238822e+18,2.2978820556640622,14.919379615783692,35.25921897888183,30.1242395401001,1.6886865312238822e+18,2.2978820556640622,-240.4266159057617,130.28501586914064,-102.59955749511718,1.6886865312299377e+18,2.3039378255208334,0.13610136508941648,0.42617233594258624,-0.5110972275336584,0.7336543202400208,1.422843595345815,0.6870379447937012,-0.9647861321767172,1.688686531221285e+18,2.2952853597005207,-0.12213366230328877,-5.773183027903239,-7.667600711186727
24,2.4000000000000004,1.6886865313251113e+18,2.399111279296875,0.2241394758224487,-1.2361207962036134,-0.7731840133666992,1.6886865313251092e+18,2.399109334309896,1.4556337570150693,-8.079864263534546,-7.571688572565715,1.6886865313251113e+18,2.399111279296875,1.33384370803833,-6.739120006561279,-6.9977422714233395,1.6886865313207836e+18,2.394783732096354,-0.837470809618632,0.3785073707501094,-0.053374349450071634,1.6886865313294397e+18,2.403439697265625,-0.8361217975616455,0.49296824261546135,-0.09407324499140185,,,,,,,,,,,,1.6886865313238794e+18,2.3978794189453128,13.989739608764648,37.081899642944336,28.0941593170166,1.6886865313238794e+18,2.3978794189453128,-241.35625610351562,132.10769653320312,-104.62963943481445,1.6886865313251113e+18,2.399111279296875,0.12392853349447246,0.39208858013153075,-0.527413010597229,0.7432716250419616,1.3827558517456056,0.7574432969093323,-0.9669148683547973,1.6886865313251092e+18,2.399109334309896,1.4496517181396484,-8.06251605351766,-7.634500026702881
25,2.5,1.6886865314202819e+18,2.49428173828125,-0.2567894657452901,0.17954540252685547,1.5791059335072835,1.6886865314289313e+18,2.502931396484375,0.8842476606369019,-7.111768007278442,-4.573282281557719,1.6886865314202819e+18,2.49428173828125,1.0437653462092082,-7.275603373845418,-6.493540287017822,1.688686531424607e+18,2.4986068522135416,-0.5729407022396723,-0.9717593590418497,-0.7878888870278994,1.6886865314246067e+18,2.498606640625,-0.5621181905269623,-1.1230757594108582,-0.8988271236419678,,,,,,,,,,,,1.688686531423884e+18,2.497884033203125,15.852679634094239,38.14573936462402,25.268639373779298,1.688686531423884e+18,2.497884033203125,-239.49331359863282,133.17153778076172,-107.45515823364258,1.6886865314202819e+18,2.49428173828125,0.11273356527090068,0.3641888697942098,-0.5599838395913442,0.7351789275805155,1.4110358953475952,0.8356911540031433,-1.0273221333821614,1.6886865314289313e+18,2.502931396484375,0.8782656093438467,-7.094420035680135,-4.636093894640605
26,2.6,1.6886865315241032e+18,2.598103230794271,-0.23941648006439212,2.9358452558517456,1.8746472597122192,1.6886865315241027e+18,2.598102734375,0.9488738059997559,-4.903132820129395,-3.885585069656372,1.6886865315241032e+18,2.598103230794271,1.1177183985710144,-7.782450596491496,-5.85687788327535,1.6886865315284306e+18,2.6024305826822918,-1.291547288497289,0.8664360069669783,0.49879692991574603,1.6886865315197806e+18,2.593780476888021,-1.1537462969621022,0.7495571101705233,0.4757876619696617,,,,,,,,,,,,1.6886865315238845e+18,2.597884716796875,15.491559696197509,39.796399688720705,22.485819816589355,1.6886865315238845e+18,2.597884716796875,-239.85443572998048,134.82219696044922,-110.23797836303712,1.6886865315241032e+18,2.598103230794271,0.08885656048854186,0.3341032713651657,-0.5756087203820547,0.7406212290128072,1.3820179502169292,0.9169400831063589,-1.013803501923879,1.6886865315241027e+18,2.598102734375,0.9428917586803436,-4.885784912109375,-3.948396682739258
27,2.7,1.6886865316279235e+18,2.701923461914063,-1.2529804805914562,7.022497336069743,1.132125198841095,1.6886865316192786e+18,2.6932784830729166,-0.3168495967984199,-1.833001842101415,-2.717149799068769,1.6886865316279235e+18,2.701923461914063,0.8413515985012054,-8.978174050649008,-3.6634079813957214,1.6886865316322532e+18,2.7062532552083334,-4.27256973584493,0.8111781477928162,0.03937536012381317,1.6886865316236024e+18,2.6976024169921877,-3.966195265452067,0.8717046976089478,0.10631600456933181,,,,,,,,,,,,1.6886865316238833e+18,2.6978833740234376,15.354919624328613,44.1261791229248,9.913719903677702,1.6886865316238833e+18,2.6978833740234376,-239.99107666015624,139.1519805908203,-122.81007614135743,1.6886865316279235e+18,2.701923461914063,-0.04694383781558522,0.29457164555788035,-0.6075006524721781,0.7333346803983053,1.3267384767532349,1.1738147934277852,-0.8282941579818726,1.6886865316192786e+18,2.6932784830729166,-0.3228316555420558,-1.815653880437215,-2.7799614469210305
28,2.8000000000000003,1.6886865317317489e+18,2.8057486572265624,-2.395169258117676,-12.232627868652344,7.856061498324077,1.6886865317231025e+18,2.797102579752604,-1.6191433022419612,-21.768404801686604,10.074780176083246,1.6886865317317489e+18,2.8057486572265624,0.6268099447091421,-9.435022672017416,2.0318041841189065,1.688686531727425e+18,2.8014251953125,-5.56180591583252,-0.1058324120938778,0.26090053617954256,1.6886865317274243e+18,2.8014243570963537,-4.808858508865039,-0.18101972838242844,0.29168816407521564,,,,,,,,,,,,1.6886865317238843e+18,2.7978844238281253,15.569639587402344,41.001759719848636,-17.692439603805543,1.6886865317238843e+18,2.7978844238281253,-239.77635650634767,136.02755737304688,-150.4162399291992,1.6886865317317489e+18,2.8057486572265624,-0.27073223640521366,0.11532609164714809,-0.671575129032135,0.674708237250646,-0.8906018336613973,1.320342739423116,1.449109598994255,1.6886865317231025e+18,2.797102579752604,-1.6251253932714462,-21.7510568300883,10.011968721946081
29,2.9000000000000004,1.6886865318269235e+18,2.9009236328125,3.015450730919838,4.337187576293945,-0.5736871004104614,1.6886865318269228e+18,2.900922648111979,2.6232314755519233,-5.515755335489909,1.8315063814322154,1.6886865318269235e+18,2.9009236328125,-0.4074970331043005,-9.47107105255127,2.451219940185547,1.688686531822598e+18,2.896597941080729,0.9108001018563906,-4.746753791968028,-0.6293439219395319,1.6886865318312517e+18,2.905251668294271,0.5513058950503668,-4.449287921190262,-0.6837872912486395,,,,,,,,,,,,1.6886865318238822e+18,2.897882299804688,22.132019901275633,39.607299423217775,-17.154419803619383,1.6886865318238822e+18,2.897882299804688,-233.21397552490234,134.63309783935546,-149.8782180786133,1.6886865318269235e+18,2.9009236328125,-0.168056808412075,-0.00798585452139374,-0.7200222730636596,0.669367003440857,-1.740658712387085,1.3074494838714599,1.9701638698577881,1.6886865318269228e+18,2.900922648111979,2.617249439160029,-5.498407284418742,1.7686947534481685
30,3.0,1.688686531922094e+18,2.99609423828125,0.5650449941555659,-0.7630405426025391,1.0109890699386597,1.6886865319307456e+18,3.00474560546875,-0.4202394944926104,-10.254042466481527,3.8504504760106406,1.688686531922094e+18,2.99609423828125,-0.3512497575332721,-9.411782582600912,2.7082794507344565,1.6886865319264202e+18,3.0004202067057295,-0.32396220897013944,2.6319128274917603,0.3942371557156245,1.6886865319264205e+18,3.000420458984375,-0.32235358357429506,2.8860634088516237,0.48945577777922156,,,,,,,,,,,,1.688686531923883e+18,2.9978829833984375,23.85587959289551,39.3083984375,-16.322379779815673,1.688686531923883e+18,2.9978829833984375,-231.4901138305664,134.33419647216797,-149.04617614746093,1.688686531922094e+18,2.99609423828125,-0.16834099466602,-0.026346956554334583,-0.7185640533765157,0.6726672748724619,-1.7036150892575581,1.28501558303833,1.9070686101913452,1.6886865319307456e+18,3.00474560546875,-0.4262215184668699,-10.236694812774658,3.7876388231913247
31,3.1,1.6886865320259162e+18,3.099916097005208,-1.5937274098396301,0.2698853810628255,0.1233985026677449,1.6886865320259156e+18,3.099915576171875,-1.5075979232788086,-9.159964561462402,2.939343309402466,1.6886865320259162e+18,3.099916097005208,0.09675407689064737,-9.414199511210123,2.755590478579203,1.6886865320302456e+18,3.1042455647786458,0.03268129019609962,0.6945028901100159,0.06358089468752345,1.688686532021592e+18,3.095592000325521,0.03655010322108861,0.7922158638636271,-0.01404990255832673,,,,,,,,,,,,1.6886865320238848e+18,3.09788486328125,20.212959480285644,39.44259948730469,-19.848179626464844,1.6886865320238848e+18,3.09788486328125,-235.1330368041992,134.46839752197266,-152.5719772338867,1.6886865320259162e+18,3.099916097005208,-0.2276577800512313,0.029089283818999886,-0.7029192845026652,0.6731363733609518,-1.5352025628089905,1.2858152190844219,1.9041230877240498,1.6886865320259156e+18,3.099915576171875,-1.5135799646377563,-9.142616462707519,2.876531744003296
32,3.2,1.688686532129743e+18,3.2037430419921873,-1.1686029434204102,0.1229427655537923,0.25997189680735266,1.688686532121089e+18,3.1950889078776044,-0.8606185466051102,-9.31745195388794,3.0428727865219116,1.688686532129743e+18,3.2037430419921873,0.4013408074776332,-9.403348763783773,2.7657768726348877,1.6886865321254175e+18,3.199417431640625,-0.025045474804937778,-0.3070208735764027,0.2997515749186277,1.6886865321254154e+18,3.1994152018229163,-0.02150754712056367,-0.30039298782746,0.2791654157141844,,,,,,,,,,,,1.688686532123884e+18,3.1978840087890625,18.46469955444336,39.80371856689453,-20.029959869384765,1.688686532123884e+18,3.1978840087890625,-236.88129730224608,134.82952117919922,-152.7537582397461,1.688686532129743e+18,3.2037430419921873,-0.23292328417301175,0.029603177681565233,-0.6917687654495239,0.6828461090723673,-1.4260810613632202,1.2819169958432515,1.8034982283910115,1.688686532121089e+18,3.1950889078776044,-0.8666005929311117,-9.300104141235352,2.980061173439026
33,3.3000000000000003,1.688686532224912e+18,3.2989119628906254,-0.3388433933258056,0.143075942993164,0.40748987197875974,1.6886865322249106e+18,3.2989105631510416,-0.24656043450037637,-9.258927504221598,3.265006502469381,1.688686532224912e+18,3.2989119628906254,0.1115416072309017,-9.397280502319337,2.8099040508270265,1.68868653222059e+18,3.2945899251302087,-0.03260493278503412,-0.5403612156709036,-0.3902665351827939,1.6886865322292398e+18,3.303239827473958,-0.03581197497745351,-0.500985860824585,-0.41683917740980775,,,,,,,,,,,,1.6886865322238828e+18,3.2978826660156253,20.176359558105467,39.59875907897949,-19.410199546813963,1.6886865322238828e+18,3.2978826660156253,-235.1696350097656,134.6245559692383,-152.13399658203124,1.688686532224912e+18,3.2989119628906254,-0.21521115005016328,0.01188234426081176,-0.7028669834136962,0.6778284430503845,-1.5302300691604613,1.2797693967819215,1.8562658548355102,1.6886865322249106e+18,3.2989105631510416,-0.2525424882769584,-9.241579373677572,3.202194929122925
34,3.4000000000000004,1.6886865323200837e+18,3.3940837402343753,0.11995540062586464,-0.010187784830729185,0.15749963124593094,1.6886865323287355e+18,3.4027354329427086,-0.2312064891060193,-9.425926526387533,3.0539395809173584,1.6886865323200837e+18,3.3940837402343753,-0.3728603944182396,-9.38228209813436,2.83784027894338,1.6886865323244111e+18,3.398411092122396,-0.007508552089954417,-0.12749266919369498,-0.406658078233401,1.6886865323244106e+18,3.398410546875,-0.005192355066537879,-0.14034629240632054,-0.4126089334487915,,,,,,,,,,,,1.6886865323238833e+18,3.3978832763671876,22.64319953918457,38.80941925048828,-19.016139602661134,1.6886865323238833e+18,3.3978832763671876,-232.70279693603516,133.83521881103516,-151.73993682861328,1.6886865323200837e+18,3.3940837402343753,-0.20617978771527604,0.005887258254612434,-0.7202989955743154,0.6622542937596639,-1.7004221479098003,1.2745278080304463,2.0048252145449323,1.6886865323287355e+18,3.4027354329427086,-0.23718854784965512,-9.408578554789225,2.9911279678344727
35,3.5,1.688686532423909e+18,3.4979089762369795,-0.13201505442460376,-0.0292690594991048,0.016101280848185216,1.6886865324325568e+18,3.5065565185546874,-0.6821538507938385,-9.412965297698975,2.9300113121668496,1.688686532423909e+18,3.4979089762369795,-0.510421504577001,-9.37586259841919,2.8401558796564736,1.6886865324282365e+18,3.502236531575521,0.0223729397791127,0.25302547713120777,0.07518733292818068,1.6886865324195807e+18,3.4935807698567705,0.01588249645040678,0.2676353392501672,0.030466903621951747,,,,,,,,,,,,1.688686532423884e+18,3.497883984375,23.588699722290038,38.343379211425784,-19.277219772338867,1.688686532423884e+18,3.497883984375,-231.75729675292968,133.36917877197266,-152.00101776123046,1.688686532423909e+18,3.4979089762369795,-0.21125432600577668,0.012890149994442816,-0.7250698804855347,0.6553313136100769,-1.7478461662928264,1.2723035613695781,2.0697884956995645,1.6886865324325568e+18,3.5065565185546874,-0.6881359045704206,-9.395617485046387,2.867199738820394
36,3.6,1.68868653252773e+18,3.6017298990885416,-0.29012515395879745,0.23426246643066403,0.6628902753194174,1.6886865325277332e+18,3.6017332519531253,-0.46959144473075864,-9.162835693359375,3.563750410079956,1.68868653252773e+18,3.6017298990885416,-0.21931036065022147,-9.395425796508789,2.8113133112589517,1.688686532532055e+18,3.606054931640625,0.04118249813715612,0.45514551053444546,0.22451843072970704,1.6886865325234063e+18,3.5974064941406247,0.04426227789372202,0.3976987302303314,0.24951300024986264,,,,,,,,,,,,1.6886865325238843e+18,3.5978843505859373,21.878259658813477,38.916779327392575,-19.478519439697266,1.6886865325238843e+18,3.5978843505859373,-233.46773376464844,133.9425796508789,-152.2023162841797,1.68868653252773e+18,3.6017298990885416,-0.21942485123872754,0.0203678871815403,-0.7145709494749705,0.6639002859592438,-1.647688090801239,1.2791489760080974,1.9921511212984722,1.6886865325277332e+18,3.6017332519531253,-0.47557349801063536,-9.145487785339355,3.5009387969970702
37,3.7,1.688686532631554e+18,3.7055541992187497,-1.1775646011034648,0.1398650805155436,0.2591715256373087,1.6886865326229025e+18,3.6969027913411456,-1.0663015842437744,-9.249156951904297,3.1952157815297446,1.688686532631554e+18,3.7055541992187497,0.045197615477566865,-9.398037592569986,2.812240242958069,1.6886865326272312e+18,3.7012313476562495,-0.011728612566366741,0.5422956198453903,0.0395535242045298,1.6886865326272338e+18,3.7012336425781247,-0.013006338927273898,0.5195154417306185,0.05324708782912537,,,,,,,,,,,,1.6886865326238845e+18,3.6978845458984373,19.824999618530274,39.249839782714844,-20.7070592880249,1.6886865326238845e+18,3.6978845458984373,-235.5209945678711,134.2756378173828,-153.4308609008789,1.688686532631554e+18,3.7055541992187497,-0.24191575994094208,0.040627641603350584,-0.7041946152846018,0.6662476062774658,-1.5538307229677837,1.280080219109853,1.9604725042978923,1.6886865326229025e+18,3.6969027913411456,-1.0722836256027222,-9.23180882136027,3.1324042479197183
38,3.8000000000000003,1.6886865327267254e+18,3.8007255371093747,-1.0251597046852112,0.01816158294677734,0.09833536148071291,1.6886865327267284e+18,3.8007282714843753,-0.8952147463957468,-9.374480883280436,3.013660430908203,1.6886865327267254e+18,3.8007255371093747,0.12439799904823298,-9.387580299377442,2.8449606895446777,1.6886865327223964e+18,3.7963966878255206,-0.02519819122971965,-0.5372559813161691,0.17396933337052659,1.688686532731055e+18,3.8050549723307294,-0.018758653818319215,-0.5785657415787379,0.16312647393594182,,,,,,,,,,,,1.6886865327238828e+18,3.7978827148437504,19.34919967651367,39.347439193725585,-20.65581932067871,1.6886865327238828e+18,3.7978827148437504,-235.99679565429688,134.37323913574218,-153.3796173095703,1.6886865327267254e+18,3.8007255371093747,-0.23869077861309046,0.03363307937979694,-0.7016664862632751,0.6704382300376892,-1.5260189533233643,1.2763896942138673,1.9178690195083619,1.6886865327267284e+18,3.8007282714843753,-0.9011968473593394,-9.357133070627848,2.9508488178253174
39,3.9000000000000004,1.688686532821898e+18,3.895897705078125,-0.3153304358323415,0.13003047307332352,0.38777995109558105,1.6886865328305518e+18,3.9045517171223962,-0.3641078422466914,-9.285846710205078,3.2815568447113037,1.688686532821898e+18,3.895897705078125,-0.05562047163645425,-9.389698505401611,2.8383676608403525,1.6886865328262239e+18,3.900223958333333,0.024256441082494917,-0.39729147652784985,-0.2179261765753229,1.688686532826224e+18,3.900224365234375,0.02309070616029196,-0.3886324644088745,-0.22907446324825287,,,,,,,,,,,,1.6886865328238822e+18,3.89788212890625,20.890060043334962,39.342559051513675,-19.81401958465576,1.6886865328238822e+18,3.89788212890625,-234.4559356689453,134.36835632324218,-152.5378173828125,1.688686532821898e+18,3.895897705078125,-0.21959555645783738,0.016437163886924535,-0.7087854345639547,0.670136958360672,-1.589290161927541,1.277144432067871,1.928348223368327,1.6886865328305518e+18,3.9045517171223962,-0.3700899084409078,-9.268498738606771,3.2187452713648477
40,4.0,1.6886865329257196e+18,3.999719604492187,0.06497326989968617,0.1360381444295247,0.3439877430597941,1.6886865329257231e+18,3.9997232421874997,-0.3042473971843719,-9.26357364654541,3.2287551879882814,1.6886865329257196e+18,3.999719604492187,-0.3847775955994924,-9.38822873433431,2.8186503648757935,1.6886865329300498e+18,4.004049763997396,0.026852617971599047,-0.08081238095959024,-0.19876028224825856,1.688686532921397e+18,3.99539697265625,0.02613994184260562,-0.11084658792242404,-0.2176971063017845,,,,,,,,,,,,1.6886865329238817e+18,3.9978817871093755,22.579759407043458,38.81795959472656,-19.388239479064943,1.6886865329238817e+18,3.9978817871093755,-232.7662338256836,133.84375610351563,-152.1120376586914,1.6886865329257196e+18,3.999719604492187,-0.2097470015287399,0.011411039624363134,-0.7206297119458517,0.6607243120670319,-1.7053618828455608,1.276659607887268,2.022871990998586,1.6886865329257231e+18,3.9997232421874997,-0.3102294564247131,-9.246225738525391,3.1659435749053957
41,4.1000000000000005,1.6886865330295447e+18,4.103544514973958,-0.1649163911739985,0.0631321271260579,0.11381868521372475,1.688686533020894e+18,4.094893758138021,-0.5119643360376358,-9.327821095784506,3.0330023765563965,1.6886865330295447e+18,4.103544514973958,-0.38280426462491346,-9.38601048787435,2.826486349105835,1.688686533025221e+18,4.0992212402343755,-0.0294131621718406,0.2113593727350235,0.11539244595915074,1.6886865330252209e+18,4.0992209879557295,-0.028939741314388784,0.20840686062971747,0.11194105787823595,,,,,,,,,,,,1.6886865330238817e+18,4.09788193359375,22.471179389953612,38.61543846130371,-19.338219451904298,1.6886865330238817e+18,4.09788193359375,-232.87481689453125,133.6412353515625,-152.06201782226563,1.6886865330295447e+18,4.103544514973958,-0.21390210588773087,0.015319519210606767,-0.7204888661702474,0.6594640016555786,-1.7043647170066833,1.2758840719858806,2.0335756142934165,1.688686533020894e+18,4.094893758138021,-0.517946407198906,-9.31047280629476,2.9701908032099404
42,4.2,1.6886865331247153e+18,4.198715234374999,-0.5356873214244843,0.03186206817626952,-0.10092520713806148,1.6886865331247186e+18,4.198718465169271,-0.7075776060422262,-9.372387091318766,2.8422744274139404,1.6886865331247153e+18,4.198715234374999,-0.17269143909215923,-9.37962589263916,2.8681094646453857,1.688686533120388e+18,4.194388142903645,-0.033317607982704965,0.14273884644110996,0.19252436608076093,1.6886865331290468e+18,4.203046752929688,-0.029754227531763367,0.14429146051406858,0.18476128329833344,,,,,,,,,,,,1.688686533123883e+18,4.197883032226562,21.206039428710938,38.964359283447266,-19.628579711914064,1.688686533123883e+18,4.197883032226562,-234.13995361328125,133.9901596069336,-152.35237579345704,1.6886865331247153e+18,4.198715234374999,-0.2210846245288848,0.01729079782962796,-0.7129727482795716,0.665194857120514,-1.629840111732483,1.2736382722854613,1.9723820209503173,1.6886865331247186e+18,4.198718465169271,-0.7135596573352814,-9.355039119720459,2.7794628938039145
43,4.3,1.688686533219887e+18,4.293886962890625,-0.6542831361293793,0.0847662289937337,0.19911507765452063,1.6886865332285391e+18,4.302539225260417,-0.7465606530507406,-9.300901571909586,3.1578279733657837,1.688686533219887e+18,4.293886962890625,-0.08755523835619289,-9.38222106297811,2.863921801249186,1.6886865332242138e+18,4.298213745117187,0.03148501273244613,0.09840021065125859,-0.05785403043652574,1.6886865332242166e+18,4.2982166992187505,0.032834006845951044,0.1086423829197883,-0.06218608282506464,,,,,,,,,,,,1.688686533223882e+18,4.297881884765625,20.852239418029786,39.26813926696777,-20.01653938293457,1.688686533223882e+18,4.297881884765625,-234.4937530517578,134.29393768310547,-152.74033966064454,1.688686533219887e+18,4.293886962890625,-0.2250310083230336,0.020730931311845748,-0.709826817115148,0.6671379109223684,-1.6001809636751811,1.274542470773061,1.9534230430920918,1.6886865332285391e+18,4.302539225260417,-0.7525427242120107,-9.283553600311278,3.095016360282898
44,4.4,1.6886865333237092e+18,4.397709106445313,-0.500771701335907,0.16643397013346348,0.382113774617513,1.688686533332362e+18,4.40636181640625,-0.6845466792583466,-9.24038314819336,3.287838021914164,1.6886865333237092e+18,4.397709106445313,-0.21424715717633566,-9.384526888529459,2.849318027496338,1.6886865333280366e+18,4.4020363769531246,-0.010002918696651835,-0.21092667741080126,-0.09066258464008566,1.688686533319384e+18,4.393384114583333,-0.004301509548289066,-0.18135062104556707,-0.09715302723149453,,,,,,,,,,,,1.688686533323882e+18,4.397881884765625,21.268259620666505,39.047318649291995,-19.970179176330568,1.688686533323882e+18,4.397881884765625,-234.0777374267578,134.0731185913086,-152.69397583007813,1.6886865333237092e+18,4.397709106445313,-0.22271493077278134,0.021010325911144382,-0.714342455069224,0.663066585858663,-1.644573966662089,1.2753711740175884,1.994837502638499,1.688686533332362e+18,4.40636181640625,-0.6905287504196167,-9.223035335540771,3.2250264485677085
45,4.5,1.6886865334275348e+18,4.501534790039062,-0.1183349639177322,0.04948965708414708,0.14715170860290525,1.6886865334275364e+18,4.50153623046875,-0.42077786922454835,-9.338828086853027,3.0789644718170166,1.6886865334275348e+18,4.501534790039062,-0.31602574388186133,-9.373066107432047,2.877799391746521,1.6886865334318633e+18,4.50586348470052,-0.02743803007372962,-0.14276430103927848,0.02346740713498242,1.6886865334232056e+18,4.497205851236979,-0.032655837868029815,-0.16551903336464113,0.019293161109089834,,,,,,,,,,,,1.6886865334238853e+18,4.49788525390625,22.111279487609863,38.76671867370605,-19.507799339294433,1.6886865334238853e+18,4.49788525390625,-233.234716796875,133.79251556396486,-152.23159790039062,1.6886865334275348e+18,4.501534790039062,-0.21523438642422354,0.012034760167201316,-0.7181704839070638,0.6616305410861969,-1.6789343357086182,1.271394431591034,2.0054255723953247,1.6886865334275364e+18,4.50153623046875,-0.42675991654396056,-9.321479797363281,3.0161529541015626
46,4.6000000000000005,1.68868653353136e+18,4.605359985351562,-0.34223081171512604,0.11048936843872066,0.16698431968688962,1.6886865335227092e+18,4.596709228515625,-0.578464870651563,-9.30329449971517,3.097409208615621,1.68868653353136e+18,4.605359985351562,-0.266905628144741,-9.374743779500326,2.8772090673446655,1.6886865335270344e+18,4.601034326171876,0.024037547223269878,0.14776830375194547,0.05241223797202106,1.6886865335270351e+18,4.601035034179687,0.020413080152744983,0.14385876432061193,0.05457062833011147,,,,,,,,,,,,1.6886865335238828e+18,4.5978828613281255,21.584239196777343,38.99241905212402,-19.480959320068358,1.6886865335238828e+18,4.5978828613281255,-233.76175537109376,134.01821746826172,-152.2047576904297,1.68868653353136e+18,4.605359985351562,-0.21625477323929465,0.012582597633202833,-0.716415653626124,0.6631877521673838,-1.6620280146598816,1.2719692786534627,1.9907782673835754,1.6886865335227092e+18,4.596709228515625,-0.5844469318787257,-9.285946369171143,3.0345975955327353
47,4.7,1.688686533626532e+18,4.7005320800781245,-0.6288593053817749,0.1177127838134765,0.11275095939636226,1.6886865336265285e+18,4.700528564453125,-0.835593601067861,-9.262516657511393,3.0577282508214316,1.688686533626532e+18,4.7005320800781245,-0.22129420042037964,-9.372874450683593,2.887255001068115,1.6886865336222047e+18,4.696204793294271,-0.03400483226869252,-0.03711006398467969,0.0186059375603993,1.688686533630859e+18,4.704858927408854,-0.040520728720972884,-0.07218391075730322,0.016060665793095983,,,,,,,,,,,,1.6886865336238843e+18,4.697884228515624,21.304859733581544,39.11075897216797,-19.715199851989745,1.6886865336238843e+18,4.697884228515624,-234.0411361694336,134.13655853271484,-152.43899688720703,1.688686533626532e+18,4.7005320800781245,-0.21930872797966,0.014551206491887538,-0.7147520899772644,0.6639427781105042,-1.6460012674331665,1.2713258266448975,1.9820507049560547,1.6886865336265285e+18,4.700528564453125,-0.8415756722291311,-9.245168685913086,2.9949166774749756
48,4.800000000000001,1.6886865337217027e+18,4.7957028401692705,-0.24294515947500864,0.047777334849039704,0.23702073097229,1.6886865337303542e+18,4.804354207356771,-0.4913262476523717,-9.31974506378174,3.2597223917643228,1.6886865337217027e+18,4.7957028401692705,-0.30487520496050513,-9.362380663553873,2.9133541584014893,1.688686533726028e+18,4.800027954101562,-0.0008908455880979847,-0.24292075013120965,-0.04533129169916108,1.6886865337260296e+18,4.800029638671875,0.0002748891245573801,-0.2682309333235025,-0.039187005348503515,,,,,,,,,,,,1.688686533723884e+18,4.797884228515625,21.76357955932617,38.96313972473145,-19.18083934783936,1.688686533723884e+18,4.797884228515625,-233.5824172973633,133.9889389038086,-151.9046371459961,1.6886865337217027e+18,4.7957028401692705,-0.2120514313379923,0.00571626750752325,-0.7178407808144888,0.6630889077981313,-1.6737590034802754,1.2677266597747803,1.9865756034851074,1.6886865337303542e+18,4.804354207356771,-0.4973083088795344,-9.302397251129149,3.196910818417867
49,4.9,1.688686533825528e+18,4.899528238932292,-0.22924688458442688,0.225287119547526,0.6147722800572714,1.6886865338255283e+18,4.89952822265625,-0.5826523005962372,-9.147402000427245,3.5928232192993166,1.688686533825528e+18,4.899528238932292,-0.37271109223365784,-9.365712801615397,2.894924839337667,1.6886865338298552e+18,4.903855346679688,0.0307214312876264,0.47174068291982013,-0.151189145942529,1.688686533821199e+18,4.895198893229167,0.03593923881029087,0.4515566925207774,-0.15218180169661835,,,,,,,,,,,,1.6886865338238807e+18,4.897880688476563,22.238159370422363,38.77647933959961,-19.600519561767577,1.6886865338238807e+18,4.897880688476563,-233.1078369140625,133.80227661132812,-152.3243179321289,1.688686533825528e+18,4.899528238932292,-0.21650452911853788,0.012811128903801218,-0.7201376159985861,0.6590137283007304,-1.6975640654563904,1.2688823541005452,2.0270952781041465,1.6886865338255283e+18,4.89952822265625,-0.5886343717575073,-9.130054092407226,3.530011606216431
50,5.0,1.6886865339293437e+18,5.00334375,-0.660139391819636,0.029896418253580734,0.005946715672810905,1.688686533920697e+18,4.994697021484375,-1.0118648608525593,-9.323434034983316,3.0417760213216147,1.6886865339293437e+18,5.00334375,-0.34072204927603406,-9.35317357381185,2.9389445781707764,1.6886865339250273e+18,4.999027490234375,-0.07483099251985545,-0.09074403047561644,0.10406089611351488,1.6886865339250204e+18,4.9990205078125,-0.0744746550917625,-0.0686205296466748,0.10104729204128182,,,,,,,,,,,,1.6886865339238812e+18,4.997881250000001,21.6781795501709,38.60811920166016,-20.17513961791992,1.6886865339238812e+18,4.997881250000001,-233.66781463623047,133.63392028808593,-152.89893798828126,1.6886865339293437e+18,5.00334375,-0.22693774849176404,0.020432673394679964,-0.7188419302304586,0.6567597885926565,-1.6849700609842937,1.2646321853001912,2.040820002555847,1.688686533920697e+18,4.994697021484375,-1.017846941947937,-9.306086222330729,2.978964408238729
51,5.1000000000000005,1.688686534024518e+18,5.098517919921875,-0.21784549355506894,-0.004751205444335919,0.08320441246032714,1.688686534024523e+18,5.098523030598959,-0.5175475925207138,-9.36271619796753,3.124527851740519,1.688686534024518e+18,5.098517919921875,-0.29097185134887693,-9.345405387878419,2.9689650535583496,1.6886865340201956e+18,5.094195719401042,0.006948591365168499,-0.17547104105809316,0.08905906230211257,1.6886865340288479e+18,5.1028478190104165,0.019165897586693334,-0.12174035360415776,0.06345362712939578,,,,,,,,,,,,1.6886865340238822e+18,5.09788232421875,21.977079391479492,38.83625946044922,-19.77375946044922,1.6886865340238822e+18,5.09788232421875,-233.3689163208008,133.8620590209961,-152.4975570678711,1.688686534024518e+18,5.098517919921875,-0.21937349438667292,0.00923685058951376,-0.7173110961914062,0.6612489342689514,-1.6671704053878784,1.2619966745376587,1.9958448171615601,1.688686534024523e+18,5.098523030598959,-0.5235296487808228,-9.345368226369223,3.0617162386576333
52,5.2,1.6886865341196874e+18,5.193687662760417,-0.45389830072720844,0.20070934295654294,0.4688040415445964,1.688686534128342e+18,5.202341918945312,-0.8106683790683746,-9.168598492940268,3.4543385903040567,1.6886865341196874e+18,5.193687662760417,-0.32752136886119837,-9.358383496602377,2.9238441785176597,1.6886865341240205e+18,5.198020426432292,0.05762495570039993,0.2135992165034016,-0.13505212465922034,1.6886865341326692e+18,5.206669026692708,0.0490728418032328,0.19756400150557354,-0.1244128874192635,,,,,,,,,,,,1.6886865341238833e+18,5.197883422851563,21.93193950653076,38.83259925842285,-19.37725963592529,1.6886865341238833e+18,5.197883422851563,-233.41405639648437,133.8583953857422,-152.10105743408204,1.6886865341196874e+18,5.193687662760417,-0.2219483728210131,0.015969466728468665,-0.718482106924057,0.6589749654134115,-1.6810470620791118,1.2663907408714294,2.0231162905693054,1.688686534128342e+18,5.202341918945312,-0.8166504303614298,-9.151250521341959,3.391526977221171
53,5.300000000000001,1.6886865342235128e+18,5.297513020833333,-0.3949586848417918,0.08122046788533528,0.1273064613342285,1.6886865342321654e+18,5.306165201822917,-0.7209375401337942,-9.310074170430502,3.0916265646616616,1.6886865342235128e+18,5.297513020833333,-0.3607381333907445,-9.354647159576416,2.931941787401835,1.6886865342278408e+18,5.301840657552083,-0.05271257956822709,-0.20323995749155677,0.09203703116509128,1.6886865342278397e+18,5.3018398925781245,-0.056413405388593615,-0.21050416231155394,0.10280861929059024,,,,,,,,,,,,1.688686534223878e+18,5.297877954101563,21.897779655456542,38.84967956542969,-19.795719718933107,1.688686534223878e+18,5.297877954101563,-233.44821472167968,133.87547760009767,-152.51951446533204,1.6886865342235128e+18,5.297513020833333,-0.22223706295092896,0.016084420184294332,-0.7196557919184366,0.6575967172781626,-1.6918890873591106,1.2651331027348836,2.034577250480652,1.6886865342321654e+18,5.306165201822917,-0.7269195814927419,-9.292726039886475,3.028814991315206
54,5.4,1.6886865343273418e+18,5.401341552734375,-0.29865287741025287,-0.03839413324991862,-0.1786792675654093,1.688686534327339e+18,5.4013388671875,-0.6276373863220215,-9.418149757385255,2.8366912841796874,1.6886865343273418e+18,5.401341552734375,-0.32852943738301593,-9.34550142288208,2.9647469520568848,1.6886865343316654e+18,5.405665323893229,-0.005090544233098633,-0.12316570430994028,0.06050111105044682,1.6886865343230157e+18,5.397015869140625,-0.015220725365603949,-0.13281228517492608,0.07470372878015037,,,,,,,,,,,,1.688686534323885e+18,5.397885131835937,21.797739601135255,38.90091972351074,-19.68469944000244,1.688686534323885e+18,5.397885131835937,-233.54825286865236,133.92671813964844,-152.40849609375,1.6886865343273418e+18,5.401341552734375,-0.21637962013483045,0.00676319461005425,-0.718667189280192,0.6607932647069296,-1.6798097491264343,1.2620351711908977,2.000553290049235,1.688686534327339e+18,5.4013388671875,-0.6336194396018981,-9.40080223083496,2.7738796710968017
55,5.5,1.6886865344311642e+18,5.505163981119792,-0.22978094220161435,0.12151543299357093,0.3151750564575195,1.6886865344225108e+18,5.4965107421875,-0.5862415631612142,-9.267501990000406,3.2435707648595176,1.6886865344311642e+18,5.505163981119792,-0.3578200936317444,-9.359947363535563,2.9152597188949585,1.6886865344268362e+18,5.5008362304687495,0.08191702961921683,0.029138271464034898,-0.06319401040673253,1.6886865344268372e+18,5.500837443033855,0.0788270694514115,0.0316122768757244,-0.05798129333804047,,,,,,,,,,,,1.6886865344238833e+18,5.497883203125,21.83067932128906,38.96679916381836,-19.410199546813963,1.6886865344238833e+18,5.497883203125,-233.51531372070312,133.9925964355469,-152.13399505615234,1.6886865344311642e+18,5.505163981119792,-0.21298533429702118,0.007219959283247534,-0.7197002172470093,0.6607675155003866,-1.6916014552116394,1.266924540201823,2.0079657832781472,1.6886865344225108e+18,5.4965107421875,-0.592223604520162,-9.25015385945638,3.180759151776632
56,5.6000000000000005,1.6886865345263334e+18,5.6003334472656245,-0.2607510268688201,0.25464515686035155,0.5671573162078858,1.6886865345263342e+18,5.600334309895833,-0.6382854282855988,-9.13639497756958,3.4853456020355225,1.6886865345263334e+18,5.6003334472656245,-0.37919300198554995,-9.370544624328613,2.878392219543457,1.6886865345220106e+18,5.596010579427084,0.020005836461981102,0.15785775954524672,-0.02300925731348495,1.6886865345306624e+18,5.604662556966146,0.007788531094168616,0.16450091948111847,-0.0059559351454178166,,,,,,,,,,,,1.6886865345238815e+18,5.5978816162109375,21.911199188232423,38.76427955627442,-19.212559509277344,1.6886865345238815e+18,5.5978816162109375,-233.43479614257814,133.79007568359376,-151.9363586425781,1.6886865345263334e+18,5.6003334472656245,-0.21556699275970453,0.013131290487945018,-0.7203734159469605,0.6591026067733765,-1.70040864944458,1.2705567121505736,2.0289926528930664,1.6886865345263342e+18,5.600334309895833,-0.6442675093809763,-9.119047164916992,3.4225340286890664
57,5.7,1.6886865346215027e+18,5.695502766927084,-0.45217180748780567,0.07712793350219722,0.12624700864156085,1.6886865346301553e+18,5.704155354817709,-0.7430711289246877,-9.309874534606934,3.077867865562439,1.6886865346215027e+18,5.695502766927084,-0.3064163376887639,-9.359527587890625,2.9224329789479575,1.688686534625831e+18,5.699830973307292,-0.05859215805927909,0.008043059768776117,0.08608109566072619,1.6886865346258335e+18,5.6998333984375,-0.0619111910462379,0.0034819316118955613,0.09358455538749688,,,,,,,,,,,,1.6886865346238853e+18,5.697885278320312,21.73673915863037,38.86797943115234,-19.915279579162597,1.6886865346238853e+18,5.697885278320312,-233.6092559814453,133.8937774658203,-152.63907623291016,1.6886865346215027e+18,5.695502766927084,-0.22021085023880002,0.013911135494708966,-0.7177787721157074,0.6603822410106659,-1.6739250818888347,1.266782522201538,2.0104720195134482,1.6886865346301553e+18,5.704155354817709,-0.7490531702836355,-9.292526880900065,3.0150562524795532
58,5.800000000000001,1.6886865347253217e+18,5.799321736653646,-0.3750426818927129,-0.000919342041015618,-0.05562082926432288,1.6886865347253253e+18,5.799325244140626,-0.6990631461143494,-9.371848678588867,2.9564520359039306,1.6886865347253217e+18,5.799321736653646,-0.3181416541337967,-9.348379929860434,2.9566437005996704,1.6886865347296484e+18,5.803648356119791,-0.0048360164510086,-0.0498618753626942,-0.07971791472906863,1.6886865347209997e+18,5.7949997965494795,-0.011555533856153467,-0.0422515130291382,-0.06500624213367699,1.688686534771e+18,5.845,0.0,0.0,0.9007310271263124,12.696999549865724,0.0326058231294155,0.0,40.30000305175781,-122.7532015,49.1903871,1.6886865347238776e+18,5.797877661132812,21.36341953277588,38.928979110717776,-19.97505989074707,1.6886865347238776e+18,5.797877661132812,-233.98257751464843,133.95477752685548,-152.69885711669923,1.6886865347253217e+18,5.799321736653646,-0.22016097108523047,0.011374962671349416,-0.7182395060857137,0.6599463621775309,-1.676606794198354,1.2630077997843425,2.009499112764994,1.6886865347253253e+18,5.799325244140626,-0.705045199394226,-9.354500770568848,2.893640470504761
59,5.9,1.688686534829153e+18,5.903152954101562,-0.10822385052839911,0.11978483200073237,0.2981019814809163,1.6886865348204997e+18,5.894499959309896,-0.544267455736796,-9.258229414621988,3.273381312688192,1.688686534829153e+18,5.903152954101562,-0.43660546839237213,-9.349642276763916,2.937517245610555,1.6886865348248264e+18,5.89882626953125,0.03026837296783918,-0.0061697389930486625,-0.09676105529069898,1.6886865348248282e+18,5.898828206380209,0.02781982161104675,0.002214386438330001,-0.0901026225959261,,,,,,,,,,,,1.688686534823882e+18,5.897882006835937,21.917299270629883,38.73011932373047,-19.79205951690674,1.688686534823882e+18,5.897882006835937,-233.42869567871094,133.75591735839845,-152.51585845947267,1.688686534829153e+18,5.903152954101562,-0.21789277841647461,0.0118338063669701,-0.722423921028773,0.6561129887898763,-1.7170162200927734,1.2634470860163372,2.047271807988485,1.6886865348204997e+18,5.894499959309896,-0.5502494970957438,-9.240881919860842,3.2105698188145957
