seconds_elapsed_rounded,accelerometer_time,accelerometer_seconds_elapsed,accelerometer_z,accelerometer_y,accelerometer_x,accelerometeruncalibrated_time,accelerometeruncalibrated_seconds_elapsed,accelerometeruncalibrated_z,accelerometeruncalibrated_y,accelerometeruncalibrated_x,gravity_time,gravity_seconds_elapsed,gravity_z,gravity_y,gravity_x,gyroscope_time,gyroscope_seconds_elapsed,gyroscope_z,gyroscope_y,gyroscope_x,gyroscopeuncalibrated_time,gyroscopeuncalibrated_seconds_elapsed,gyroscopeuncalibrated_z,gyroscopeuncalibrated_y,gyroscopeuncalibrated_x,location_time,location_seconds_elapsed,location_bearingAccuracy,location_speedAccuracy,location_verticalAccuracy,location_horizontalAccuracy,location_speed,location_bearing,location_altitude,location_longitude,location_latitude,magnetometer_time,magnetometer_seconds_elapsed,magnetometer_z,magnetometer_y,magnetometer_x,magnetometeruncalibrated_time,magnetometeruncalibrated_seconds_elapsed,magnetometeruncalibrated_z,magnetometeruncalibrated_y,magnetometeruncalibrated_x,orientation_time,orientation_seconds_elapsed,orientation_qz,orientation_qy,orientation_qx,orientation_qw,orientation_roll,orientation_pitch,orientation_yaw
0.0,1.6886862925166144e+18,89.99261450195313,-0.4959771037101745,0.111276626586914,-0.1233378251393635,1.688686292525268e+18,90.00126798502605,-1.3846466938654582,-9.623334566752115,-0.6885347366333008,1.6886862925166144e+18,89.99261450195313,-0.8592214783032736,-9.752400716145834,-0.6232980291048685,1.6886862925295951e+18,90.00559521484375,0.1595376382271448,1.5150985320409138,0.0826704303423563,1.6886862925295951e+18,90.00559521484375,0.1585195312897364,1.5196799834569297,0.0851647953192392,,,,,,,,,,,,1.6886862925238477e+18,89.99984765625,-12.785599708557127,41.28235931396485,7.40295991897583,1.6886862925238477e+18,89.99984765625,-268.131591796875,136.30815734863282,-125.32083892822266,1.6886862925166144e+18,89.99261450195313,0.6736840804417928,-0.7306718826293945,-0.0992159495751062,0.048005645473798,2.5140610535939536,1.4623831113179524,0.8364336689313253
0.05,1.6886862925685258e+18,90.04452587890626,-0.4008677204449971,0.1948582331339518,-0.291047712167104,1.68868629257718e+18,90.05318001302084,-1.2662019729614258,-9.611170768737791,-0.9050851662953696,1.6886862925685258e+18,90.04452587890626,-0.8763647278149923,-9.750439008076986,-0.630064845085144,1.6886862925815094e+18,90.05750952148436,0.0932078560193379,1.321250597635905,0.02448551558579,1.6886862925815094e+18,90.05750952148436,0.0922406514485676,1.3258321285247805,0.0269798818044363,,,,,,,,,,,,1.688686292573849e+18,90.0498490234375,-12.583079719543456,40.948079681396486,8.654679870605468,1.688686292573849e+18,90.0498490234375,-267.92906494140624,135.973876953125,-124.0691177368164,1.6886862925685258e+18,90.04452587890626,0.6707738041877747,-0.7269371946652731,-0.1271882429718971,0.0731865788499514,2.5182205041249595,1.4605544805526731,0.9081518650054932
0.1,1.6886862926204403e+18,90.09644010416666,-0.2613386511802673,0.0491034189860025,-0.4656985799471537,1.6886862926290957e+18,90.10509594726562,-1.2095718383789062,-9.696514765421549,-1.0376874208450315,1.6886862926204403e+18,90.09644010416666,-0.912404239177704,-9.747654914855955,-0.6219145258267721,1.6886862926247698e+18,90.10076977539065,0.0975857228040694,1.2421944737434387,0.0219911490567028,1.6886862926247698e+18,90.10076977539065,0.0965167097747325,1.2467759251594543,0.0244346107356249,,,,,,,,,,,,1.688686292623843e+18,90.09984311523438,-11.838879776000976,40.92123947143555,9.718519973754884,1.688686292623843e+18,90.09984311523438,-267.18488159179685,135.94703979492186,-123.00527801513672,1.6886862926204403e+18,90.09644010416666,0.6665854652722677,-0.7235851685206095,-0.1512676974137623,0.0955451478560765,2.543256600697835,1.4580073356628418,0.9497591455777488
0.15,1.6886862926723543e+18,90.14835408528648,-0.3459249933560689,0.1462876001993814,-0.5562696059544882,1.688686292681004e+18,90.15700398763022,-1.2171490987141926,-9.652846336364746,-1.133400321006775,1.6886862926723543e+18,90.14835408528648,-0.9396823048591614,-9.744938850402832,-0.6238660017649332,1.688686292668033e+18,90.14403312174478,0.1040507132808367,1.094314177831014,0.0228056358949591,1.688686292668033e+18,90.14403312174478,0.1029816965262094,1.0988956689834597,0.0253000015509314,,,,,,,,,,,,1.688686292673851e+18,90.14985078125,-11.409439659118652,40.81631927490234,10.818959808349607,1.688686292673851e+18,90.14985078125,-266.75543212890625,135.8421173095703,-121.90483703613282,1.6886862926723543e+18,90.14835408528648,0.6623977025349935,-0.7195849617322286,-0.1733630001544952,0.1153959458072979,2.555441697438558,1.4555753469467163,0.9981165130933126
0.2,1.688686292724272e+18,90.20027189127605,-0.1055128971735635,-0.0867487589518229,-0.4113139708836873,1.688686292724272e+18,90.20027185058592,-1.0546365976333618,-9.856934070587158,-1.009771168231964,1.688686292724272e+18,90.20027189127605,-0.9798949559529624,-9.739619572957356,-0.6445942521095276,1.688686292719948e+18,90.19594799804686,0.1579086656371751,1.0640254418055215,-0.0115046290059884,1.688686292719948e+18,90.19594799804686,0.1568905611832936,1.068606932957967,-0.0090102626321216,,,,,,,,,,,,1.6886862927238446e+18,90.19984477539064,-10.740879821777344,40.3478385925293,11.70955982208252,1.6886862927238446e+18,90.19984477539064,-266.0868713378906,135.3736358642578,-121.0142379760742,1.688686292724272e+18,90.20027189127605,0.6576556166013082,-0.7157172362009684,-0.1940363148848215,0.1323898434638976,2.559739430745443,1.4509567022323608,1.048558473587036
0.25,1.688686292776186e+18,90.25218627929688,-0.0310554107030232,-0.027231216430664,-0.1073876420656839,1.688686292767527e+18,90.24352701822916,-1.0554341872533162,-9.76411215464274,-0.7736793160438538,1.688686292776186e+18,90.25218627929688,-1.017662525177002,-9.73233731587728,-0.6940837502479553,1.6886862927718618e+18,90.24786189778644,0.2238821138938267,1.1651236613591511,0.0067195178320009,1.6886862927718618e+18,90.24786189778644,0.2229149093230565,1.1697051127751668,0.0091629785796005,,,,,,,,,,,,1.6886862927738496e+18,90.249849609375,-9.977159690856933,40.13311920166016,12.761199760437012,1.6886862927738496e+18,90.249849609375,-265.3231567382812,135.15891723632814,-119.9625961303711,1.688686292776186e+18,90.25218627929688,0.6524105469385783,-0.7103111743927002,-0.2174316694339116,0.1499018271764119,2.543061097462972,1.4449033339818318,1.125133991241455
0.3,1.6886862928281006e+18,90.30410083007814,-0.0770845413208008,0.0449161529541015,0.110866367816925,1.688686292819448e+18,90.2954482421875,-1.070189913113912,-9.778070449829102,-0.5790630678335825,1.6886862928281006e+18,90.30410083007814,-1.0424209833145142,-9.72552172342936,-0.750622828801473,1.688686292823776e+18,90.29977579752604,0.2486221442619959,1.2051353057225545,0.0704531259834765,1.688686292823776e+18,90.29977579752604,0.2476040472586949,1.2096658945083618,0.0729983982940514,,,,,,,,,,,,1.6886862928238523e+18,90.29985239257812,-9.25979995727539,40.00379867553711,14.000719833374024,1.6886862928238523e+18,90.29985239257812,-264.6057922363281,135.02959899902345,-118.72307739257812,1.6886862928281006e+18,90.30410083007814,0.6470011671384176,-0.7032897075017294,-0.241782675186793,0.1680370271205902,2.5175580978393555,1.4394782384236653,1.2133743365605671
0.35,1.68868629288001e+18,90.356009765625,-0.2852634986241658,0.2969894409179687,0.1029688914616902,1.6886862928713592e+18,90.347359375,-1.3260225852330525,-9.408977190653482,-0.5784648855527242,1.68868629288001e+18,90.356009765625,-1.0400247971216838,-9.723158200581867,-0.7840015292167664,1.68868629287569e+18,90.35168986002604,0.143400619427363,1.100575566291809,0.0937678130964437,1.68868629287569e+18,90.35168986002604,0.1424334123730659,1.1051570177078247,0.0962112757066885,,,,,,,,,,,,1.688686292873847e+18,90.34984697265624,-8.65955982208252,39.418199920654295,15.325639724731444,1.688686292873847e+18,90.34984697265624,-264.00556030273435,134.44399719238282,-117.39815673828124,1.68868629288001e+18,90.356009765625,0.6420079270998637,-0.6950995326042175,-0.2642092009385426,0.1865423967440922,2.4955685138702393,1.4376474221547444,1.2963148355484009
0.4,1.6886862929232758e+18,90.39927575683596,-0.0013108849525452,-0.0897717475891113,-0.3426659703254699,1.6886862929232724e+18,90.3992725423177,-1.0747761726379397,-9.802197774251304,-1.0422736605008442,1.6886862929232758e+18,90.39927575683596,-1.0546851754188538,-9.723037242889404,-0.765684962272644,1.6886862929276006e+18,90.40360050455728,0.0306959779312212,0.9110546112060548,0.0352265629917382,1.6886862929276006e+18,90.40360050455728,0.0296778703729311,0.9156361023585,0.0377209279686212,1.688686292923164e+18,90.39916381835936,0.0,0.4515147805213928,0.96516215801239,10.288000106811523,0.024873474612832,0.0,40.20000076293945,-122.7531668,49.1902096,1.688686292923846e+18,90.39984619140624,-8.313079833984375,39.384039306640624,15.533039855957032,1.688686292923846e+18,90.39984619140624,-263.65907592773436,134.4098358154297,-117.19075622558594,1.6886862929232758e+18,90.39927575683596,0.6371609270572662,-0.690027505159378,-0.2785737514495849,0.2006717696785926,2.513563394546509,1.4375540614128113,1.321083962917328
0.45,1.6886862929665362e+18,90.44253629557294,-0.1182208855946858,0.0302130381266276,-0.6954335570335388,1.6886862929751892e+18,90.45118953450522,-1.2594223419825237,-9.65105120340983,-1.4035898844401042,1.6886862929665362e+18,90.44253629557294,-1.066887895266215,-9.7231814066569,-0.7467160820960999,1.6886862929795177e+18,90.45551790364584,0.0441350142161051,0.7483099301656088,0.0289651937782764,1.6886862929795177e+18,90.45551790364584,0.0431169060369331,0.7528914014498392,0.031408654525876,,,,,,,,,,,,1.6886862929738488e+18,90.44984877929689,-7.319999885559082,39.188839721679685,16.538319778442382,1.6886862929738488e+18,90.44984877929689,-262.66599731445314,134.21463928222656,-116.18547973632812,1.6886862929665362e+18,90.44253629557294,0.6326332092285156,-0.6853468616803488,-0.2909550865491231,0.2130434860785802,2.530878702799479,1.4376644293467205,1.341203014055888
0.5,1.688686293018448e+18,90.49444832356772,-0.176190972328186,0.1288270950317382,-0.7527770002683004,1.6886862930271048e+18,90.5031046549479,-1.1748759349187214,-9.67358366648356,-1.3936197757720947,1.688686293018448e+18,90.49444832356772,-1.081101298332214,-9.722094535827637,-0.7404195666313171,1.688686293031426e+18,90.50742610677082,0.0389935647447903,0.4969897766908009,0.020413080540796,1.688686293031426e+18,90.50742610677082,0.0380263614157835,0.5015712678432465,0.0228565412883956,,,,,,,,,,,,1.688686293023849e+18,90.49984897460936,-6.8295598983764645,39.159559631347655,16.93603973388672,1.688686293023849e+18,90.49984897460936,-262.17554931640626,134.18535766601562,-115.78775787353516,1.688686293018448e+18,90.49444832356772,0.6283039450645447,-0.6807977358500162,-0.3026635845502217,0.2238966971635817,2.541076342264811,1.436832348505656,1.3653725385665894
0.55,1.6886862930703675e+18,90.5463674316406,0.0510454575220743,-0.0681257247924804,-0.2602132161458333,1.6886862930790185e+18,90.5550184733073,-1.021535873413086,-9.76989491780599,-0.8725826541582743,1.6886862930703675e+18,90.5463674316406,-1.0923854907353718,-9.720555305480955,-0.7440498868624369,1.6886862930746952e+18,90.55069519042968,0.0647517181932925,0.3941607922315597,0.0078648900962434,1.6886862930746952e+18,90.55069519042968,0.0636827014386653,0.3987423032522201,0.0103083509602583,,,,,,,,,,,,1.6886862930738458e+18,90.54984594726564,-6.236639976501465,39.02779922485352,17.30203971862793,1.6886862930738458e+18,90.54984594726564,-261.5826354980469,134.0535919189453,-115.42175903320312,1.6886862930703675e+18,90.5463674316406,0.6250705718994141,-0.677221417427063,-0.3115138113498687,0.2315326432387033,2.5436855951944985,1.435662031173706,1.3880459864934285
0.6,1.6886862931222815e+18,90.59828173828124,-0.0547153155008951,-0.051004409790039,-0.1352605223655699,1.688686293130928e+18,90.60692814127606,-1.190229852994283,-9.782457033793133,-0.8291130463282267,1.6886862931222815e+18,90.59828173828124,-1.0984891653060913,-9.71893310546875,-0.7561411062876383,1.688686293117956e+18,90.59395621744792,0.0594066443542639,0.3332269887129465,0.0101301815981666,1.688686293117956e+18,90.59395621744792,0.058439441025257,0.3378084699312846,0.0126245484376947,,,,,,,,,,,,1.688686293123846e+18,90.5998459472656,-6.351319789886475,39.16443939208985,17.30935935974121,1.688686293123846e+18,90.5998459472656,-261.69732055664065,134.190234375,-115.41443939208985,1.6886862931222815e+18,90.59828173828124,0.6227100292841593,-0.6741392413775126,-0.3186231056849162,0.2371546477079391,2.5387912591298423,1.4344404141108196,1.4125670591990154
0.65,1.6886862931741962e+18,90.65019612630208,-0.0656211376190185,0.229312260945638,-0.0826674103736876,1.6886862931741962e+18,90.6501964111328,-1.1730813384056091,-9.451051235198976,-0.771087110042572,1.6886862931741962e+18,90.65019612630208,-1.1103151241938274,-9.717096010843912,-0.7624730070432028,1.688686293169871e+18,90.64587125651042,0.0268780707071224,0.2729040483633677,0.0034615697804838,1.688686293169871e+18,90.64587125651042,0.025961772383501,0.2774346421162287,0.0059559361543506,,,,,,,,,,,,1.6886862931738468e+18,90.64984682617188,-5.892599868774414,39.010719299316406,17.799799728393555,1.6886862931738468e+18,90.64984682617188,-261.23859252929685,134.03651733398436,-114.9239990234375,1.6886862931741962e+18,90.65019612630208,0.6203727920850118,-0.6717216571172079,-0.3246208230654398,0.2419594178597131,2.539902369181315,1.433068116505941,1.4281857808430989
0.7,1.688686293226107e+18,90.70210677083332,-0.0236897468566894,-0.2112836837768554,-0.0915902256965636,1.6886862932174523e+18,90.69345247395836,-1.161515990893046,-9.840283711751304,-0.7844470342000326,1.688686293226107e+18,90.70210677083332,-1.1191458304723103,-9.716979026794435,-0.7509579459826151,1.688686293221786e+18,90.6977859700521,-0.0123191157666345,0.0898990022639433,-0.00442877287666,1.688686293221786e+18,90.6977859700521,-0.0132354140514507,0.0943786781281232,-0.0018835011093566,,,,,,,,,,,,1.6886862932238492e+18,90.69984912109376,-5.5753999710083,39.00339965820312,17.636320114135742,1.6886862932238492e+18,90.69984912109376,-260.92139892578126,134.0291961669922,-115.0874771118164,1.688686293226107e+18,90.70210677083332,0.6186451514561971,-0.6704872250556946,-0.3278552591800689,0.2454299976428349,2.5506811141967773,1.432981014251709,1.4277984698613484
0.75,1.6886862932780234e+18,90.7540234375,0.2059070269266764,0.0923201243082681,0.0369326670964558,1.6886862932693722e+18,90.7453721516927,-0.8709874550501505,-9.755537986755373,-0.6749753952026367,1.6886862932780234e+18,90.7540234375,-1.1252131064732869,-9.715696970621744,-0.7584438920021057,1.688686293273699e+18,90.7496990559896,0.0459167050818601,0.2051998153328894,-0.0131336029153316,1.688686293273699e+18,90.7496990559896,0.0448476895689963,0.2097813089688618,-0.0105883305271465,,,,,,,,,,,,1.688686293273849e+18,90.74984916992187,-5.821839904785156,39.100999450683595,17.76563949584961,1.688686293273849e+18,90.74984916992187,-261.16783447265624,134.12679748535157,-114.95815887451172,1.6886862932780234e+18,90.7540234375,0.6175989309946696,-0.6693102518717448,-0.3307172159353891,0.2474213540554046,2.5486114819844565,1.432032545407613,1.437434474627177
0.8,1.6886862933299425e+18,90.80594238281247,-0.0736486315727234,0.2950112024943034,0.2452472647031148,1.6886862933212795e+18,90.79727970377604,-1.2803595066070557,-9.395218849182127,-0.479162722826004,1.6886862933299425e+18,90.80594238281247,-1.142168045043945,-9.714599609375,-0.7470176418622335,1.688686293325615e+18,90.8016153157552,-0.0346156964078545,0.0755945742130279,-0.0058032199740409,1.688686293325615e+18,90.8016153157552,-0.0356847109893957,0.0801760653654734,-0.0033088536001741,,,,,,,,,,,,1.688686293323845e+18,90.79984521484374,-5.2411199569702145,38.89115905761719,17.814439392089845,1.688686293323845e+18,90.79984521484374,-260.5871154785156,133.91695861816407,-114.90935668945312,1.6886862933299425e+18,90.80594238281247,0.615554690361023,-0.6682882905006409,-0.3340754508972168,0.2507518728574117,2.5625037352244058,1.431228081385295,1.433973391850789
0.85,1.688686293373201e+18,90.84920092773436,0.420769453048706,-0.3224258422851562,-0.1315759718418121,1.6886862933731973e+18,90.8491971842448,-0.7928218841552734,-9.980264027913412,-0.7527421315511068,1.688686293373201e+18,90.84920092773436,-1.1318999528884888,-9.717701435089111,-0.7219392955303192,1.6886862933775286e+18,90.8535284016927,-0.0363973874288299,0.0541633839408556,-0.0006108651092896,1.6886862933775286e+18,90.8535284016927,-0.0373645923100411,0.0586939677596092,0.0018325956819656,,,,,,,,,,,,1.6886862933738532e+18,90.84985302734376,-5.336279773712159,38.888719177246095,17.68511962890625,1.6886862933738532e+18,90.84985302734376,-260.682275390625,133.91452026367188,-115.03867645263672,1.688686293373201e+18,90.84920092773436,0.6155301332473755,-0.668325275182724,-0.3332188427448272,0.2518514543771744,2.5739591121673584,1.4335175156593325,1.4228243231773376
0.9,1.6886862934164644e+18,90.89246443684895,-0.2264373699824015,0.1407829920450846,-0.2728464404741922,1.6886862934251154e+18,90.9011153971354,-1.3369896411895752,-9.518648465474447,-0.876171886920929,1.6886862934164644e+18,90.89246443684895,-1.147505005200704,-9.71630350748698,-0.7160627444585165,1.6886862934294395e+18,90.90543969726563,0.0033597589160005,0.1099557441969712,-0.0289142876863479,1.6886862934294395e+18,90.90543969726563,0.0024434613684813,0.1144863304992516,-0.02647082755963,,,,,,,,,,,,1.6886862934238484e+18,90.8998484375,-5.30699987411499,38.98631973266602,17.463079833984374,1.6886862934238484e+18,90.8998484375,-260.6530029296875,134.01211242675782,-115.2607177734375,1.6886862934164644e+18,90.89246443684895,0.6140331824620565,-0.6677529215812683,-0.3355518380800883,0.2539152900377909,2.5838319460550943,1.4324812491734822,1.4198402563730876
0.95,1.6886862934683758e+18,90.94437565104164,0.3530699412027995,-0.1262092590332031,-0.0870647629102071,1.6886862934770286e+18,90.95302856445312,-0.8536394834518433,-9.88415241241455,-0.7812565763791403,1.6886862934683758e+18,90.94437565104164,-1.1575205326080322,-9.715313275655111,-0.7134096225102743,1.688686293481354e+18,90.95735375976562,0.0400116729239622,0.1164207359155019,-0.0147116710431873,1.688686293481354e+18,90.95735375976562,0.0390444686636328,0.1210022245844205,-0.0122173052902022,,,,,,,,,,,,1.6886862934738447e+18,90.94984477539064,-5.465599822998047,39.05707931518555,17.67779960632324,1.6886862934738447e+18,90.94984477539064,-260.8115966796875,134.08287658691407,-115.0459976196289,1.6886862934683758e+18,90.94437565104164,0.6130736470222473,-0.667350689570109,-0.3371113141377767,0.2552238802115122,2.5894266764322915,1.4317488272984822,1.418745716412862
1.0,1.6886862935202926e+18,90.99629239908852,-0.2417191267013549,0.0651149749755858,-0.3140885631243388,1.6886862935289413e+18,91.0049413248698,-1.3866407076517742,-9.662816047668455,-0.992423176765442,1.6886862935202926e+18,90.99629239908852,-1.1824725071589153,-9.710226694742838,-0.7410220503807068,1.6886862935246167e+18,91.00061669921874,0.0785725452005862,0.0685696247965097,-0.0765108726918697,1.6886862935246167e+18,91.00061669921874,0.0775798857212066,0.0731511134654283,-0.0739910528063774,,,,,,,,,,,,1.6886862935238456e+18,90.99984580078124,-5.136199951171875,39.037559509277344,17.885199737548827,1.6886862935238456e+18,90.99984580078124,-260.48219604492186,134.0633575439453,-114.8385986328125,1.6886862935202926e+18,90.99629239908852,0.6117497682571411,-0.6665572921435038,-0.3405511180559794,0.2559053301811218,2.5820058981577554,1.428065299987793,1.4327302773793538
1.05,1.6886862935722022e+18,91.04820222981772,0.324443240960439,0.0036964416503905,0.3192172348499298,1.6886862935808543e+18,91.0568545735677,-0.8219345808029175,-9.746365547180176,-0.165304155399402,1.6886862935722022e+18,91.04820222981772,-1.2026725212732952,-9.70703411102295,-0.7503993312517802,1.6886862935678804e+18,91.04388053385416,-0.0275907466808954,-0.0393499042838811,-0.0090102624769011,1.6886862935678804e+18,91.04388053385416,-0.0286088573435942,-0.034768414373199,-0.0065668004875381,,,,,,,,,,,,1.688686293573844e+18,91.0498439453125,-5.099599933624267,38.98631973266602,17.90471954345703,1.688686293573844e+18,91.0498439453125,-260.4455932617187,134.01212158203126,-114.81907806396484,1.6886862935722022e+18,91.04820222981772,0.611148993174235,-0.6669902006785074,-0.3412165443102519,0.2553272048632304,2.5839770634969077,1.4257880449295044,1.4309715429941814
1.1,1.68868629362412e+18,91.10011995442709,0.0169368584950764,-0.0952587127685546,0.4767893552780151,1.6886862936241157e+18,91.10011572265624,-1.134497046470642,-9.842875957489014,-0.1360917873680591,1.68868629362412e+18,91.10011995442709,-1.1801114082336426,-9.712565104166666,-0.7137539982795715,1.6886862936197962e+18,91.09579630533854,-0.0679078536729017,-0.0550796833510199,0.0291179101914167,1.6886862936197962e+18,91.09579630533854,-0.0688241521517435,-0.0505490993770459,0.0316631818811098,,,,,,,,,,,,1.688686293623848e+18,91.09984794921876,-5.277719783782959,39.07171859741211,18.012079620361327,1.688686293623848e+18,91.09984794921876,-260.62371215820315,134.0975128173828,-114.71171722412107,1.68868629362412e+18,91.10011995442709,0.6117950876553854,-0.6673863530158997,-0.3387448290983835,0.2560349305470784,2.5978244145711265,1.4297429323196411,1.4142331679662068
1.15,1.688686293676038e+18,91.15203792317708,-0.4028937419255574,0.1657606760660807,-0.4028033812840779,1.688686293667381e+18,91.14338102213542,-1.64027996857961,-9.569894790649414,-0.9643075267473856,1.688686293676038e+18,91.15203792317708,-1.1923847198486328,-9.713165918986002,-0.6846103072166443,1.6886862936717028e+18,91.14770296223958,-0.0633263625204562,-0.027285313544174,-0.0262672050545612,1.6886862936717028e+18,91.14770296223958,-0.064344473183155,-0.0227038245648145,-0.023721933364868,,,,,,,,,,,,1.688686293673844e+18,91.1498439453125,-5.141079902648926,39.20835952758789,17.790039443969725,1.688686293673844e+18,91.1498439453125,-260.48707275390626,134.23415832519532,-114.93375701904296,1.688686293676038e+18,91.15203792317708,0.6110741098721822,-0.66839067141215,-0.3376851181189219,0.2565364738305409,2.620537598927816,1.430177927017212,1.3906336625417073
1.2,1.688686293727943e+18,91.20394303385416,0.178160806496938,-0.0601539611816405,-0.1449106534322102,1.688686293719297e+18,91.19529711914062,-1.031306544939677,-9.760522842407228,-0.8422735730806986,1.688686293727943e+18,91.20394303385416,-1.1963702042897542,-9.71377182006836,-0.6689236362775167,1.6886862937236237e+18,91.19962377929689,-0.0305432615180809,-0.0537561414142449,-0.0079412482058007,1.6886862937236237e+18,91.19962377929689,-0.0316122770309447,-0.0491746527453263,-0.0054468818319339,,,,,,,,,,,,1.6886862937238508e+18,91.19985083007812,-4.845839977264404,39.13271865844727,17.80712013244629,1.6886862937238508e+18,91.19985083007812,-260.19183349609375,134.15851440429688,-114.91667785644532,1.688686293727943e+18,91.20394303385416,0.61095263560613,-0.6690858403841654,-0.3366109132766723,0.2564258476098378,2.631953557332357,1.430617372194926,1.3773518403371174
1.25,1.6886862937798628e+18,91.25586295572916,0.0235761801401773,0.0697994232177734,0.1743770043055216,1.6886862937712074e+18,91.2472071940104,-1.1525429089864094,-9.705488204956056,-0.4291128615538279,1.6886862937798628e+18,91.25586295572916,-1.1965214411417644,-9.714711825052897,-0.6548113822937012,1.6886862937755348e+18,91.25153483072916,-0.0538579535981018,-0.1172352234522501,-0.0073812883735323,1.6886862937755348e+18,91.25153483072916,-0.0548251563062269,-0.1126537322998046,-0.0048869219220553,,,,,,,,,,,,1.6886862937738432e+18,91.24984326171874,-4.848279857635498,39.08635940551758,17.363039779663087,1.6886862937738432e+18,91.24984326171874,-260.19427490234375,134.112158203125,-115.36075897216796,1.6886862937798628e+18,91.25586295572916,0.6111477613449097,-0.6698418458302816,-0.3351152141888936,0.2559438447157541,2.641059160232544,1.43130362033844,1.365134874979655
1.3,1.6886862938231247e+18,91.29912475585938,-0.077347993850708,0.0230369567871094,-0.1198403537273406,1.6886862938231247e+18,91.29912475585938,-1.2488540013631184,-9.708479245503744,-0.668993333975474,1.6886862938231247e+18,91.29912475585938,-1.1883191466331482,-9.717999458312988,-0.6200158298015594,1.6886862938274468e+18,91.30344677734377,-0.1340340177218118,-0.2767728666464488,0.0115046286955475,1.6886862938274468e+18,91.30344677734377,-0.1350521271427472,-0.2722422778606415,0.0139480897535879,,,,,,,,,,,,1.688686293823849e+18,91.29984897460938,-5.509520053863525,39.34743957519531,17.255680084228516,1.688686293823849e+18,91.29984897460938,-260.855517578125,134.37323303222655,-115.4681182861328,1.6886862938231247e+18,91.29912475585938,0.6120166182518005,-0.6715402603149414,-0.3310669958591461,0.2546807825565337,2.660902261734009,1.4337351322174072,1.336930811405182
1.35,1.6886862938663872e+18,91.34238712565104,0.0097318490346273,-0.051315943400065,-0.3462236722310384,1.6886862938750392e+18,91.35103930664064,-1.137787143389384,-9.771490097045898,-0.8412765463193258,1.6886862938663872e+18,91.34238712565104,-1.1770938634872437,-9.721413294474283,-0.5870523850123087,1.688686293879367e+18,91.35536718750002,-0.0847575515508651,-0.3099123040835062,0.0151698203020107,1.688686293879367e+18,91.35536718750002,-0.0857756609718004,-0.3053308228651682,0.0177150920499115,,,,,,,,,,,,1.6886862938738468e+18,91.34984672851564,-5.416799831390381,39.310839080810545,17.128799438476562,1.6886862938738468e+18,91.34984672851564,-260.7627868652344,134.33663940429688,-115.5949966430664,1.6886862938663872e+18,91.34238712565104,0.6136645674705505,-0.6739350159962972,-0.3252858817577362,0.2518160045146942,2.6792017618815103,1.4363027811050415,1.305103103319804
1.4,1.688686293918301e+18,91.39430102539062,-0.0486112833023071,0.0097885131835937,-0.1753642360369364,1.688686293926949e+18,91.4029491373698,-1.2566306988398237,-9.7403834660848,-0.6727819641431173,1.688686293918301e+18,91.39430102539062,-1.1580328941345217,-9.724491755167644,-0.5738638639450073,1.6886862939312753e+18,91.40727530924478,-0.0512108703454335,-0.3072143097718556,0.0252490962545076,1.6886862939312753e+18,91.40727530924478,-0.0521780724326769,-0.3026837309201558,0.0276925576229889,1.688686293923183e+18,91.39918310546877,0.0,0.510794460773468,0.9747514128684998,11.319000244140623,0.0242071207612752,0.0,40.20000076293945,-122.7531665,49.1902095,1.688686293923851e+18,91.399851171875,-5.392399787902832,39.459679412841794,16.743279266357423,1.688686293923851e+18,91.399851171875,-260.7383972167969,134.4854766845703,-115.9805191040039,1.688686293918301e+18,91.39430102539062,0.6159821152687073,-0.6759112278620402,-0.3196487526098887,0.2480545242627461,2.681772549947103,1.4386608997980754,1.287887771924337
1.45,1.688686293970212e+18,91.44621215820312,-0.1029521624247232,0.0260690053304036,-0.0454601844151814,1.6886862939788654e+18,91.4548653971354,-1.1964113314946492,-9.749356587727863,-0.5286144117514292,1.688686293970212e+18,91.44621215820312,-1.1361945470174153,-9.72741190592448,-0.5679752230644226,1.6886862939745444e+18,91.45054443359376,-0.0465784762054681,-0.3211624026298522,0.0222202227450906,1.6886862939745444e+18,91.45054443359376,-0.047647489234805,-0.3165809214115143,0.024740042630583,,,,,,,,,,,,1.6886862939738447e+18,91.44984487304689,-6.158559799194336,39.46211929321289,16.38704032897949,1.6886862939738447e+18,91.44984487304689,-261.5045593261719,134.4879150390625,-116.33675842285156,1.688686293970212e+18,91.44621215820312,0.6185686389605204,-0.6777639190355936,-0.3139337599277496,0.243822877605756,2.678297758102417,1.4409393072128296,1.275925914446513
1.5,1.6886862940221325e+18,91.49813248697916,0.08431871732076,-0.1794198354085286,-0.0330571134885152,1.6886862940307853e+18,91.5067852376302,-1.007378339767456,-9.901300748189293,-0.5553342501322428,1.6886862940221325e+18,91.49813248697916,-1.124462326367696,-9.728304545084637,-0.5759914517402649,1.6886862940178053e+18,91.49380533854166,-0.0037160970581074,-0.2900591790676116,-0.0003563380499447,1.6886862940178053e+18,91.49380533854166,-0.0046833000766734,-0.2854776879151662,0.0022398392514635,,,,,,,,,,,,1.6886862940238484e+18,91.4998486328125,-6.497719764709473,39.45235824584961,16.32359962463379,1.6886862940238484e+18,91.4998486328125,-261.8437194824219,134.47815856933593,-116.4001968383789,1.6886862940221325e+18,91.49813248697916,0.6209399898846945,-0.6796663602193197,-0.3088296155134836,0.2389718244473139,2.6684791247049966,1.441641529401143,1.2703911463419597
1.55,1.6886862940740442e+18,91.55004410807292,0.0375622113545735,0.1542396545410155,-0.0744320352872212,1.6886862940740442e+18,91.55004418945312,-1.101296603679657,-9.543174743652344,-0.617946445941925,1.6886862940740442e+18,91.55004410807292,-1.1068185170491536,-9.729760169982912,-0.5854640007019043,1.6886862940697193e+18,91.54571931966149,-0.0422515127186973,-0.3635666370391845,0.0289651943215479,1.6886862940697193e+18,91.54571931966149,-0.0432696224500735,-0.3590360482533772,0.0315104660888512,,,,,,,,,,,,1.6886862940738488e+18,91.549848828125,-6.8197998046875,39.53043899536133,16.41387939453125,1.6886862940738488e+18,91.549848828125,-262.1657958984375,134.55624084472657,-116.30991821289062,1.6886862940740442e+18,91.55004410807292,0.6236257155736288,-0.6814830700556437,-0.303318053483963,0.2337992042303085,2.655325253804525,1.4428006410598757,1.2671149969100952
1.6,1.6886862941259548e+18,91.60195483398438,-0.0181854963302612,-0.0536301930745442,-0.1765511631965637,1.6886862941173046e+18,91.59330476888022,-1.0207382639249163,-9.779067357381184,-0.6540381908416748,1.6886862941259548e+18,91.60195483398438,-1.0638325214385986,-9.734851837158203,-0.58045361439387,1.6886862941216338e+18,91.59763387044272,-0.0647517157097656,-0.4499022563298543,0.0601702270408471,1.6886862941216338e+18,91.59763387044272,-0.065769825130701,-0.4453207552433014,0.0627155005931854,,,,,,,,,,,,1.6886862941238426e+18,91.59984252929688,-6.941799831390381,39.48407897949219,15.9112398147583,1.6886862941238426e+18,91.59984252929688,-262.2877990722656,134.50987548828124,-116.81255645751952,1.6886862941259548e+18,91.60195483398438,0.6276461482048035,-0.6835168798764547,-0.295017272233963,0.2276393324136733,2.642420450846354,1.446932832400004,1.2578065395355225
1.65,1.6886862941778726e+18,91.65387255859372,-0.1376157999038696,0.1018946965535481,-0.3738355636596679,1.6886862941692265e+18,91.64522672526044,-1.2307084401448567,-9.702496846516928,-0.8462616205215454,1.6886862941778726e+18,91.65387255859372,-1.0353294610977173,-9.739030838012695,-0.5616339047749838,1.6886862941735455e+18,91.64954581705727,-0.1202386394143104,-0.6239988406499227,0.0043269616241256,1.6886862941735455e+18,91.64954581705727,-0.1212567538022994,-0.6194173494974772,0.0068213284636536,,,,,,,,,,,,1.688686294173849e+18,91.64984936523436,-8.064199829101563,39.57435913085938,15.249999809265136,1.688686294173849e+18,91.64984936523436,-263.4101989746094,134.60015869140625,-117.4737991333008,1.6886862941778726e+18,91.65387255859372,0.6316056052843729,-0.6869852741559347,-0.2842923601468404,0.2197285642226536,2.6449190775553384,1.450425664583842,1.226884643236796
1.7,1.688686294229786e+18,91.70578613281248,0.0363422433535257,0.075148582458496,-0.6738616824150085,1.688686294221137e+18,91.69713696289062,-0.962712307771047,-9.647462209065756,-1.0839486519495647,1.688686294229786e+18,91.70578613281248,-1.044382135073344,-9.739802042643229,-0.530600925286611,1.6886862942254615e+18,91.70146166992188,-0.1707877417405446,-0.8355109492937723,-0.0794124826788902,1.6886862942254615e+18,91.70146166992188,-0.1717040389776229,-0.8309803406397501,-0.0768672091265519,,,,,,,,,,,,1.688686294223847e+18,91.69984653320311,-8.02515983581543,39.66707916259766,14.586319732666016,1.688686294223847e+18,91.69984653320311,-263.37115478515625,134.69288024902343,-118.13747863769532,1.688686294229786e+18,91.70578613281248,0.6352031628290812,-0.6932435035705566,-0.2695166071256001,0.2079697201649347,2.671938339869181,1.451073209444682,1.159760514895121
1.75,1.688686294273049e+18,91.74904895019532,-0.0884345769882202,0.0698676109313964,-0.9017747938632964,1.688686294273049e+18,91.74904931640629,-1.138186017672221,-9.69631576538086,-1.3439687490463257,1.688686294273049e+18,91.74904895019532,-1.0387479662895205,-9.74150037765503,-0.5101654231548309,1.688686294277378e+18,91.75337825520832,-0.1726203362147013,-1.1908818085988362,-0.0173587541406352,1.688686294277378e+18,91.75337825520832,-0.1735875407854715,-1.1863003174463909,-0.0148643873011071,,,,,,,,,,,,1.6886862942738488e+18,91.74984897460938,-8.444839668273925,39.95255966186524,13.771359825134278,1.6886862942738488e+18,91.74984897460938,-263.79083862304685,134.97835693359374,-118.95243682861329,1.688686294273049e+18,91.74904895019532,0.6396747827529907,-0.6991627812385559,-0.2532265558838844,0.1945166662335395,2.6855337619781494,1.452526032924652,1.10152930021286
1.8,1.6886862943163154e+18,91.7923154296875,-0.1188577413558959,0.0933300654093424,-0.896433969338735,1.6886862943249674e+18,91.80096752929688,-1.1080762545267742,-9.691729227701822,-1.3150554498036702,1.6886862943163154e+18,91.7923154296875,-1.0221832195917766,-9.743427276611328,-0.5068323016166687,1.6886862943292877e+18,91.80528759765626,-0.1711440781752268,-1.5395331382751465,-0.0463748537003993,1.6886862943292877e+18,91.80528759765626,-0.172162190079689,-1.535002589225769,-0.0438804862399895,,,,,,,,,,,,1.6886862943238477e+18,91.79984770507812,-9.71851978302002,40.06235961914062,12.526959800720215,1.6886862943238477e+18,91.79984770507812,-265.06451416015625,135.0881561279297,-120.19683685302736,1.6886862943163154e+18,91.7923154296875,0.645686129728953,-0.7058097124099731,-0.2321596046288808,0.1758123785257338,2.681802749633789,1.454194148381551,1.046128551165263
1.85,1.688686294368218e+18,91.84421761067706,-0.1903514266014098,-0.0068038304646809,-0.7263957659403483,1.6886862943768763e+18,91.85287654622395,-1.2769697109858196,-9.748160044352211,-1.161515990893046,1.688686294368218e+18,91.84421761067706,-1.001537064711253,-9.744788805643717,-0.5215364297231039,1.6886862943812017e+18,91.85720174153646,-0.1199332103133201,-1.68313733736674,-0.012726359690229,1.6886862943812017e+18,91.85720174153646,-0.1209004124005635,-1.6785558859507244,-0.0101810880005359,,,,,,,,,,,,1.6886862943738511e+18,91.84985107421876,-10.404159927368164,40.21363906860351,11.385039901733398,1.6886862943738511e+18,91.84985107421876,-265.750146484375,135.23943786621095,-121.33875732421876,1.688686294368218e+18,91.84421761067706,0.6533182263374329,-0.7140401005744934,-0.2028716405232747,0.1484162658452987,2.662024656931559,1.4553854862848918,0.982512096563975
1.9,1.6886862944201398e+18,91.89613956705728,-0.6501834988594055,0.2103996276855468,-0.4609984358151753,1.6886862944287885e+18,91.90478841145834,-1.5629119873046875,-9.52243677775065,-0.917448083559672,1.6886862944201398e+18,91.89613956705728,-0.9562614957491556,-9.747036933898926,-0.562606672445933,1.688686294424467e+18,91.90046704101562,-0.0872773714363574,-1.8393152356147768,0.0173333017155527,1.688686294424467e+18,91.90046704101562,-0.0882700271904468,-1.834733724594116,0.0197767624631523,,,,,,,,,,,,1.688686294423847e+18,91.89984682617188,-11.319159698486327,40.71627960205078,10.10403995513916,1.688686294423847e+18,91.89984682617188,-266.6651550292969,135.74207458496093,-122.61975860595705,1.6886862944201398e+18,91.89613956705728,0.6613093614578247,-0.720629612604777,-0.1714129149913787,0.1175237074494361,2.6102188428243003,1.4573954343795776,0.9435982505480448
1.95,1.6886862944720484e+18,91.94804817708332,-0.3145902355511983,0.0261926651000976,-0.0477334062258402,1.6886862944807068e+18,91.95670694986978,-1.1834502220153809,-9.762118021647137,-0.545962373415629,1.6886862944720484e+18,91.94804817708332,-0.925752858320872,-9.746280034383137,-0.6235285600026449,1.6886862944677225e+18,91.9437225748698,-0.0368555365130304,-1.724014441172282,-0.0809396430850028,1.6886862944677225e+18,91.9437225748698,-0.0379245501632491,-1.7194329500198364,-0.0784452787290016,,,,,,,,,,,,1.688686294473848e+18,91.94984809570312,-12.309799766540529,40.97247848510742,8.698599815368652,1.688686294473848e+18,91.94984809570312,-267.6557983398437,135.99827880859374,-124.02519836425782,1.6886862944720484e+18,91.94804817708332,0.6674967805544535,-0.7263891696929932,-0.1396731436252593,0.0846183250347772,2.549414078394572,1.4567227363586426,0.9112648566563925
2.0,1.6886862945239662e+18,91.99996614583334,-0.3866172432899475,0.0637067159016926,0.3459222813447316,1.688686294523968e+18,91.9999678955078,-1.3331013321876526,-9.705288887023926,-0.2703889533877373,1.6886862945239662e+18,91.99996614583334,-0.9524297912915548,-9.739327112833658,-0.688569962978363,1.6886862945196434e+18,91.99564339192708,0.0148643873011071,-1.195208748181661,-0.1425861244400341,1.6886862945196434e+18,91.99564339192708,0.0138971845153718,-1.1906272967656453,-0.1400408595800399,1.688686294512e+18,91.988,0.0,0.510794460773468,0.9259783625602722,11.618000030517578,0.0240733791142702,0.0,40.20000076293945,-122.7531663,49.1902095,1.688686294523847e+18,91.999846875,-12.370799827575684,41.336038970947264,7.654279804229736,1.688686294523847e+18,91.999846875,-267.7167907714844,136.36183471679686,-125.06951751708984,1.6886862945239662e+18,91.99996614583334,0.6693328022956848,-0.7314916451772054,-0.1160332933068275,0.0582121722400187,2.5160721143086753,1.4506665865580242,0.8730254173278809
2.05,1.688686294575879e+18,92.05187874348955,-0.7171507080396017,0.1320066452026366,0.5735619266827902,1.6886862945672274e+18,92.04322745768228,-1.6448661883672078,-9.588040033976238,-0.135792685051759,1.688686294575879e+18,92.05187874348955,-0.9955754478772482,-9.731056849161783,-0.7423311471939087,1.688686294571558e+18,92.04755802408852,-0.0003563384525478,-1.0612765351931257,-0.1689551422993342,1.688686294571558e+18,92.04755802408852,-0.0013235409278422,-1.0566950639088948,-0.1665116796890894,,,,,,,,,,,,1.6886862945738468e+18,92.04984672851565,-12.339079666137696,41.36775894165039,6.819799900054932,1.6886862945738468e+18,92.04984672851565,-267.68507690429686,136.3935577392578,-125.90399780273438,1.688686294575879e+18,92.05187874348955,0.6691579818725586,-0.7355972727139791,-0.098127340277036,0.0378462858498096,2.501116355260214,1.4438377618789673,0.8334654172261556
2.1,1.6886862946277998e+18,92.10379980468753,-0.2539195617039998,0.0267572402954101,0.7978876034418741,1.6886862946191442e+18,92.09514420572916,-1.3916257619857788,-9.711470286051432,0.0821535776679713,1.6886862946277998e+18,92.10379980468753,-1.084728717803955,-9.719326655069986,-0.7700465718905131,1.6886862946234757e+18,92.09947574869793,-0.0914770700037479,-1.2911146481831868,-0.3151555657386779,1.6886862946234757e+18,92.09947574869793,-0.0923933709661165,-1.2865839799245198,-0.3126611957947413,,,,,,,,,,,,1.688686294623849e+18,92.09984907226564,-11.997479820251463,41.80451889038086,6.134159946441651,1.688686294623849e+18,92.09984907226564,-267.3434753417969,136.83031616210937,-126.58963928222656,1.6886862946277998e+18,92.10379980468753,0.6666590174039205,-0.7413193384806315,-0.0754758690794308,0.0149592927967507,2.524090131123861,1.434742530186971,0.7457862297693888
2.15,1.688686294679711e+18,92.15571093750002,-0.1967572371164957,0.0528815587361653,0.5545162657896677,1.688686294671057e+18,92.14705688476565,-1.3992030223210652,-9.659226735432943,-0.09670991753228,1.688686294679711e+18,92.15571093750002,-1.19553009668986,-9.707166035970053,-0.7597760359446207,1.6886862946753864e+18,92.15138639322916,-0.2047925740480422,-1.4521284500757854,-0.2944879631201426,1.6886862946753864e+18,92.15138639322916,-0.2058106859525044,-1.447597901026408,-0.2919935832420984,,,,,,,,,,,,1.6886862946738478e+18,92.14984794921877,-11.81935977935791,42.49503860473633,4.628679847717285,1.6886862946738478e+18,92.14984794921877,-267.16535034179685,137.52084045410157,-128.0951187133789,1.688686294679711e+18,92.15571093750002,-0.6625144879023234,0.7473572293917338,0.048269232114156,0.0090037130285054,2.575422207514445,1.4258675972620647,0.6218568285306295
2.2,1.6886862947316252e+18,92.2076250813802,0.0301893552144368,-0.0620142618815103,0.078695793946584,1.6886862947229727e+18,92.1989725748698,-1.2009975512822468,-9.784650802612305,-0.5048855741818746,1.6886862947316252e+18,92.2076250813802,-1.2495952447255452,-9.702938079833984,-0.726228932539622,1.688686294727293e+18,92.2032927246094,-0.2906191448370615,-1.6671530803044636,-0.204283520579338,1.688686294727293e+18,92.2032927246094,-0.2915863494078318,-1.6625715891520183,-0.2018400579690933,,,,,,,,,,,,1.6886862947238487e+18,92.1998485839844,-11.50459976196289,42.607279205322264,2.6693598985672,1.6886862947238487e+18,92.1998485839844,-266.8505920410156,137.6330810546875,-130.0544403076172,1.6886862947316252e+18,92.2076250813802,-0.6595009366671244,0.7505891521771749,0.0150207463496674,0.0361033746351798,2.6151796181996665,1.4229049285252888,0.4965130686759949
2.25,1.6886862947748844e+18,92.25088415527344,-0.0421530008316039,0.1402492523193358,-0.2871749699115753,1.6886862947748872e+18,92.25088712565103,-1.3282159566879272,-9.609177271525065,-0.9148558775583904,1.6886862947748844e+18,92.25088415527344,-1.2594064474105835,-9.704204559326172,-0.6916643977165222,1.688686294779215e+18,92.25521516927084,-0.2848159174124399,-1.6638441880544026,-0.1209004124005635,1.688686294779215e+18,92.25521516927084,-0.2858849267164866,-1.6593136390050252,-0.1184060474236806,,,,,,,,,,,,1.688686294773846e+18,92.24984609375,-11.028799629211424,42.71463928222656,1.254159939289093,1.688686294773846e+18,92.24984609375,-266.3747924804687,137.74043884277344,-131.46964111328126,1.6886862947748844e+18,92.25088415527344,-0.6575013399124146,0.7509852647781372,-0.0136902700178324,0.0589275620877742,2.6394119262695312,1.4237850308418274,0.3991584628820419
2.3,1.688686294818149e+18,92.29414900716148,-0.2546212673187256,0.0189476013183593,-0.4772122502326965,1.6886862948268024e+18,92.30280240885416,-1.5256238381067913,-9.725627581278482,-1.092522939046224,1.688686294818149e+18,92.29414900716148,-1.2597000201543171,-9.704936981201172,-0.6807896892229716,1.688686294831129e+18,92.30712931315104,-0.2055052518844603,-1.626683235168457,-0.1011491020520527,1.688686294831129e+18,92.30712931315104,-0.206574261188507,-1.6221017440160117,-0.0986547370751698,,,,,,,,,,,,1.68868629482385e+18,92.29985004882812,-10.740879821777344,43.24899978637696,-0.3464799884706735,1.68868629482385e+18,92.29985004882812,-266.0868774414063,138.27479553222656,-133.07027893066407,1.688686294818149e+18,92.29414900716148,-0.6549320816993713,0.7499465147654215,-0.0413925610482692,0.0824128513534863,2.646143674850464,1.424298644065857,0.3196532328923543
2.35,1.6886862948700623e+18,92.34606266276042,-0.2814627091089884,0.10028870900472,-0.3807122707366943,1.6886862948787095e+18,92.35470930989582,-1.573280890782674,-9.58744208017985,-0.9818548758824668,1.6886862948700623e+18,92.34606266276042,-1.2623700300852458,-9.703526178995768,-0.6957343419392904,1.6886862948743823e+18,92.35038220214844,-0.1509600728750228,-1.4085025787353516,-0.133397702127695,1.6886862948743823e+18,92.35038220214844,-0.1520290821790695,-1.4039210081100464,-0.1309542395174503,,,,,,,,,,,,1.688686294873848e+18,92.34984809570312,-10.291919898986816,43.063558959960936,-1.588439989089966,1.688686294873848e+18,92.34984809570312,-265.6379150390625,138.08935546875,-134.31224060058594,1.6886862948700623e+18,92.34606266276042,-0.6508710781733195,0.7478043039639791,-0.0712625545759995,0.1094374979535738,2.6378923257191977,1.4233256975809734,0.2467360198497772
2.4,1.688686294921972e+18,92.39797216796876,-0.5909043550491333,0.2273238499959309,-0.1777957081794738,1.68868629493063e+18,92.40663004557292,-1.964906175931295,-9.495118776957192,-0.8077770471572876,1.688686294921972e+18,92.39797216796876,-1.3030781348546343,-9.696763038635256,-0.7146029273668925,1.6886862949176532e+18,92.3936532389323,-0.1324559450149535,-1.2341005404790242,-0.1790853242079416,1.6886862949176532e+18,92.3936532389323,-0.1334231495857238,-1.229519009590149,-0.1765909641981124,1.688686294923179e+18,92.39917895507811,0.0,0.5155206322669983,0.930773138999939,11.02299976348877,0.0224721450358629,0.0,40.20000076293945,-122.7531662,49.1902095,1.688686294923844e+18,92.399844140625,-10.238240051269532,43.18067855834961,-2.7742799520492554,1.688686294923844e+18,92.399844140625,-265.5842346191406,138.20647888183595,-135.49807434082032,1.688686294921972e+18,92.39797216796876,-0.6451268990834554,0.746427079041799,-0.096012882888317,0.1317646553119023,2.6399522622426352,1.418721318244934,0.1771457990010579
2.45,1.6886862949738918e+18,92.44989200846356,-0.7311268250147501,0.0507078170776366,-0.1020451386769612,1.6886862949738875e+18,92.44988769531253,-2.0934207439422607,-9.676275730133057,-0.7707880139350891,1.6886862949738918e+18,92.44989200846356,-1.3608617385228474,-9.687644322713217,-0.7303335467974345,1.6886862949695672e+18,92.4455672200521,-0.1684969961643218,-1.413949449857076,-0.2123774836460749,1.6886862949695672e+18,92.4455672200521,-0.1694642007350921,-1.409367918968201,-0.2099340210358301,,,,,,,,,,,,1.6886862949738476e+18,92.44984750976562,-9.279319763183594,43.519839477539065,-3.8625199794769287,1.6886862949738476e+18,92.44984750976562,-264.62531127929685,138.54563598632814,-136.58631896972656,1.6886862949738918e+18,92.44989200846356,-0.6377843419710795,0.7446047862370809,-0.1218789840737978,0.1543631752332051,2.648991664250692,1.4127204020818074,0.0981366485357284
2.5,1.6886862950258025e+18,92.50180257161458,-0.0829584995905558,0.0312910079956054,0.1287871996561685,1.6886862950171538e+18,92.49315397135418,-1.6171493132909138,-9.658429145812988,-0.5992026925086975,1.6886862950258025e+18,92.50180257161458,-1.4511035680770874,-9.672614097595217,-0.7549843192100525,1.688686295021482e+18,92.49748185221354,-0.172925775249799,-1.5555683771769206,-0.3237076699733733,1.688686295021482e+18,92.49748185221354,-0.1738420625527699,-1.5509868462880452,-0.3212642073631286,,,,,,,,,,,,1.6886862950238474e+18,92.49984736328123,-8.037359809875488,43.66135940551758,-4.84095983505249,1.6886862950238474e+18,92.49984736328123,-263.38335571289065,138.687158203125,-137.56475830078125,1.6886862950258025e+18,92.50180257161458,-0.6273096005121866,0.7421638369560242,-0.1519053479035695,0.1802101929982502,2.661766290664673,1.4032935698827107,0.0039839632033059
2.55,1.6886862950777203e+18,92.5537204589844,-0.0593720277150471,-0.0371230443318684,0.3264976739883422,1.6886862950690644e+18,92.54506453450522,-1.5078770716985066,-9.690333684285482,-0.4037888248761495,1.6886862950777203e+18,92.5537204589844,-1.5147698322931926,-9.661229133605955,-0.7760247588157654,1.6886862950733957e+18,92.54939575195311,-0.1590794920921325,-1.28963836034139,-0.1629992102583249,1.6886862950733957e+18,92.54939575195311,-0.1600976039965947,-1.2850568294525146,-0.1605557476480801,,,,,,,,,,,,1.6886862950738455e+18,92.5498455078125,-6.688039875030517,44.11519927978516,-6.0097198486328125,1.6886862950738455e+18,92.5498455078125,-262.034033203125,139.14099731445313,-138.73351440429687,1.6886862950777203e+18,92.5537204589844,-0.6176892320315043,0.7383870085080465,-0.1787082105875014,0.2030496696631113,2.6681554317474365,1.396442214647929,-0.0753918302555878
2.6,1.6886862951296348e+18,92.6056349283854,-0.2929701407750447,-0.160556157430013,0.5596698125203451,1.6886862951209825e+18,92.5969825032552,-1.779861251513163,-9.842277526855469,-0.2163510471582412,1.6886862951296348e+18,92.6056349283854,-1.4959275722503662,-9.663219769795736,-0.7876613934834799,1.6886862951253066e+18,92.6013068033854,-0.1235474944114684,-0.981558620929718,-0.011810061832269,1.6886862951253066e+18,92.6013068033854,-0.1245146989822387,-0.9769771496454874,-0.0093156949151307,,,,,,,,,,,,1.688686295123847e+18,92.5998466796875,-5.682759857177734,43.80044021606445,-6.68071985244751,1.688686295123847e+18,92.5998466796875,-261.02875366210935,138.82623901367188,-139.4045166015625,1.6886862951296348e+18,92.6056349283854,-0.6121981938680013,0.7324901024500529,-0.1991736938556035,0.2212667365868885,2.6569302876790366,1.3976157506306963,-0.1214122424523035
2.65,1.6886862951815483e+18,92.65754833984374,-0.30716073513031,-0.0146770477294921,0.919844170411428,1.6886862951728968e+18,92.64889689127608,-1.7752749919891355,-9.72024408976237,0.1355932873363296,1.6886862951815483e+18,92.65754833984374,-1.485724965731303,-9.664532661437988,-0.7909064094225565,1.6886862951772275e+18,92.6532276204427,-0.0729983945687611,-0.5953390896320343,-0.0552833061665296,1.6886862951772275e+18,92.6532276204427,-0.0739656016230583,-0.5907576084136963,-0.0528398435562848,,,,,,,,,,,,1.6886862951738488e+18,92.64984892578124,-5.990199947357178,43.94683837890625,-7.441999816894532,1.6886862951738488e+18,92.64984892578124,-261.33619995117186,138.97263793945314,-140.1657958984375,1.6886862951815483e+18,92.65754833984374,-0.6082738240559896,0.7283316055933634,-0.212701658407847,0.2329794913530349,2.652410984039306,1.3983885844548545,-0.1545159618059794
2.7,1.6886862952248105e+18,92.70081066894532,-0.4695376753807068,0.0370302200317382,1.0972327589988708,1.6886862952248082e+18,92.70080826822915,-1.9535402456919353,-9.654241879781088,0.376071959733963,1.6886862952248105e+18,92.70081066894532,-1.5053023099899292,-9.662600994110107,-0.7773676216602325,1.688686295229141e+18,92.70514111328124,-0.0982983981569607,-0.3979278008143107,-0.0826195254921913,1.688686295229141e+18,92.70514111328124,-0.099265602727731,-0.3933972219626109,-0.0801251580317814,,,,,,,,,,,,1.688686295223846e+18,92.69984584960936,-5.677879905700683,44.06396026611328,-8.130080032348634,1.688686295223846e+18,92.69984584960936,-261.02387084960935,139.08975524902343,-140.8538787841797,1.6886862952248105e+18,92.70081066894532,-0.6054313480854034,0.7267112135887146,-0.2204675823450088,0.2381907403469085,2.664889931678772,1.3972392082214355,-0.1864750385284423
2.75,1.6886862952680727e+18,92.74407283528645,-0.2429310878117879,-0.0400066375732421,0.9205093185106912,1.6886862952767237e+18,92.75272355143233,-1.6243277788162231,-9.7158571879069,0.1320040474335352,1.6886862952680727e+18,92.74407283528645,-1.5469636122385662,-9.658744176228842,-0.7423192461331686,1.6886862952810455e+18,92.75704532877604,-0.2097813040018081,-0.8204938371976217,-0.2415972004334131,1.6886862952810455e+18,92.75704532877604,-0.2108503182729084,-0.8159632484118143,-0.239051933089892,,,,,,,,,,,,1.688686295273846e+18,92.74984599609374,-4.762879848480225,44.124959564208986,-8.437519836425782,1.688686295273846e+18,92.74984599609374,-260.10886840820314,139.1507568359375,-141.16131896972655,1.6886862952680727e+18,92.74407283528645,-0.6016544500986735,0.7251195708910624,-0.2302707781394322,0.2432292699813842,2.6940852801005044,1.3949787219365437,-0.2380760262409846
2.8,1.6886862953199823e+18,92.79598250325522,0.7728814681371053,-0.1870867411295572,0.220672200123469,1.6886862953286377e+18,92.8046376139323,-0.7467600703239441,-9.88016414642334,-0.4851447939872741,1.6886862953199823e+18,92.79598250325522,-1.6213998794555664,-9.650049209594728,-0.6953239242235819,1.6886862953243167e+18,92.80031677246096,-0.2815325260162353,-1.1125383377075195,-0.1257618833333253,1.6886862953243167e+18,92.80031677246096,-0.282601535320282,-1.107956886291504,-0.1231657024472951,,,,,,,,,,,,1.6886862953238446e+18,92.79984458007814,-3.662439966201782,44.17375869750977,-9.29883975982666,1.6886862953238446e+18,92.79984458007814,-259.008447265625,139.19955749511718,-142.02263793945312,1.6886862953199823e+18,92.79598250325522,-0.5929302175839742,0.720522940158844,-0.2518781324227651,0.2564584414164225,2.7364563941955566,1.3899680376052856,-0.3334024349848429
2.85,1.6886862953719017e+18,92.84790152994792,0.5321385463078816,-0.1161645253499348,-0.1656440297762552,1.68868629538055e+18,92.8565498860677,-1.2911272446314497,-9.753942807515465,-0.7704888979593912,1.6886862953719017e+18,92.84790152994792,-1.5647048950195312,-9.662546793619793,-0.6499848961830139,1.6886862953675768e+18,92.8435770670573,-0.1718567560116449,-0.5487606227397919,0.1067487001419066,1.6886862953675768e+18,92.8435770670573,-0.1728748654325802,-0.5441791117191315,0.1092939724524815,,,,,,,,,,,,1.6886862953738511e+18,92.84985122070312,-3.301319885253906,43.788239288330075,-9.96983985900879,1.6886862953738511e+18,92.84985122070312,-258.6473083496094,138.81403503417968,-142.69363708496093,1.6886862953719017e+18,92.84790152994792,-0.5902668436368307,0.7128625909487406,-0.2675309578577677,0.2680067320664723,2.747838338216146,1.397199630737305,-0.386087288459142
2.9,1.6886862954238157e+18,92.89981583658852,-0.5533223152160645,0.1006212234497069,-0.0460037191708882,1.6886862954238167e+18,92.89981689453126,-2.0946170687675476,-9.562018394470217,-0.6382854282855988,1.6886862954238157e+18,92.89981583658852,-1.5013781388600669,-9.67335033416748,-0.6388175884882609,1.6886862954194885e+18,92.8954883626302,-0.0568104684352874,-0.3180062671502431,0.099265602727731,1.6886862954194885e+18,92.8954883626302,-0.0577267656723657,-0.3134247759977976,0.1017090628544489,,,,,,,,,,,,1.688686295423846e+18,92.89984614257811,-3.506279850006103,43.81263885498047,-10.218719673156738,1.688686295423846e+18,92.89984614257811,-258.8522705078125,138.83843994140625,-142.94252014160156,1.6886862954238157e+18,92.89981583658852,-0.5901498198509216,0.7081735134124756,-0.2738822102546692,0.2742207447687784,2.739254872004191,1.403691252072652,-0.3965910573800404
2.95,1.6886862954757263e+18,92.9517264811198,-0.4762736161549886,0.0250031153361003,0.3377879460652669,1.6886862954670769e+18,92.94307690429687,-1.9142581621805828,-9.699705441792808,-0.2564308295647303,1.6886862954757263e+18,92.9517264811198,-1.5144187609354656,-9.672108968098955,-0.6265971064567566,1.688686295471402e+18,92.9474020996094,-0.0087557345007856,0.0801760653654734,-0.0845030241956313,1.688686295471402e+18,92.9474020996094,-0.0097738436112801,0.084655741850535,-0.0819577518850564,,,,,,,,,,,,1.6886862954738452e+18,92.94984516601562,-3.110999917984009,44.049319458007815,-10.308999824523926,1.6886862954738452e+18,92.94984516601562,-258.4570007324219,139.07511291503906,-143.03279724121094,1.6886862954757263e+18,92.9517264811198,-0.5892929832140604,0.7078419725100199,-0.2759468853473663,0.2748547395070393,2.7491992314656577,1.4029368162155151,-0.4107196927070617
3.0,1.6886862955276444e+18,93.0036446940104,0.1954136292139689,-0.0463158289591471,0.1895370185375213,1.6886862955189926e+18,92.99499283854168,-1.5846468210220337,-9.647462209065756,-0.341774841149648,1.6886862955276444e+18,93.0036446940104,-1.5879003604253132,-9.660610834757486,-0.6219155391057333,1.6886862955233196e+18,92.99931949869791,-0.0244346099595228,-0.1425861256817976,-0.1669698332746823,1.6886862955233196e+18,92.99931949869791,-0.0253509068861603,-0.1380555431048075,-0.1644754658142725,,,,,,,,,,,,1.6886862955238497e+18,92.99984946289064,-3.0670798778533936,44.03467864990235,-10.245559692382812,1.6886862955238497e+18,92.99984946289064,-258.4130798339844,139.06047668457032,-142.9693572998047,1.6886862955276444e+18,93.0036446940104,-0.5865766207377116,0.7099185585975647,-0.277390996615092,0.2738479375839233,2.7682027022043862,1.3960662682851157,-0.4306502044200897
3.05,1.6886862955795612e+18,93.05556119791667,0.3487128019332885,-0.0723460515340169,-0.1481225887934367,1.6886862955709002e+18,93.04690047200522,-1.168893814086914,-9.78405221303304,-0.6131607989470164,1.6886862955795612e+18,93.05556119791667,-1.5872612794240315,-9.661499659220375,-0.6094803810119629,1.6886862955752305e+18,93.0512306315104,-0.0642935670912265,-0.167835222557187,0.0981456798811753,1.6886862955752305e+18,93.0512306315104,-0.0652607704202333,-0.1633046362549066,0.1006909571588039,,,,,,,,,,,,1.6886862955738465e+18,93.04984667968748,-3.003639984130859,43.96391906738281,-10.333399772644045,1.6886862955738465e+18,93.04984667968748,-258.34962768554686,138.98971862792968,-143.05719604492188,1.6886862955795612e+18,93.05556119791667,-0.5850297411282858,0.7079498171806335,-0.2823266685009002,0.2771942317485809,2.774887959162394,1.3965894381205242,-0.4501074552536011
3.1,1.6886862956314693e+18,93.10746940104168,-0.257025678952535,0.083661397298177,-0.3067046205202738,1.688686295622817e+18,93.09881697591145,-1.7519449790318806,-9.603593826293944,-0.8887342015902201,1.6886862956314693e+18,93.10746940104168,-1.5262887875239055,-9.671544710795084,-0.6064318219820658,1.6886862956271473e+18,93.1031474609375,-0.0024943665290871,-0.0402661996583143,0.0672460831701755,1.6886862956271473e+18,93.1031474609375,-0.0035633806449671,-0.0357356161500016,0.0697404476037869,,,,,,,,,,,,1.6886862956238487e+18,93.09984887695312,-3.137839984893799,43.8833984375,-10.777479934692384,1.6886862956238487e+18,93.09984887695312,-258.48383178710935,138.90919799804686,-143.50127563476562,1.6886862956314693e+18,93.10746940104168,-0.5869422753651937,0.7056877414385477,-0.2824856440226237,0.2787564496199289,2.763358195622762,1.4025837580362956,-0.4410167634487152
3.15,1.688686295674735e+18,93.1507352294922,0.1851260066032409,-0.0485386848449706,0.1596657633781432,1.6886862956747292e+18,93.15072908528646,-1.3643076817194622,-9.725826899210611,-0.3970091591278711,1.688686295674735e+18,93.1507352294922,-1.5378320813179016,-9.66945457458496,-0.6105886697769165,1.6886862956790633e+18,93.15506355794273,0.0181732413669426,0.0898990033504863,-0.0549269678692022,1.6886862956790633e+18,93.15506355794273,0.0171551321012277,0.0944804897687087,-0.0524326004087924,,,,,,,,,,,,1.6886862956738486e+18,93.14984868164063,-3.025599956512451,43.65891876220703,-10.667679786682127,1.6886862956738486e+18,93.14984868164063,-258.3715881347656,138.684716796875,-143.3914764404297,1.688686295674735e+18,93.1507352294922,-0.5864001512527466,0.7060360312461853,-0.2826559245586395,0.278842881321907,2.763604760169983,1.4013172388076782,-0.4417070895433426
3.2,1.6886862957179963e+18,93.1939962565104,0.2612078189849853,-0.104445457458496,0.4139554997285207,1.688686295726649e+18,93.20264916992188,-1.3028919299443562,-9.778668721516928,-0.1493520140647888,1.6886862957179963e+18,93.1939962565104,-1.5492079655329387,-9.668084144592283,-0.6034625172615051,1.6886862957309747e+18,93.206974609375,-0.0270816919704278,0.0282016120230158,0.0526871268327037,1.6886862957309747e+18,93.206974609375,-0.0280488956874856,0.0327831010023752,0.0552323985223968,,,,,,,,,,,,1.6886862957238474e+18,93.19984750976565,-3.1768799304962156,43.746759033203126,-10.577400016784669,1.6886862957238474e+18,93.19984750976565,-258.52288208007815,138.7725616455078,-143.3011932373047,1.6886862957179963e+18,93.1939962565104,-0.5867380698521932,0.7069424986839294,-0.2814176678657532,0.2770824035008748,2.770103931427002,1.4004855155944824,-0.443598876396815
3.25,1.6886862957699113e+18,93.24591113281252,-0.0844569206237793,0.0809981028238932,0.0403134127457936,1.6886862957785592e+18,93.25455908203124,-1.6767704486846924,-9.593225161234535,-0.5274179776509603,1.6886862957699113e+18,93.24591113281252,-1.504440704981486,-9.676459312438965,-0.5819641550381979,1.6886862957742387e+18,93.25023889160155,-0.048945577815175,-0.0511599648743867,0.1081231497228145,1.6886862957742387e+18,93.25023889160155,-0.0499382335692643,-0.0465784762054681,0.1105666123330592,,,,,,,,,,,,1.688686295773846e+18,93.2498458496094,-3.3476799964904784,43.84435958862305,-10.589599800109864,1.688686295773846e+18,93.2498458496094,-258.6936767578125,138.87015686035156,-143.31339416503906,1.6886862957699113e+18,93.24591113281252,-0.5885447263717651,0.7051347692807516,-0.2819003363450368,0.2773652871449788,2.7724315325419107,1.4056012630462646,-0.4469242294629414
