seconds_elapsed_rounded,accelerometer_time,accelerometer_seconds_elapsed,accelerometer_z,accelerometer_y,accelerometer_x,accelerometeruncalibrated_time,accelerometeruncalibrated_seconds_elapsed,accelerometeruncalibrated_z,accelerometeruncalibrated_y,accelerometeruncalibrated_x,gravity_time,gravity_seconds_elapsed,gravity_z,gravity_y,gravity_x,gyroscope_time,gyroscope_seconds_elapsed,gyroscope_z,gyroscope_y,gyroscope_x,gyroscopeuncalibrated_time,gyroscopeuncalibrated_seconds_elapsed,gyroscopeuncalibrated_z,gyroscopeuncalibrated_y,gyroscopeuncalibrated_x,location_time,location_seconds_elapsed,location_bearingAccuracy,location_speedAccuracy,location_verticalAccuracy,location_horizontalAccuracy,location_speed,location_bearing,location_altitude,location_longitude,location_latitude,magnetometer_time,magnetometer_seconds_elapsed,magnetometer_z,magnetometer_y,magnetometer_x,magnetometeruncalibrated_time,magnetometeruncalibrated_seconds_elapsed,magnetometeruncalibrated_z,magnetometeruncalibrated_y,magnetometeruncalibrated_x,orientation_time,orientation_seconds_elapsed,orientation_qz,orientation_qy,orientation_qx,orientation_qw,orientation_roll,orientation_pitch,orientation_yaw
0.0,1.688686217517069e+18,14.993069173177082,0.0234055519104003,0.0287278493245442,0.0481002330780029,1.688686217525716e+18,15.001715901692709,-0.5292126139005026,-9.692925771077476,-1.2293126185735066,1.688686217517069e+18,14.993069173177082,-0.5632498264312744,-9.7073392868042,-1.2986246744791667,1.6886862175300475e+18,15.006047444661457,-0.0082466808768609,0.0066686117400725,0.015169820593049,1.6886862175300475e+18,15.006047444661457,-0.0093156949927408,0.011148290708661,0.0174605650827288,,,,,,,,,,,,1.6886862175238472e+18,14.999847216796876,-12.824639892578125,42.43891906738281,-0.2220399916172027,1.6886862175238472e+18,14.999847216796876,-268.17063598632814,137.46471557617187,-132.94583740234376,1.688686217517069e+18,14.993069173177082,-0.6718043486277262,0.7251012722651163,-0.0540651666621366,0.1413648774226506,1.979902386665344,1.426020264625549,0.8836909135182699
0.05,1.6886862175689838e+18,15.044983642578124,-0.0371874769528706,0.1220073699951171,-0.1666692097981771,1.6886862175776348e+18,15.053634928385415,-0.5782654682795206,-9.609775225321451,-1.4558331569035847,1.6886862175689838e+18,15.044983642578124,-0.5600845416386923,-9.708295504252115,-1.2928284406661987,1.6886862175733158e+18,15.049315795898435,-0.0250454759225248,-0.0213039254304021,0.0002290743868798,1.6886862175733158e+18,15.049315795898435,-0.0261144898831844,-0.0167987945606001,0.002519819070585,,,,,,,,,,,,1.688686217573847e+18,15.049846972656251,-13.13451976776123,42.36083984375,-0.2025199934840202,1.688686217573847e+18,15.049846972656251,-268.4805114746094,137.3866424560547,-132.926318359375,1.6886862175689838e+18,15.044983642578124,-0.6719794869422913,0.7249812483787537,-0.0541827417910098,0.1411028603712717,1.9794813791910808,1.4266979297002156,0.8843255639076233
0.1,1.688686217620899e+18,15.096898925781252,0.1509808401266733,0.0617052714029947,-0.4677654504776001,1.6886862176295506e+18,15.105550374348958,-0.3908277054627736,-9.682357470194498,-1.6548362572987874,1.688686217620899e+18,15.096898925781252,-0.5729786356290182,-9.708811442057293,-1.2832577228546145,1.6886862176165732e+18,15.09257316080729,-0.0283034221890071,-0.1299615825215975,-0.0632245528201261,1.6886862176165732e+18,15.09257316080729,-0.0293724375466505,-0.1254309937357902,-0.0609338084856669,,,,,,,,,,,,1.6886862176238464e+18,15.099846630859377,-13.246759796142578,42.60239944458008,-0.2122799932956695,1.6886862176238464e+18,15.099846630859377,-268.5927490234375,137.6281982421875,-132.9360778808594,1.688686217620899e+18,15.096898925781252,-0.671237587928772,0.7252708077430725,-0.0563224864502747,0.1422979881366093,1.9905977249145508,1.4270645380020142,0.8684378266334534
0.15,1.6886862176728143e+18,15.148814290364584,0.2757849593957265,-0.0471490224202473,0.0059665044148763,1.6886862176814676e+18,15.15746769205729,-0.3028914630413055,-9.77547804514567,-1.118245800336202,1.6886862176728143e+18,15.148814290364584,-0.582727869351705,-9.706836382548014,-1.2937790950139365,1.688686217668489e+18,15.144488850911458,0.0237219336753089,-0.1029307941595712,-0.0166460784773031,1.688686217668489e+18,15.144488850911458,0.022652919559429,-0.0984511127074559,-0.0143553327458599,,,,,,,,,,,,1.6886862176738468e+18,15.149846728515628,-13.207719802856444,42.37303848266602,-0.1610399961471557,1.6886862176738468e+18,15.149846728515628,-268.55372314453126,137.39883422851562,-132.8848388671875,1.6886862176728143e+18,15.148814290364584,-0.6702976226806641,0.7254412372907003,-0.0585126355290412,0.1449554413557052,1.99388055006663,1.4256645838419597,0.8581963181495667
0.2,1.6886862177247304e+18,15.200730224609377,0.1934833029905954,-0.0212624867757161,0.3474720915158589,1.68868621772473e+18,15.200730102539062,-0.3837489336729049,-9.749855041503906,-0.8620143532752991,1.6886862177247304e+18,15.200730224609377,-0.5720114906628927,-9.706202507019045,-1.3032805522282918,1.6886862177204042e+18,15.196404459635415,0.0122682102179775,-0.0212275671462217,0.0205657963330546,1.6886862177204042e+18,15.196404459635415,0.0111991958692669,-0.0167478891477609,0.0228565409779548,1.6886862177477412e+18,15.2237412109375,0.0,0.0,1.0179662704467771,12.006999969482422,0.2648318409919739,178.18212890625,40.20000076293945,-122.7532054,49.1903595,1.688686217723845e+18,15.199844970703126,-13.061319732666016,42.46331939697266,-0.3220799818634987,1.688686217723845e+18,15.199844970703126,-268.4073181152344,137.48912048339844,-133.0458740234375,1.6886862177247304e+18,15.200730224609377,-0.6704700390497843,0.7250385085741679,-0.0588523310919602,0.1460326214631398,1.9842820167541504,1.4252160390218098,0.8657598892847697
0.25,1.6886862177766449e+18,15.252644694010415,-0.0634221235911051,0.0553639729817707,-0.0394380092620849,1.6886862177679916e+18,15.243991536458331,-0.5643073419729868,-9.679765065511068,-1.229113221168518,1.6886862177766449e+18,15.252644694010415,-0.5496026277542114,-9.707853635152182,-1.3006178935368855,1.68868621777232e+18,15.248320068359376,-0.0026979881028334,0.017155132566889,0.0483092591166495,1.68868621777232e+18,15.248320068359376,-0.0037670021411031,0.0215839048226673,0.0506509083012739,,,,,,,,,,,,1.6886862177738452e+18,15.24984521484375,-12.64407958984375,42.39255981445312,-0.2025200009346008,1.6886862177738452e+18,15.24984521484375,-267.9900756835938,137.418359375,-132.926318359375,1.6886862177766449e+18,15.252644694010415,-0.6713524063428243,0.7242672244707743,-0.0586515913407007,0.1458865900834401,1.9705122311909993,1.4263796011606853,0.8800390561421713
0.3,1.6886862178285606e+18,15.304560546875,-0.0632275342941284,-0.0008033116658528,0.1504618922869364,1.6886862178199068e+18,15.29590665690104,-0.6374878287315369,-9.728020350138346,-1.1661022305488586,1.6886862178285606e+18,15.304560546875,-0.5547822912534078,-9.707120259602863,-1.303877592086792,1.6886862178242358e+18,15.300235921223958,0.0121663995087146,0.0270307877411444,-0.0371609691064804,1.6886862178242358e+18,15.300235921223958,0.0110973850823938,0.0315104654679695,-0.0348702233847385,,,,,,,,,,,,1.688686217823846e+18,15.2998462890625,-13.241879653930663,42.40719909667969,-0.2854799926280975,1.688686217823846e+18,15.2998462890625,-268.5878662109375,137.43299865722656,-133.00927734375,1.6886862178285606e+18,15.304560546875,-0.6712297002474467,0.7244941592216492,-0.0580960797766843,0.1455457905928293,1.972974379857381,1.4258608023325603,0.8788548310597738
0.35,1.6886862178804808e+18,15.356480712890624,0.1311602989832559,-0.0091597239176431,0.1411478718121846,1.6886862178718216e+18,15.347821451822917,-0.4295116662979126,-9.721440315246582,-1.0352946122487383,1.6886862178804808e+18,15.356480712890624,-0.5740952690442404,-9.707138379414875,-1.2953611612319946,1.6886862178761516e+18,15.352151611328123,-0.0259108676885564,0.0271325971698388,-0.0197004045670231,1.6886862178761516e+18,15.352151611328123,-0.0269798810283342,0.0315613703181345,-0.017358754761517,,,,,,,,,,,,1.6886862178738468e+18,15.349846777343748,-13.40536003112793,42.54383926391601,-0.1512799978256225,1.6886862178738468e+18,15.349846777343748,-268.75135498046876,137.56963806152345,-132.8750732421875,1.6886862178804808e+18,15.356480712890624,-0.6706436276435852,0.7251656850179037,-0.0581989375253518,0.1448609282573063,1.987904906272888,1.425873875617981,0.8647595047950745
0.4,1.6886862179237448e+18,15.399744628906248,-0.166697472333908,0.0498504638671874,-0.1026924848556518,1.6886862179237486e+18,15.39974869791667,-0.7136593461036682,-9.683952649434406,-1.308475176493327,1.6886862179237448e+18,15.399744628906248,-0.5752406120300293,-9.70892095565796,-1.2814311981201172,1.6886862179280753e+18,15.404075439453123,-0.0240273661911487,0.0474947712694604,-0.007228571785769,1.6886862179280753e+18,15.404075439453123,-0.025096380462249,0.051974452411135,-0.0048869212623685,,,,,,,,,,,,1.6886862179238487e+18,15.399848779296876,-12.885639762878418,42.6780387878418,-0.334279990196228,1.6886862179238487e+18,15.399848779296876,-268.23163452148435,137.7038360595703,-133.0580810546875,1.6886862179237448e+18,15.399744628906248,-0.6708998084068298,0.7252421677112579,-0.0577447693794965,0.1434671580791472,1.9926615953445437,1.4271367192268372,0.8626630008220673
0.45,1.6886862179670088e+18,15.44300870768229,-0.0734625061353047,0.014651616414388,-0.0159740447998047,1.6886862179756575e+18,15.45165771484375,-0.6039883196353912,-9.72303549448649,-1.2265210151672363,1.6886862179670088e+18,15.44300870768229,-0.5937995910644531,-9.708617210388184,-1.2752283414204917,1.6886862179799908e+18,15.455990885416668,-0.0067704231478273,-0.0186313899854818,-0.054163385182619,1.6886862179799908e+18,15.455990885416668,-0.0078394372637072,-0.0141517114825546,-0.0518726408481597,,,,,,,,,,,,1.6886862179738532e+18,15.449853271484375,-13.002759742736815,42.39743881225586,-0.2854799941182137,1.6886862179738532e+18,15.449853271484375,-268.3487609863281,137.4232391357422,-133.00927734375,1.6886862179670088e+18,15.44300870768229,-0.6702777544657389,0.7258742650349935,-0.0579860545694827,0.1430797527233759,2.006487449010214,1.4269215663274128,0.8490448792775472
0.5,1.6886862180189274e+18,15.49492724609375,0.1969156066576639,-0.0398047765096028,-0.0029122432072957,1.6886862180275791e+18,15.5035791015625,-0.4572285215059916,-9.764909744262695,-1.1938190857569375,1.6886862180189274e+18,15.49492724609375,-0.6089432835578918,-9.707799593607584,-1.274332046508789,1.688686218023254e+18,15.499254028320312,0.0067195175724919,0.0394008089788257,0.0085521130822598,1.688686218023254e+18,15.499254028320312,0.0056505035026929,0.0438295826315879,0.0108428574167192,,,,,,,,,,,,1.6886862180238495e+18,15.49984990234375,-12.748999977111817,42.519438934326175,-0.6343999862670898,1.6886862180238495e+18,15.49984990234375,-268.09498901367186,137.54523315429688,-133.3581970214844,1.6886862180189274e+18,15.49492724609375,-0.6696958740552267,0.7263859709103903,-0.0582404571274915,0.1431045234203338,2.01649538675944,1.4263405005137126,0.8386309742927551
0.55,1.6886862180708454e+18,15.546845540364584,-0.2643779516220093,0.0184071858723958,0.1658165057500203,1.6886862180794944e+18,15.555494466145833,-0.875174880027771,-9.71047306060791,-1.0428718725840251,1.6886862180708454e+18,15.546845540364584,-0.5959051648775736,-9.708185195922852,-1.2775572141011555,1.688686218066517e+18,15.54251708984375,0.0132354137022047,0.0857756622135638,0.0399098629131912,1.688686218066517e+18,15.54251708984375,0.0121663993534941,0.0902044338484605,0.0422006072476505,,,,,,,,,,,,1.6886862180738545e+18,15.549854345703125,-13.217479705810549,42.61703872680664,-0.273279994726181,1.6886862180738545e+18,15.549854345703125,-268.5634765625,137.64283752441406,-132.99707946777343,1.6886862180708454e+18,15.546845540364584,-0.6704623301823934,0.7260672251383463,-0.0564820480843384,0.1418314079443613,2.0071614583333335,1.426612655321757,0.8523086110750834
0.6,1.688686218122757e+18,15.598756998697915,-0.0554373860359191,-0.0097850163777669,0.1314517656962076,1.6886862181314058e+18,15.607405924479169,-0.5978068510691324,-9.730413118998207,-1.0845468441645305,1.688686218122757e+18,15.598756998697915,-0.6104288895924886,-9.707709630330404,-1.274299224217733,1.6886862181184294e+18,15.594429361979168,-0.0063631796122838,-0.0105374253665407,-0.0437277704477309,1.6886862181184294e+18,15.594429361979168,-0.0074321938057739,-0.006057747057639,-0.0414370261132716,,,,,,,,,,,,1.6886862181238492e+18,15.59984921875,-12.96371955871582,42.470639038085935,-0.1756799966096878,1.6886862181238492e+18,15.59984921875,-268.30971069335936,137.496435546875,-132.89947814941405,1.688686218122757e+18,15.598756998697915,-0.6699907183647156,0.7265775005022684,-0.0564676423867543,0.1414531270662943,2.0174407958984375,1.4262776772181194,0.8425896565119425
0.65,1.6886862181746708e+18,15.65067097981771,0.0606648027896881,-0.0469195048014322,0.10543688138326,1.6886862181746683e+18,15.65066845703125,-0.514157772064209,-9.776475429534912,-1.1096714735031128,1.6886862181746708e+18,15.65067097981771,-0.6132707993189493,-9.707464853922524,-1.2748047510782878,1.6886862181703447e+18,15.64634464518229,0.0160352128247419,0.1215112755695978,0.0247909479464093,1.6886862181703447e+18,15.64634464518229,0.014966198708862,0.1259909545381863,0.0270816922808686,,,,,,,,,,,,1.6886862181738522e+18,15.649852343750002,-12.956399726867676,42.4023193359375,-0.1830000028014183,1.6886862181738522e+18,15.649852343750002,-268.3023986816406,137.42811584472656,-132.90679931640625,1.6886862181746708e+18,15.65067097981771,-0.6701334714889526,0.7267775932947794,-0.0551604703068733,0.1402555555105209,2.019110361735026,1.4261032740275066,0.8445033629735311
0.7,1.6886862182265874e+18,15.70258732096354,-0.1977957288424173,0.0353056589762369,0.1258910497029622,1.6886862182179356e+18,15.69393562825521,-0.8083752592404684,-9.702497164408364,-1.0825528303782146,1.6886862182265874e+18,15.70258732096354,-0.61024409532547,-9.707536379496256,-1.2757175366083782,1.6886862182222633e+18,15.698263346354167,0.0016798795356104,0.0569631860901911,0.0152207255208243,1.6886862182222633e+18,15.698263346354167,0.0005599597352556,0.0614428622648119,0.0175114705537755,,,,,,,,,,,,1.688686218223851e+18,15.699851123046876,-12.907599639892576,42.4218391418457,0.1146799996495246,1.688686218223851e+18,15.699851123046876,-268.2535888671875,137.44763793945313,-132.60911560058594,1.6886862182265874e+18,15.70258732096354,-0.670616348584493,0.7268218994140625,-0.0531456967194874,0.1384888639052708,2.0168994267781577,1.4261540571848552,0.8521284659703573
0.75,1.6886862182785006e+18,15.754500813802082,0.0366987188657124,-0.0086472829182942,-0.022566795349121,1.6886862182698455e+18,15.745845377604168,-0.587836762269338,-9.731011390686035,-1.1978071530659993,1.6886862182785006e+18,15.754500813802082,-0.617619792620341,-9.70804977416992,-1.2682368357976277,1.688686218274171e+18,15.750171061197918,-0.0119627777797479,0.0311541284124056,-0.0186313901407022,1.688686218274171e+18,15.750171061197918,-0.0130317920508483,0.0356847099028527,-0.0163406456510225,,,,,,,,,,,,1.6886862182738506e+18,15.749850683593753,-13.193079948425291,42.534078979492186,-0.1488399982452392,1.6886862182738506e+18,15.749850683593753,-268.5390686035156,137.55987548828125,-132.8726318359375,1.6886862182785006e+18,15.754500813802082,-0.6704518795013428,0.7270787159601847,-0.053170371800661,0.1379264791806538,2.0239057540893555,1.426517923672994,0.8458961049715678
0.8,1.6886862183304174e+18,15.80641748046875,0.0013918280601501,0.0240624745686849,-0.1459966897964477,1.6886862183217672e+18,15.797767333984376,-0.5988038778305054,-9.696714401245115,-1.3397812843322754,1.6886862183304174e+18,15.80641748046875,-0.621993879477183,-9.708057721455893,-1.2660432656606038,1.6886862183260897e+18,15.80208992513021,-0.0041233404772355,0.0177150915066401,-0.0013235413935035,1.6886862183260897e+18,15.80208992513021,-0.0051923545543103,0.0221947701647877,0.0009672033678119,,,,,,,,,,,,1.688686218323851e+18,15.799851123046874,-12.783159828186037,42.42183990478516,-0.0585600078105926,1.688686218323851e+18,15.799851123046874,-268.129150390625,137.44764099121093,-132.78235778808593,1.6886862183304174e+18,15.80641748046875,-0.6704388856887817,0.7272758285204569,-0.0525682506461937,0.1371793746948241,2.0273749033610025,1.4265223741531372,0.8443568547566732
0.85,1.6886862183736817e+18,15.849681762695312,-0.0552658736705779,0.0510716438293456,-0.0673408508300781,1.688686218373682e+18,15.849681640625,-0.68015984694163,-9.695318539937338,-1.2763714790344238,1.6886862183736817e+18,15.849681762695312,-0.6223650872707367,-9.708047866821287,-1.2659353613853457,1.6886862183780104e+18,15.854010253906251,-0.0058541253674774,-0.0604247537751992,-0.0044287729930752,1.6886862183780104e+18,15.854010253906251,-0.0069231395609676,-0.0559450748066107,-0.0021380283287726,,,,,,,,,,,,1.68868621837385e+18,15.84985,-12.93444004058838,42.37547836303711,-0.4147999823093414,1.68868621837385e+18,15.84985,-268.2804321289062,137.40127868652343,-133.1385986328125,1.6886862183736817e+18,15.849681762695312,-0.6703073382377625,0.7272426784038544,-0.0532017704099416,0.1377524957060813,2.0276434421539307,1.426516354084015,0.8423621952533722
0.9,1.688686218416944e+18,15.892943929036456,-0.091029663880666,0.0286782582600911,-0.0833345651626586,1.688686218425597e+18,15.901596435546873,-0.7102695107460022,-9.696515083312988,-1.316650668780009,1.688686218416944e+18,15.892943929036456,-0.6220948497454325,-9.707887649536133,-1.2672895987828572,1.6886862184299215e+18,15.905921630859376,0.0029525153416519,-0.0836376336713631,-0.0143044278180847,1.6886862184299215e+18,15.905921630859376,0.0018835011869668,-0.0792088595529397,-0.0119627776245275,,,,,,,,,,,,1.688686218423853e+18,15.899853222656253,-12.853919792175294,42.4218391418457,-0.161039999127388,1.688686218423853e+18,15.899853222656253,-268.1999206542969,137.44763793945313,-132.88483581542968,1.688686218416944e+18,15.892943929036456,-0.6701198021570841,0.7271641890207926,-0.054137452195088,0.1387107769648233,2.0270496209462485,1.4264028469721477,0.8402437567710876
0.95,1.688686218468858e+18,15.944858235677083,-0.0409509936968485,0.0261653264363606,-0.1098061005274454,1.6886862184775137e+18,15.95351350911458,-0.6372884114583334,-9.70329475402832,-1.3066805601119995,1.688686218468858e+18,15.944858235677083,-0.6227218508720398,-9.70677089691162,-1.275514006614685,1.6886862184731878e+18,15.949187988281247,0.0145844072103499,-0.1595885381102562,-0.0083993970183655,1.6886862184731878e+18,15.949187988281247,0.0135153937153517,-0.1550070568919181,-0.006108652538387,,,,,,,,,,,,1.6886862184738511e+18,15.949851123046876,-13.244320106506349,42.51211929321289,-0.2366799861192703,1.6886862184738511e+18,15.949851123046876,-268.59031372070314,137.5379150390625,-132.96047668457032,1.688686218468858e+18,15.944858235677083,-0.6696040034294128,0.7270381251970927,-0.0560836593310037,0.1410651902357737,2.0248937606811523,1.425613244374593,0.8362334966659546
1.0,1.6886862185207754e+18,15.996775553385415,-0.0290646751721699,-0.0215225219726562,0.0151553551355997,1.6886862185294223e+18,16.005422281901044,-0.6514459649721781,-9.753344535827637,-1.1872388521830242,1.6886862185207754e+18,15.996775553385415,-0.6200518210728964,-9.704546928405762,-1.2935960292816162,1.6886862185164472e+18,15.992447265625,0.0334448715051014,-0.1153008143107095,-0.0183768634063501,1.6886862185164472e+18,15.992447265625,0.0323758584757645,-0.110770230491956,-0.0160861177525172,,,,,,,,,,,,1.6886862185238502e+18,15.999850439453123,-13.01739959716797,42.64387969970703,-0.2073999971151351,1.6886862185238502e+18,15.999850439453123,-268.3634033203125,137.669677734375,-132.9311981201172,1.6886862185207754e+18,15.996775553385415,-0.6690858602523804,0.7268054882685343,-0.0578627338012059,0.1439759383598963,2.0176941553751626,1.424056092898051,0.836699366569519
1.05,1.6886862185726874e+18,16.0486875,0.0947267512480417,-0.0655832290649413,0.1728320916493733,1.6886862185813402e+18,16.057340006510415,-0.4973083039124806,-9.783254941304524,-1.0652048985163372,1.6886862185726874e+18,16.0486875,-0.6218093236287435,-9.701761881510416,-1.313486099243164,1.6886862185683653e+18,16.044365478515626,0.0332921563337246,-0.1391245598594347,-0.0117591566716631,1.6886862185683653e+18,16.044365478515626,0.0322231414417425,-0.1346957857410112,-0.0094684110954403,,,,,,,,,,,,1.6886862185738534e+18,16.049853369140624,-12.473279762268067,42.712198638916014,-0.0585599943995475,1.6886862185738534e+18,16.049853369140624,-267.81926879882815,137.7379943847656,-132.78235473632813,1.6886862185726874e+18,16.0486875,-0.6683507760365804,0.7267165780067444,-0.059726641823848,0.1470444798469543,2.0128794511159263,1.422126531600952,0.8344240784645081
1.1,1.688686218624606e+18,16.100605712890626,-0.068843921025594,-0.0164957046508789,0.2552117904027303,1.6886862186246065e+18,16.1006064453125,-0.6696912348270416,-9.736096382141112,-1.0292128324508667,1.688686218624606e+18,16.100605712890626,-0.5974211494127909,-9.699603398640951,-1.340432087580363,1.688686218620282e+18,16.09628238932292,0.0692823007702827,0.0386372270683447,0.0655152996381123,1.688686218620282e+18,16.09628238932292,0.0682132852574188,0.0431678108870982,0.0678060414890447,,,,,,,,,,,,1.688686218623851e+18,16.09985107421875,-12.736799812316894,42.61459884643555,-0.0658799964934587,1.688686218623851e+18,16.09985107421875,-268.0827941894531,137.64039916992186,-132.7896759033203,1.688686218624606e+18,16.100605712890626,-0.6689624389012655,0.7259202003479004,-0.0590042695403098,0.1484821687142054,1.9900242884953816,1.4206475416819255,0.8562378287315369
1.15,1.6886862186765192e+18,16.152519205729167,-0.1755750179290771,-0.0423415501912434,0.4906981984774272,1.6886862186678694e+18,16.143869384765626,-0.7595217823982239,-9.753743171691896,-0.8492526412010193,1.6886862186765192e+18,16.152519205729167,-0.5881975690523783,-9.6972869237264,-1.3611626227696736,1.6886862186721974e+18,16.14819734700521,0.0404698221633831,0.0996728440125783,0.0095702226584156,1.6886862186721974e+18,16.14819734700521,0.0394008078922827,0.1042034303148587,0.0118609673033157,,,,,,,,,,,,1.6886862186738532e+18,16.14985322265625,-12.873439598083497,42.58531875610352,0.1439600020647048,1.6886862186738532e+18,16.14985322265625,-268.2194396972656,137.61111755371093,-132.579833984375,1.6886862186765192e+18,16.152519205729167,-0.6695109605789185,0.7258046269416809,-0.056385180602471,0.1475905179977416,1.97862176100413,1.4190767208735149,0.8726556499799093
1.2,1.6886862187284396e+18,16.204439371744794,-0.0102696120738982,0.001448631286621,0.1151390075683593,1.6886862187197847e+18,16.195784505208334,-0.6474579175313314,-9.711270650227863,-1.0622138579686482,1.6886862187284396e+18,16.204439371744794,-0.589993437131246,-9.69760767618815,-1.3580861488978069,1.6886862187241116e+18,16.20011189778646,-0.0141008062443385,-0.033699399481217,0.0111482900877793,1.6886862187241116e+18,16.20011189778646,-0.0151698202826082,-0.0291688162833451,0.0134390358192225,1.688686218718766e+18,16.19476611328125,0.0,0.0,1.0275866985321045,11.605999946594238,0.2868983745574951,177.01487731933594,40.20000076293945,-122.7532042,49.1903549,1.688686218723851e+18,16.199851171875,-13.34923973083496,42.45111923217773,0.3684399962425232,1.688686218723851e+18,16.199851171875,-268.6952270507812,137.47691650390624,-132.35535583496093,1.6886862187284396e+18,16.204439371744794,-0.6695345640182495,0.725883682568868,-0.0561817449827988,0.1471727440754572,1.980558713277181,1.4192941983540852,0.871612032254537
1.25,1.6886862187803525e+18,16.256352701822916,0.110669583082199,-0.0793876647949218,0.0320406754811604,1.688686218771697e+18,16.24769685872396,-0.4356931149959564,-9.797611554463703,-1.337986667950948,1.6886862187803525e+18,16.256352701822916,-0.5747411648432413,-9.697927792867024,-1.36232590675354,1.6886862187760292e+18,16.252029052734375,0.0334448711170504,0.0580831039696931,0.036702820410331,1.6886862187760292e+18,16.252029052734375,0.0323758589414258,0.0626136853049198,0.0390953756868838,,,,,,,,,,,,1.6886862187738527e+18,16.249852490234375,-12.968599700927737,42.36815948486328,0.0244000002741813,1.6886862187738527e+18,16.249852490234375,-268.31459350585936,137.39395446777343,-132.69939880371095,1.6886862187803525e+18,16.256352701822916,-0.6700767874717712,0.7253707846005758,-0.0558868112663427,0.1473441173632939,1.9699748357137044,1.4195092121760051,0.8823753396670023
1.3,1.6886862188236155e+18,16.299615478515626,-0.071920096874237,0.0295772552490233,0.41049724817276,1.6886862188236155e+18,16.299615315755208,-0.6207380890846252,-9.702297528584795,-0.9535398483276368,1.6886862188236155e+18,16.299615478515626,-0.5590508282184601,-9.696424007415771,-1.3794662356376648,1.688686218827942e+18,16.303942220052082,0.034717507349948,0.1231402506430943,0.0580831045905748,1.688686218827942e+18,16.303942220052082,0.0336484938549498,0.1276199296116828,0.0603738489250341,,,,,,,,,,,,1.688686218823851e+18,16.299851123046874,-12.50011978149414,42.294959259033206,0.7539599791169167,1.688686218823851e+18,16.299851123046874,-267.8461181640625,137.3207580566406,-131.96983642578124,1.6886862188236155e+18,16.299615478515626,-0.6709371209144592,0.7250272333621979,-0.053131429478526,0.1461357101798057,1.955780267715454,1.4184941053390503,0.902238130569458
1.35,1.6886862188668713e+18,16.342871337890625,-0.1049127578735351,0.0307168960571289,0.0470968882242838,1.688686218875528e+18,16.35152783203125,-0.6309075752894083,-9.67916711171468,-1.3445669412612915,1.6886862188668713e+18,16.342871337890625,-0.5432067513465881,-9.697563807169596,-1.3777808745702107,1.688686218879859e+18,16.355859130859375,-0.010791952566554,0.0723875313997268,0.0387899422397215,1.688686218879859e+18,16.355859130859375,-0.0118609666824339,0.0768163042763868,0.0410806878159442,,,,,,,,,,,,1.6886862188738506e+18,16.349850732421874,-12.927119636535645,42.2729995727539,0.4391999840736389,1.6886862188738506e+18,16.349850732421874,-268.2731079101562,137.29879455566407,-132.28460083007812,1.6886862188668713e+18,16.342871337890625,-0.6718701322873434,0.7245921691258749,-0.0514393312235673,0.1446041762828826,1.9462844928105671,1.4192625284194946,0.9163609345753986
1.4,1.688686218918795e+18,16.394794840494793,0.0044100880622863,0.0519189834594726,-0.1667771339416503,1.6886862189274412e+18,16.40344140625,-0.515852669874827,-9.665806770324709,-1.444467266400655,1.688686218918795e+18,16.394794840494793,-0.5340848763783773,-9.698626200358072,-1.3738770484924316,1.6886862189231217e+18,16.39912158203125,0.0058032199158333,0.0795651972293853,0.0226020142436027,1.6886862189231217e+18,16.39912158203125,0.0047342058969661,0.0839939713478088,0.024892758578062,,,,,,,,,,,,1.6886862189238533e+18,16.39985322265625,-13.171119689941406,42.18027954101562,0.4538399875164032,1.6886862189238533e+18,16.39985322265625,-268.5171142578125,137.2060791015625,-132.26995849609375,1.688686218918795e+18,16.394794840494793,-0.6724925637245178,0.7243547439575195,-0.0502469949424266,0.1433141529560089,1.941500465075175,1.4199808835983276,0.9247069358825684
1.45,1.6886862189707092e+18,16.446709472656252,0.0030043919881184,0.0107094446818033,0.0142522652943928,1.688686218979362e+18,16.455362060546875,-0.5160520871480306,-9.71466064453125,-1.294716437657674,1.6886862189707092e+18,16.446709472656252,-0.5298875570297241,-9.698294003804524,-1.3778375784556072,1.6886862189663834e+18,16.442383138020833,0.01130100665614,0.0859283780058224,0.0150680096509555,1.6886862189663834e+18,16.442383138020833,0.0102319930059213,0.090458961824576,0.0173587541406352,,,,,,,,,,,,1.6886862189738468e+18,16.449846875,-13.446839714050292,42.04851913452149,0.4904399871826171,1.6886862189738468e+18,16.449846875,-268.79283447265624,137.07431640625,-132.2333557128906,1.6886862189707092e+18,16.446709472656252,-0.6729545791943868,0.7243351737658182,-0.0483685098588466,0.1418836812178293,1.9378812313079832,1.4197558561960857,0.933060864607493
1.5,1.688686219022624e+18,16.49862394205729,0.0660021603107452,0.0315335591634114,0.0140943129857381,1.6886862190312735e+18,16.507273763020834,-0.4380859434604645,-9.70050303141276,-1.3182458877563477,1.688686219022624e+18,16.49862394205729,-0.5260857144991556,-9.698579788208006,-1.377280831336975,1.688686219018297e+18,16.494297526041667,-0.0015271631418727,0.0365501039971907,0.0194458769013483,1.688686219018297e+18,16.494297526041667,-0.0025961772383501,0.0410297823448975,0.0217366212358076,,,,,,,,,,,,1.6886862190238546e+18,16.499854638671874,-13.349239540100095,42.39011917114258,0.8027599573135376,1.6886862190238546e+18,16.499854638671874,-268.6952331542969,137.4159149169922,-131.92103271484376,1.688686219022624e+18,16.49862394205729,-0.6732759475708008,0.7242616812388102,-0.0474623478949069,0.1410381694634755,1.935611565907796,1.4199483394622805,0.9378386537233988
1.55,1.6886862190745408e+18,16.55054093424479,0.0711151361465453,0.0007282892862955,-0.0325353542963663,1.688686219074539e+18,16.550538818359374,-0.4322035908699035,-9.71067237854004,-1.3483555912971497,1.6886862190745408e+18,16.55054093424479,-0.51823757092158,-9.699479420979818,-1.3739213546117146,1.6886862190702118e+18,16.5462119140625,-0.003665191528853,0.0615955789883931,0.0200567419330278,1.6886862190702118e+18,16.5462119140625,-0.0047342057223431,0.0661261615653832,0.0223983923594156,,,,,,,,,,,,1.6886862190738488e+18,16.549848876953128,-13.410239601135254,42.3169189453125,0.6295199751853943,1.6886862190738488e+18,16.549848876953128,-268.7562316894531,137.34272155761718,-132.09427795410156,1.6886862190745408e+18,16.55054093424479,-0.6737852692604065,0.7240456541379293,-0.0465395922462144,0.1400187015533446,1.931440472602844,1.420559247334798,0.9447962045669556
1.6,1.6886862191264517e+18,16.602451497395833,-0.0302497645219167,0.0450436274210611,-0.0718142986297606,1.6886862191178038e+18,16.593803955078126,-0.5114658375581106,-9.660024325052897,-1.356531023979187,1.6886862191264517e+18,16.602451497395833,-0.5076005061467489,-9.700125376383465,-1.3733264207839966,1.68868621912213e+18,16.598130045572915,0.0032579479351018,0.0662279725074767,0.0336484940101702,1.68868621912213e+18,16.598130045572915,0.0021889338386244,0.0706567466259002,0.0359392389655112,,,,,,,,,,,,1.688686219123853e+18,16.59985322265625,-13.522479820251466,42.43403930664063,0.639279979467392,1.688686219123853e+18,16.59985322265625,-268.86847534179685,137.4598358154297,-132.0845184326172,1.6886862191264517e+18,16.602451497395833,-0.6744343241055807,0.7237563530604044,-0.045197362701098,0.1388238271077473,1.924787441889445,1.4209993680318196,0.9550822774569192
1.65,1.6886862191783693e+18,16.654369303385415,-0.0353477398554484,0.038749059041341,-0.086078921953837,1.6886862191697183e+18,16.645718424479167,-0.5668995678424835,-9.677172978719074,-1.4113665421803792,1.6886862191783693e+18,16.654369303385415,-0.5056929588317871,-9.700211842854818,-1.3734187285105388,1.688686219174047e+18,16.650047037760416,-0.0024943663738667,-0.0020362176340617,-0.0036142861936241,1.688686219174047e+18,16.650047037760416,-0.0035633805673569,0.0023925554317732,-0.0013235413498478,,,,,,,,,,,,1.688686219173849e+18,16.64984921875,-13.385839653015136,42.231520080566405,0.8125199675559998,1.688686219173849e+18,16.64984921875,-268.73182983398436,137.25731506347657,-131.9112762451172,1.6886862191783693e+18,16.654369303385415,-0.6745751698811849,0.723712702592214,-0.0448153254886468,0.1384914368391036,1.9235376119613647,1.4210590521494548,0.9573544263839722
1.7,1.688686219230287e+18,16.706287353515624,0.0686870018641153,-0.0011990865071614,0.0250097115834553,1.6886862192216297e+18,16.69762939453125,-0.4396811525026957,-9.718050638834637,-1.306879957516988,1.688686219230287e+18,16.706287353515624,-0.512419601281484,-9.699545860290527,-1.3756339152654011,1.6886862192259553e+18,16.70195540364583,0.0040215294963369,0.002647082787007,-0.0122682099851468,1.6886862192259553e+18,16.70195540364583,0.0029525154580672,0.0071267612899342,-0.0099774654954671,,,,,,,,,,,,1.6886862192238528e+18,16.699852929687502,-13.249199867248535,42.15831909179688,0.4733599960803986,1.6886862192238528e+18,16.699852929687502,-268.5951904296875,137.18411865234376,-132.25043640136718,1.688686219230287e+18,16.706287353515624,-0.6743074655532837,0.723951538403829,-0.044784748305877,0.1385567883650461,1.9273187319437664,1.4206037123998003,0.9535198012987772
1.75,1.6886862192735478e+18,16.7495478515625,0.0965096503496169,-0.0105209350585937,0.0633648037910461,1.688686219273545e+18,16.749545166015626,-0.4317050874233246,-9.715059598286947,-1.251047412554423,1.6886862192735478e+18,16.7495478515625,-0.5085373520851135,-9.699994564056396,-1.3739091753959656,1.68868621927787e+18,16.753870035807292,-0.0019344066192085,0.0484110706796248,0.0188350118696689,1.68868621927787e+18,16.753870035807292,-0.0030034207738935,0.0529416544983784,0.0211257568250099,,,,,,,,,,,,1.68868621927385e+18,16.749849951171875,-13.600559616088868,42.24371871948242,0.7929999947547912,1.68868621927385e+18,16.749849951171875,-268.94655151367186,137.26951904296874,-131.93079833984376,1.6886862192735478e+18,16.7495478515625,-0.6745309829711914,0.7238346040248871,-0.0444717351347207,0.138180062174797,1.9252535104751587,1.4209096431732178,0.9565747678279876
1.8,1.6886862193168049e+18,16.792804931640624,-0.1100350618362426,0.0146894454956054,0.0126874446868896,1.6886862193254582e+18,16.8014580078125,-0.616550624370575,-9.70648511250814,-1.3016955057779949,1.6886862193168049e+18,16.792804931640624,-0.5041861136754354,-9.70047918955485,-1.3720852931340537,1.6886862193297928e+18,16.805792643229164,-0.0005090543757736,0.0307468846440314,0.0067195175215601,1.6886862193297928e+18,16.805792643229164,-0.0015780685159066,0.0351756565893689,0.0091120731085538,1.688686219321e+18,16.797,0.0,0.0,0.9798808693885804,11.543999671936035,0.3022684454917907,177.72024536132812,40.20000076293945,-122.7532046,49.1903517,1.6886862193238502e+18,16.799850097656254,-13.524919891357422,42.24127883911133,0.5831599771976471,1.6886862193238502e+18,16.799850097656254,-268.8709228515625,137.26707763671874,-132.14063720703126,1.6886862193168049e+18,16.792804931640624,-0.6748724778493246,0.7237324714660645,-0.0436345115303993,0.1373115877310434,1.922896424929301,1.4212406873703003,0.961374580860138
1.85,1.6886862193687247e+18,16.844724772135418,-0.0491058230400085,0.03865114847819,0.0003151496251424,1.6886862193773793e+18,16.853379231770834,-0.5383851130803426,-9.687342325846354,-1.3250255584716797,1.6886862193687247e+18,16.844724772135418,-0.5078870256741842,-9.700512886047363,-1.3704807360967,1.68868621937305e+18,16.849050170898437,-0.0068722337018697,-0.0003817907781921,-0.0087048296118154,1.68868621937305e+18,16.849050170898437,-0.0079412483610212,0.0040469822706654,-0.0064140850590773,,,,,,,,,,,,1.688686219373854e+18,16.849853955078125,-13.74451961517334,42.32179946899414,0.6099999934434891,1.688686219373854e+18,16.849853955078125,-269.09051513671875,137.34759521484375,-132.11380004882812,1.6886862193687247e+18,16.844724772135418,-0.6747977137565613,0.7238739728927612,-0.0434471517801284,0.1369925737380981,1.9256507953008015,1.421263853708903,0.9593444665273032
1.9,1.688686219420639e+18,16.896638834635414,0.0416134496529896,0.0020716985066731,-0.0603809356689452,1.688686219429294e+18,16.90529410807292,-0.4681956271330516,-9.714461008707682,-1.3535399834314985,1.688686219420639e+18,16.896638834635414,-0.5108694831530253,-9.700423876444498,-1.3700040181477864,1.6886862194163146e+18,16.892314778645833,-0.0001527163161275,-0.016595172540595,-0.0089084516124178,1.6886862194163146e+18,16.892314778645833,-0.0012217304902151,-0.01206458817857,-0.0066177066958818,,,,,,,,,,,,1.6886862194238528e+18,16.899852734375,-13.7933198928833,42.02900009155273,0.7588399887084961,1.6886862194238528e+18,16.899852734375,-269.1393127441406,137.05480041503907,-131.96495666503907,1.688686219420639e+18,16.896638834635414,-0.6746528347333273,0.7239649693171183,-0.0436807138224442,0.1371507495641708,1.927677591641744,1.4212029774983723,0.956756591796875
1.95,1.6886862194725583e+18,16.94855851236979,0.0091101030508677,0.0177580515543619,-0.0262971321741739,1.6886862194812063e+18,16.957206298828126,-0.5082753996054331,-9.692327817281088,-1.3280165592829387,1.6886862194725583e+18,16.94855851236979,-0.5056841969490051,-9.700556755065918,-1.370987097422282,1.6886862194682304e+18,16.94423038736979,0.0016289740257585,-0.0050905436898271,0.0154752527984479,1.6886862194682304e+18,16.94423038736979,0.0005599597255543,-0.0006108652063024,0.0178169030696152,,,,,,,,,,,,1.688686219473851e+18,16.94985107421875,-13.749399757385254,42.199799346923825,0.5611999869346619,1.688686219473851e+18,16.94985107421875,-269.09539184570315,137.22559814453126,-132.16259765625,1.6886862194725583e+18,16.94855851236979,-0.6747941573460897,0.7237724264462789,-0.0438457367320855,0.1374188462893167,1.9241172870000205,1.4212934573491414,0.959698756535848
2.0,1.688686219524472e+18,17.00047208658854,-0.1282134254773457,0.0271650950113931,0.0702264706293741,1.688686219524474e+18,17.00047375488281,-0.6382854282855988,-9.684351444244388,-1.2299108505249023,1.688686219524472e+18,17.00047208658854,-0.5055491328239441,-9.700392723083496,-1.3721965948740642,1.6886862195201436e+18,16.996143880208333,0.0004072436131536,-0.0079412477789447,-0.0044796785999399,1.6886862195201436e+18,16.996143880208333,-0.0006617708131671,-0.0035124756395817,-0.0021889337028066,,,,,,,,,,,,1.6886862195238502e+18,16.999850292968752,-13.800639724731443,42.19735946655273,0.6856399655342102,1.6886862195238502e+18,16.999850292968752,-269.1466430664062,137.22315673828126,-132.03815612792968,1.688686219524472e+18,17.00047208658854,-0.6747892697652181,0.7237697243690491,-0.0438080889483292,0.1374690781037012,1.9237406253814695,1.4211819966634114,0.9600561062494912
2.05,1.6886862195763855e+18,17.052385579427085,0.0686576664447784,-0.0063775380452474,0.0104721784591675,1.6886862195677368e+18,17.043736816406252,-0.4681956271330516,-9.727621714274088,-1.2815559307734172,1.6886862195763855e+18,17.052385579427085,-0.5109944343566895,-9.700549125671388,-1.369072437286377,1.688686219572061e+18,17.048060791015626,-0.0102319931611418,-0.0738637894392013,-0.0212784726172684,1.688686219572061e+18,17.048060791015626,-0.0113010071218013,-0.0693841104706128,-0.0189877279723683,,,,,,,,,,,,1.6886862195738537e+18,17.049853662109378,-13.610319709777832,42.16563873291015,0.5807199746370315,1.6886862195738537e+18,17.049853662109378,-268.95631103515626,137.19143676757812,-132.14307861328126,1.6886862195763855e+18,17.052385579427085,-0.6743933955828348,0.7238825360933939,-0.0450906828045844,0.1383985877037048,1.9279762903849285,1.4212878942489624,0.952656884988149
2.1,1.6886862196283046e+18,17.1043046875,0.0096676448980967,-0.0046790440877278,0.0453882217407226,1.6886862196196518e+18,17.09565185546875,-0.4364907244841258,-9.735597610473633,-1.2911272446314497,1.6886862196283046e+18,17.1043046875,-0.5046465198198954,-9.70065212249756,-1.3706883589426675,1.6886862196239752e+18,17.099975260416667,0.0115555342442045,0.0252490956336259,0.0222965814173221,1.6886862196239752e+18,17.099975260416667,0.0104865198954939,0.0297796810045838,0.0246382318437099,,,,,,,,,,,,1.6886862196238533e+18,17.099853369140625,-13.595679664611817,42.23639831542969,0.5831599712371827,1.6886862196238533e+18,17.099853369140625,-268.9416748046875,137.26220092773437,-132.14063720703126,1.6886862196283046e+18,17.1043046875,-0.674570103486379,0.7236502567927042,-0.0452371935049692,0.1387045582135518,1.9235236644744873,1.4213584661483765,0.9564629594484964
2.15,1.6886862196802202e+18,17.15622005208333,-0.0912784337997436,0.0010964075724283,0.1151317755381265,1.6886862196715692e+18,17.147569091796875,-0.6376872261365255,-9.707282702128092,-1.1627124150594077,1.6886862196802202e+18,17.15622005208333,-0.5043983856836954,-9.700445810953775,-1.3722364902496338,1.688686219675889e+18,17.151888834635418,-0.0047342053924997,-0.0457130838185548,-0.0138971845929821,1.688686219675889e+18,17.151888834635418,-0.0058032199740409,-0.0412334045395255,-0.0116064397928615,,,,,,,,,,,,1.6886862196738511e+18,17.149851171875,-13.341919708251954,42.19491882324219,0.6221999764442444,1.6886862196738511e+18,17.149851171875,-268.6879150390625,137.22071533203126,-132.10159606933593,1.6886862196802202e+18,17.15622005208333,-0.6745466391245524,0.72363809744517,-0.0452906067172685,0.1388641446828841,1.9229984283447263,1.4212181568145752,0.9566829403241476
2.2,1.6886862197234775e+18,17.1994775390625,0.1629362255334854,-0.0221147537231445,0.0666165351867675,1.6886862197234757e+18,17.199475748697918,-0.3599204023679097,-9.740981419881184,-1.247657577196757,1.6886862197234775e+18,17.1994775390625,-0.5079648792743683,-9.700664043426514,-1.3693842887878418,1.6886862197278044e+18,17.20380452473958,0.0003054325934499,-0.0037670024515439,0.0009672036006425,1.6886862197278044e+18,17.20380452473958,-0.0007635814060146,0.0007126761289933,0.0033088535225639,,,,,,,,,,,,1.6886862197238472e+18,17.199847314453127,-13.4541597366333,42.30959930419922,0.5026399850845337,1.6886862197238472e+18,17.199847314453127,-268.8001647949219,137.335400390625,-132.22115478515624,1.6886862197234775e+18,17.1994775390625,-0.6742911636829376,0.7237089276313782,-0.0461643785238265,0.1394480615854263,1.9259682297706604,1.421366572380066,0.9516293108463288
2.25,1.6886862197667474e+18,17.24274747721354,0.0185926059881846,-0.0060113271077473,0.0083190202713012,1.688686219775398e+18,17.251398356119793,-0.5210371414820353,-9.705089251200356,-1.297707478205363,1.6886862197667474e+18,17.24274747721354,-0.5006103515625,-9.700915336608888,-1.370309154192607,1.6886862197797233e+18,17.25572314453125,0.006006841547787,0.0187332009615299,0.0216857163856426,1.6886862197797233e+18,17.25572314453125,0.0049378275095174,0.023263784435888,0.0239764607201019,1.6886862197622572e+18,17.238257080078125,0.0,0.0,0.98430734872818,11.416999816894531,0.2821057736873626,178.11668395996094,40.20000076293945,-122.753205,49.1903527,1.6886862197738534e+18,17.249853515625,-13.166239738464355,42.49503936767578,0.3903999924659729,1.6886862197738534e+18,17.249853515625,-268.5122375488281,137.52083740234374,-132.3333953857422,1.6886862197667474e+18,17.24274747721354,-0.6746325095494589,0.7234799861907959,-0.0456930175423621,0.1391396870215733,1.9210235675175984,1.4215381940205891,0.9576916297276816
2.3,1.688686219818658e+18,17.294658121744792,-0.1161233981450398,0.0196199417114257,0.0437942345937093,1.688686219827314e+18,17.303313802083334,-0.5686941941579183,-9.719446182250978,-1.2807583411534629,1.688686219818658e+18,17.294658121744792,-0.4953061540921529,-9.700823783874512,-1.3728830416997273,1.688686219831641e+18,17.30764152018229,0.0066177068899074,-0.0083993971347808,-0.0161370231459538,1.688686219831641e+18,17.30764152018229,0.005548692618807,-0.0039706241417054,-0.0138462785010536,,,,,,,,,,,,1.688686219823849e+18,17.299849169921874,-13.693279838562011,42.23883972167969,0.6051199793815613,1.688686219823849e+18,17.299849169921874,-269.0392822265625,137.26463928222657,-132.11867980957032,1.688686219818658e+18,17.294658121744792,-0.6748329599698385,0.723308245340983,-0.0454502167801062,0.1391401588916778,1.9170015255610149,1.4214758078257244,0.9620591799418132
2.35,1.6886862198705777e+18,17.34657763671875,0.1325854261716206,-0.0256557464599608,0.1150280237197876,1.6886862198792282e+18,17.355228190104167,-0.3571287790934245,-9.744770050048828,-1.1645070314407349,1.6886862198705777e+18,17.34657763671875,-0.5065273642539978,-9.699615478515623,-1.3773171504338582,1.6886862198749046e+18,17.350904418945312,0.0136681096628307,-0.0142026175744831,-0.0177150912350043,1.6886862198749046e+18,17.350904418945312,0.0125990957021712,-0.0096974857151507,-0.0154243467841297,,,,,,,,,,,,1.6886862198738516e+18,17.3498515625,-13.312639808654785,42.52919921875,0.7466399788856506,1.6886862198738516e+18,17.3498515625,-268.65863037109375,137.55499572753905,-131.97715759277344,1.6886862198705777e+18,17.34657763671875,-0.6743401487668356,0.7236950794855753,-0.0455855329831441,0.1394732296466827,1.9231698910395305,1.420650323232015,0.9552122553189596
2.4,1.6886862199224916e+18,17.39849178059896,-0.0171658198038737,-0.0150645573933919,0.0978010495503742,1.6886862199311442e+18,17.407144287109375,-0.5529414316018423,-9.718249956766764,-1.2388839324315388,1.6886862199224916e+18,17.39849178059896,-0.4907741844654083,-9.700236956278482,-1.3786346117655437,1.6886862199181622e+18,17.394162353515625,0.0037160969804971,0.0415897425264119,0.051159964253505,1.6886862199181622e+18,17.394162353515625,0.002647082787007,0.0461712305744488,0.0535016134381294,,,,,,,,,,,,1.6886862199238538e+18,17.3998537109375,-14.156879997253418,42.12171936035156,0.6612399816513062,1.6886862199238538e+18,17.3998537109375,-269.5028869628906,137.14751586914062,-132.06255798339845,1.6886862199224916e+18,17.39849178059896,-0.6749880711237589,0.723173181215922,-0.0450592425962288,0.1392163435618082,1.9127535025278728,1.4210742314656577,0.9667547543843588
2.45,1.688686219974407e+18,17.45040665690104,-0.150776187578837,0.0365613301595052,0.0380657911300659,1.6886862199744072e+18,17.45040734863281,-0.6454639136791229,-9.660423278808594,-1.272682547569275,1.688686219974407e+18,17.45040665690104,-0.4875726302464803,-9.700217564900717,-1.3799162705739338,1.6886862199700826e+18,17.44608251953125,0.0044796784253169,0.0127772645403941,-0.007686720850567,1.6886862199700826e+18,17.44608251953125,0.0034106643870472,0.0172569428881009,-0.0053959762056668,,,,,,,,,,,,1.6886862199738527e+18,17.449852929687502,-13.559079933166505,42.290079498291014,0.6270799934864044,1.6886862199738527e+18,17.449852929687502,-268.9050720214844,137.31587829589844,-132.09671630859376,1.688686219974407e+18,17.45040665690104,-0.6752218206723531,0.7231043577194214,-0.0443462580442428,0.1386688699324925,1.9104000329971311,1.4210606813430786,0.9709103107452391
2.5,1.6886862200263237e+18,17.50232373046875,0.0624357163906097,-0.0040947596232096,0.0569193760553995,1.688686220017668e+18,17.493668294270833,-0.4317050874233246,-9.73739242553711,-1.283151149749756,1.6886862200263237e+18,17.50232373046875,-0.4936059912045796,-9.699840545654297,-1.380424896876017,1.6886862200219983e+18,17.497998209635416,0.0015271631224701,-0.0128281700114408,-0.0054977871477603,1.6886862200219983e+18,17.497998209635416,0.0004581490065902,-0.0083484919741749,-0.0032070423476397,,,,,,,,,,,,1.6886862200238523e+18,17.499852392578127,-13.297999572753906,42.07535858154297,0.6368399992585182,1.6886862200238523e+18,17.499852392578127,-268.6440002441406,137.10115661621094,-132.0869598388672,1.6886862200263237e+18,17.50232373046875,-0.674932062625885,0.7232960065205892,-0.0446884520351886,0.1389696051677067,1.9141675233840945,1.4208025932312012,0.9662194848060608
2.55,1.6886862200782313e+18,17.55423128255208,-0.0422474841276804,0.0047512054443359,0.0499119758605956,1.6886862200695857e+18,17.54558553059896,-0.5004987319310507,-9.708678245544434,-1.240279754002889,1.6886862200782313e+18,17.55423128255208,-0.4894213279088338,-9.700311660766602,-1.3786019484202068,1.688686220073909e+18,17.549909016927085,-0.0047851111545848,0.025605434551835,0.0092138839730371,1.688686220073909e+18,17.549909016927085,-0.0058541253480749,0.0301360183705885,0.011504628540327,,,,,,,,,,,,1.6886862200738532e+18,17.54985322265625,-13.419999694824218,42.17539978027344,0.7685999751091004,1.6886862200738532e+18,17.54985322265625,-268.7659912109375,137.20119934082032,-131.9552001953125,1.6886862200782313e+18,17.55423128255208,-0.6751647790273031,0.7231669624646505,-0.044393453747034,0.1386049836874008,1.9118979374567668,1.4211246172587078,0.9694363872210184
2.6,1.6886862201301496e+18,17.60614982096354,-0.029155284166336,0.0288375218709309,0.0134171644846598,1.688686220121501e+18,17.597501139322915,-0.530409018198649,-9.695318539937338,-1.3106686274210613,1.6886862201301496e+18,17.60614982096354,-0.4913470149040222,-9.700469652811686,-1.3768030802408855,1.6886862201258258e+18,17.60182560221354,-0.0009672032125914,0.0014253522579868,-0.0057523143477737,1.6886862201258258e+18,17.60182560221354,-0.002036217561302,0.0059050304504732,-0.0034615697028736,,,,,,,,,,,,1.6886862201238513e+18,17.599851220703123,-13.785999870300293,42.14611968994141,0.5977999866008759,1.6886862201238513e+18,17.599851220703123,-269.1320007324219,137.1719177246094,-132.1260009765625,1.6886862201301496e+18,17.60614982096354,-0.6751495798428854,0.7232436736424764,-0.0442466711004574,0.13832555214564,1.9135480324427288,1.42123277982076,0.968397299448649
2.65,1.6886862201734164e+18,17.649416625976563,0.0037395060062408,0.0054035186767577,-0.0325320959091186,1.6886862201734157e+18,17.64941593424479,-0.4713860551516215,-9.71446132659912,-1.345364530881246,1.6886862201734164e+18,17.649416625976563,-0.4944312274456024,-9.70066499710083,-1.3743234276771543,1.6886862201777436e+18,17.65374357096354,-0.0055486924975411,0.0076358153795202,-0.0039706241029004,1.6886862201777436e+18,17.65374357096354,-0.0066177070063227,0.0120645887800491,-0.0016289741421739,,,,,,,,,,,,1.6886862201738552e+18,17.649855224609375,-13.678639793395996,42.11683959960938,0.6636799931526184,1.6886862201738552e+18,17.649855224609375,-269.0246337890625,137.14264221191405,-132.06011962890625,1.6886862201734164e+18,17.649416625976563,-0.6750425398349762,0.7233421206474304,-0.0444123446941375,0.1382801756262779,1.916106104850769,1.4213663935661316,0.9656684994697572
2.7,1.688686220216679e+18,17.692678792317707,0.0823746919631957,-0.0014959971110026,-0.0282679398854572,1.6886862202253322e+18,17.701332275390623,-0.41256249944369,-9.716255823771158,-1.3292129834493,1.688686220216679e+18,17.692678792317707,-0.4973934193452198,-9.700445493062338,-1.3747989734013877,1.68868622022966e+18,17.705659912109375,0.0047851110963771,0.0103847089534003,0.0032579482503933,1.68868622022966e+18,17.705659912109375,0.0037160969028869,0.0148134821405012,0.0055486926964173,,,,,,,,,,,,1.688686220223851e+18,17.699851171875,-13.734759521484374,42.29007873535157,0.7368799924850464,1.688686220223851e+18,17.699851171875,-269.08074340820315,137.31588134765624,-131.9869140625,1.688686220216679e+18,17.692678792317707,-0.6749657789866129,0.7234582901000977,-0.0442209442456563,0.1381082832813262,1.9179038604100545,1.421216328938802,0.964388926823934
2.75,1.688686220268591e+18,17.744591145833333,-0.0522980590661366,0.0241114298502604,0.0502684911092122,1.6886862202772457e+18,17.75324568684896,-0.5421737233797709,-9.681160926818848,-1.2673983971277871,1.688686220268591e+18,17.744591145833333,-0.489141434431076,-9.700529416402182,-1.3771638075510662,1.688686220281572e+18,17.75757185872396,0.0032070426580806,0.0011708252131939,0.015373441701134,1.688686220281572e+18,17.75757185872396,0.0021380283869802,0.0055995979540359,0.0177150924379626,,,,,,,,,,,,1.6886862202738534e+18,17.74985341796875,-14.178839683532717,42.13635864257813,0.6831999957561493,1.6886862202738534e+18,17.74985341796875,-269.5248291015625,137.162158203125,-132.04059753417968,1.688686220268591e+18,17.744591145833333,-0.6752845644950867,0.7231855193773905,-0.0439269902805487,0.1380721082290013,1.9120437701543171,1.4212729533513386,0.9707209467887878
2.8,1.6886862203205107e+18,17.796510498046874,0.0384866396586099,0.0130472183227539,-0.0561055342356363,1.6886862203291628e+18,17.805162760416668,-0.4458626210689544,-9.712666511535645,-1.3836497068405151,1.6886862203205107e+18,17.796510498046874,-0.4901953041553497,-9.700432459513346,-1.3774698575337727,1.6886862203248364e+18,17.800836303710938,0.0037415498518385,0.0332921547815203,-0.0145844081416725,1.6886862203248364e+18,17.800836303710938,0.0026725352508946,0.0377209288999438,-0.0122173051349818,,,,,,,,,,,,1.6886862203238523e+18,17.799852587890626,-13.644479751586914,42.170519256591795,0.7856799840927124,1.6886862203238523e+18,17.799852587890626,-268.9904724121094,137.19631652832032,-131.93811645507813,1.6886862203205107e+18,17.796510498046874,-0.6752786835034689,0.723234216372172,-0.0437363410989443,0.1379060993591943,1.912652889887492,1.4212069908777871,0.9706215461095176
2.85,1.6886862203724257e+18,17.848425455729167,0.0303168992201486,0.0268472035725911,-0.0077596505482991,1.6886862203810767e+18,17.85707666015625,-0.4476572374502817,-9.685946782430012,-1.324427326520284,1.6886862203724257e+18,17.848425455729167,-0.4919956624507904,-9.700074831644692,-1.3793550729751587,1.6886862203681006e+18,17.844100748697915,0.0009672033290068,-0.0060577473292748,0.0052941654964039,1.6886862203681006e+18,17.844100748697915,-0.0001018109420935,-0.0015271635105212,0.0075849099084734,,,,,,,,,,,,1.6886862203738537e+18,17.849853613281248,-13.688399696350098,42.1680793762207,0.6636799931526184,1.6886862203738537e+18,17.849853613281248,-269.0343933105469,137.19387817382812,-132.06011657714845,1.6886862203724257e+18,17.848425455729167,-0.6752408345540365,0.7233146627744039,-0.0434549575050671,0.1377586871385574,1.9133805831273396,1.4209616978963215,0.9705049991607666
2.9,1.6886862204243412e+18,17.900341064453126,-0.0509957571824391,-0.0029671986897786,-0.0509748458862304,1.6886862204243323e+18,17.900332641601562,-0.5276173800230026,-9.736395359039308,-1.3899308443069458,1.6886862204243412e+18,17.900341064453126,-0.4882503151893616,-9.700170516967772,-1.380008300145467,1.688686220420016e+18,17.89601603190104,0.0045814892898003,0.0314595599969227,0.0028507046711941,1.688686220420016e+18,17.89601603190104,0.0035124750186999,0.0359392383446295,0.0051414490056534,,,,,,,,,,,,1.6886862204238513e+18,17.899851220703123,-14.008039665222167,42.13880004882813,0.6417199850082398,1.6886862204238513e+18,17.899851220703123,-269.3540405273437,137.1645965576172,-132.0820770263672,1.6886862204243412e+18,17.900341064453126,-0.6754263838132223,0.723201851050059,-0.043137094626824,0.1375406384468078,1.91082227230072,1.4210267464319866,0.9738293091456096
2.95,1.688686220476255e+18,17.952254720052082,-0.0479045907656351,0.0068734486897786,0.1419729391733805,1.6886862204675976e+18,17.94359773763021,-0.5690929790337881,-9.694520950317385,-1.1782657305399578,1.688686220476255e+18,17.952254720052082,-0.4921391010284424,-9.700041135152182,-1.379536271095276,1.6886862204719316e+18,17.947931477864582,-0.0083993972900013,-0.0491237460325161,-0.0051414490056534,1.6886862204719316e+18,17.947931477864582,-0.0094684110178301,-0.0446440670639275,-0.0028507044383635,,,,,,,,,,,,1.688686220473852e+18,17.94985185546875,-13.610319709777832,42.080239868164064,0.6368400007486343,1.688686220473852e+18,17.94985185546875,-268.95631713867186,137.1060363769531,-132.0869567871094,1.688686220476255e+18,17.952254720052082,-0.6751968264579773,0.7233083049456278,-0.0436446654299894,0.1379472066958744,1.9134324391682944,1.420939286549886,0.9699118932088217
3.0,1.688686220528171e+18,18.004170979817708,-0.0293877323468526,0.0187129974365234,0.0863644282023111,1.6886862205195154e+18,17.995515462239585,-0.4911268452803294,-9.715258916219076,-1.229113221168518,1.688686220528171e+18,18.004170979817708,-0.4960996309916178,-9.700514793395996,-1.3747752110163372,1.688686220523847e+18,17.99984716796875,-0.0046833002318938,0.0197513094171881,-0.0096720332900683,1.688686220523847e+18,17.99984716796875,-0.0057523143477737,0.0242818935463825,-0.0073812886451681,,,,,,,,,,,,1.6886862205238508e+18,17.99985078125,-13.339479637145995,42.13391952514648,0.8905999898910523,1.6886862205238508e+18,17.99985078125,-268.6854736328125,137.159716796875,-131.83319702148438,1.688686220528171e+18,18.004170979817708,-0.6750762065251669,0.7234336535135905,-0.0438844636082648,0.1378044585386911,1.917084773381551,1.4212628205617268,0.9661241372426352
3.05,1.6886862205800878e+18,18.056087972005212,-0.0452990333239237,0.0136760075887044,0.0258787870407104,1.68868622057143e+18,18.047430175781248,-0.551346222559611,-9.70349407196045,-1.2771690686543782,1.6886862205800878e+18,18.056087972005212,-0.4943458537260691,-9.701459884643556,-1.3687262932459514,1.6886862205757563e+18,18.051756673177085,-0.0128281700114408,-0.0095193167217075,0.0017307850842674,1.6886862205757563e+18,18.051756673177085,-0.0138971842825411,-0.0050396385292212,0.0040215295739471,,,,,,,,,,,,1.6886862205738514e+18,18.049851416015624,-13.337039756774905,42.21443939208984,0.7881199836730957,1.6886862205738514e+18,18.049851416015624,-268.68303833007815,137.2402374267578,-131.93567810058593,1.6886862205800878e+18,18.056087972005212,-0.6751840710639954,0.7233584324518839,-0.0441014083723226,0.1376014898220698,1.9173583189646404,1.4219108422597249,0.965836544831594
3.1,1.6886862206233477e+18,18.099347412109378,-0.014773666858673,0.0098862648010253,0.1682139039039611,1.6886862206233508e+18,18.099350748697915,-0.507079005241394,-9.709276835123696,-1.157129128774007,1.6886862206233477e+18,18.099347412109378,-0.5055292248725891,-9.701857566833496,-1.3618090748786926,1.688686220627677e+18,18.103676757812497,-0.0218893376489479,0.0212275673014421,-0.0243327990174292,1.688686220627677e+18,18.103676757812497,-0.0229583516096074,0.0258090561255812,-0.0220420545277495,,,,,,,,,,,,1.68868622062385e+18,18.099850146484375,-13.746959686279297,42.21443939208984,0.644159984588623,1.68868622062385e+18,18.099850146484375,-269.09296264648435,137.2402374267578,-132.0796356201172,1.6886862206233477e+18,18.099347412109378,-0.6748606562614441,0.7237460911273956,-0.0442031528800725,0.137115828692913,1.9262176752090456,1.422183394432068,0.9575282037258148
3.15,1.6886862206666068e+18,18.14260693359375,0.0231288870175679,0.0351778666178385,0.0072799523671467,1.6886862206752635e+18,18.151263834635415,-0.4699902534484863,-9.694122314453123,-1.2941182851791384,1.6886862206666068e+18,18.14260693359375,-0.5087358554204305,-9.703819592793783,-1.3465382258097331,1.688686220679594e+18,18.15559415690104,-0.0346666021893421,0.0307977908911803,0.0012217305290202,1.688686220679594e+18,18.15559415690104,-0.0357356164604424,0.0352265615947544,0.0035633803345262,,,,,,,,,,,,1.6886862206738486e+18,18.149848681640623,-13.581039810180664,41.99484024047852,0.5270399928092957,1.6886862206738486e+18,18.149848681640623,-268.9270324707031,137.02063903808593,-132.1967559814453,1.6886862206666068e+18,18.14260693359375,-0.6748841603597006,0.7238342563311259,-0.0446071426073709,0.1364020506540934,1.9320002794265747,1.423541824022929,0.9522022207578024
3.2,1.6886862207185257e+18,18.194525634765625,-0.0316621263821919,-0.0113916397094726,0.0564912557601928,1.6886862207271762e+18,18.20317635091146,-0.5641079346338908,-9.745368321736654,-1.2103694677352903,1.6886862207185257e+18,18.194525634765625,-0.5175540447235107,-9.705504735310871,-1.3309439023335774,1.6886862207315046e+18,18.207504638671875,-0.0221438650041817,0.0670424612859884,-0.0231110683331886,1.6886862207315046e+18,18.207504638671875,-0.0232128792752821,0.0715730426212151,-0.0208203239987293,1.688686220725773e+18,18.20177294921875,0.0,0.0,0.9943446516990662,11.300999641418455,0.2830775082111358,175.3579864501953,40.20000076293945,-122.7532025,49.1903503,1.6886862207238487e+18,18.199848779296875,-13.61519947052002,42.1900390625,0.7881199836730957,1.6886862207238487e+18,18.199848779296875,-268.96119995117186,137.21583862304686,-131.93568115234376,1.6886862207185257e+18,18.194525634765625,-0.6748653848965963,0.7241710225741068,-0.0441754261652628,0.1348378310600916,1.94163711865743,1.4247159163157146,0.9454298416773478
