seconds_elapsed_rounded,accelerometer_time,accelerometer_seconds_elapsed,accelerometer_z,accelerometer_y,accelerometer_x,accelerometeruncalibrated_time,accelerometeruncalibrated_seconds_elapsed,accelerometeruncalibrated_z,accelerometeruncalibrated_y,accelerometeruncalibrated_x,gravity_time,gravity_seconds_elapsed,gravity_z,gravity_y,gravity_x,gyroscope_time,gyroscope_seconds_elapsed,gyroscope_z,gyroscope_y,gyroscope_x,gyroscopeuncalibrated_time,gyroscopeuncalibrated_seconds_elapsed,gyroscopeuncalibrated_z,gyroscopeuncalibrated_y,gyroscopeuncalibrated_x,location_time,location_seconds_elapsed,location_bearingAccuracy,location_speedAccuracy,location_verticalAccuracy,location_horizontalAccuracy,location_speed,location_bearing,location_altitude,location_longitude,location_latitude,magnetometer_time,magnetometer_seconds_elapsed,magnetometer_z,magnetometer_y,magnetometer_x,magnetometeruncalibrated_time,magnetometeruncalibrated_seconds_elapsed,magnetometeruncalibrated_z,magnetometeruncalibrated_y,magnetometeruncalibrated_x,orientation_time,orientation_seconds_elapsed,orientation_qz,orientation_qy,orientation_qx,orientation_qw,orientation_roll,orientation_pitch,orientation_yaw
0.0,1.6886865889301957e+18,60.00419555664062,0.0475286444028218,-0.0008627573649088,-0.0381773312886556,1.6886865889301957e+18,60.00419555664062,-0.6552345951398214,-9.252646446228027,3.259024461110433,1.6886865889301957e+18,60.00419555664062,-0.7086092631022135,-9.234278996785482,3.2345143953959146,1.6886865889258714e+18,59.99987125651041,0.0083484918189544,0.0344629809260368,-0.0058541252898672,1.6886865889258714e+18,59.99987125651041,0.0074830992768207,0.0389426592737436,-0.0034106643094369,1.688686588926798e+18,60.000798095703125,0.0,0.4590366780757904,0.9002717137336731,13.36400032043457,0.0079803615808486,0.0,40.20000076293945,-122.7531531,49.1903752,1.6886865889288842e+18,60.00288413085938,20.586280059814452,38.30555877685547,-21.506159210205077,1.6886865889288842e+18,60.00288413085938,-234.7597137451172,133.33135986328125,-154.2299591064453,1.6886865889301957e+18,60.00419555664062,-0.2492175201574961,0.0275932208945352,-0.7316820820172628,0.6338536938031515,-1.7864864667256672,1.2264973322550456,2.186490615208944
0.05,1.6886865889821064e+18,60.056106282552086,-0.0111390749613443,0.0332218805948893,0.0029044946034749,1.6886865889821064e+18,60.056106282552086,-0.7126623392105103,-9.219146728515623,3.2987054189046225,1.6886865889821064e+18,60.056106282552086,-0.7073692878087362,-9.234863917032875,3.2331135272979736,1.688686588977786e+18,60.05178605143229,0.0001527162773224,0.0208203231062119,-0.0098247493927676,1.688686588977786e+18,60.05178605143229,-0.0007126760610844,0.0253000029673178,-0.0073812884899476,,,,,,,,,,,,1.688686588978888e+18,60.05288774414063,20.85467987060547,38.20551986694336,-21.61839942932129,1.688686588978888e+18,60.05288774414063,-234.49131469726564,133.23131713867187,-154.34219970703126,1.6886865889821064e+18,60.056106282552086,-0.2497543394565582,0.0283049829304217,-0.7316117485364279,0.6336923241615295,-1.7862112124760945,1.226674477259318,2.1880377928415933
0.1,1.6886865890253722e+18,60.099372192382816,0.0646010637283324,-0.0392994880676269,-0.068031907081604,1.6886865890253722e+18,60.099372192382816,-0.638883650302887,-9.290732383728027,3.230011463165283,1.6886865890253722e+18,60.099372192382816,-0.7093307375907898,-9.233928203582764,3.2353559732437134,1.6886865890297006e+18,60.10370043945312,-0.0029016098318,0.0034615696252634,0.0013235413935035,1.6886865890297006e+18,60.10370043945312,-0.0038179078449805,0.0078903431228051,0.0037670023545312,,,,,,,,,,,,1.688686589028884e+18,60.10288383789062,21.07915954589844,38.10792007446289,-21.686719512939455,1.688686589028884e+18,60.10288383789062,-234.26683349609377,133.1337158203125,-154.41051635742187,1.6886865890253722e+18,60.099372192382816,-0.2497848719358444,0.0281925844028591,-0.7316844165325165,0.6336013078689575,-1.7866449356079102,1.2263914942741394,2.1883617639541626
0.15,1.6886865890686298e+18,60.14262955729166,0.0377685825030008,0.0312747955322265,-0.0288562774658203,1.6886865890686298e+18,60.14262955729166,-0.6634100874265035,-9.220542589823404,3.2685957749684653,1.6886865890686298e+18,60.14262955729166,-0.7070246934890747,-9.234312693277994,3.234764655431112,1.688686589081611e+18,60.15561092122396,-0.0005599598031646,0.015577063236075,-0.0099774657282977,1.688686589081611e+18,60.15561092122396,-0.0014762576126183,0.0200058363843708,-0.0074321939803969,,,,,,,,,,,,1.6886865890788856e+18,60.152885595703125,20.791239166259764,37.94687957763672,-21.552519607543942,1.6886865890788856e+18,60.152885595703125,-234.55475158691405,132.97267456054686,-154.276318359375,1.6886865890686298e+18,60.14262955729166,-0.2500737905502319,0.0285377446562051,-0.731590727965037,0.6335801084836324,-1.7860031922658284,1.2265076239903767,2.1886447270711265
0.2,1.6886865891205448e+18,60.194544921875,0.0042765935262044,-0.0266106923421223,-0.0808892250061034,1.6886865891205448e+18,60.194544921875,-0.6981060107549032,-9.277571360270182,3.218745311101278,1.6886865891205448e+18,60.194544921875,-0.7082286278406779,-9.233455975850424,3.2369471391042075,1.6886865891335186e+18,60.20751847330729,-0.0088575459085403,-0.0379245510945717,0.0135408459852138,1.6886865891335186e+18,60.20751847330729,-0.0097738439217209,-0.0334957775970299,0.0160352122038602,,,,,,,,,,,,1.6886865891288837e+18,60.20288344726563,20.94251937866211,38.15671920776367,-21.62327919006348,1.6886865891288837e+18,60.20288344726563,-234.40347595214843,133.18251953125,-154.34707641601562,1.6886865891205448e+18,60.194544921875,-0.2500755737225215,0.0283853237827618,-0.7316385706265768,0.6335309346516927,-1.786217451095581,1.2262487411499023,2.188647508621216
0.25,1.6886865891724554e+18,60.246455647786455,0.1204403042793273,-0.0363054275512695,-0.0570109685262044,1.6886865891724554e+18,60.246455647786455,-0.580060084660848,-9.2877410252889,3.2416764895121255,1.6886865891724554e+18,60.246455647786455,-0.7063464124997457,-9.233930905659994,3.236000061035156,1.6886865891767834e+18,60.25078320312499,0.009162978734821,0.0035124756395816,0.0096211275085806,1.6886865891767834e+18,60.25078320312499,0.0082466807216405,0.00794124789536,0.0121409464627503,,,,,,,,,,,,1.6886865891788836e+18,60.2528833984375,21.130399703979492,38.14939880371094,-21.413439559936524,1.6886865891788836e+18,60.2528833984375,-234.21559448242184,133.17519836425782,-154.13723754882812,1.6886865891724554e+18,60.246455647786455,-0.2495478590329488,0.0278223045170306,-0.7315947810808817,0.6338145931561788,-1.78572412331899,1.226392428080241,2.186551253000895
0.3,1.688686589224364e+18,60.29836385091145,-0.1120282808939615,0.0628442764282226,0.0557457605997721,1.688686589224364e+18,60.29836385091145,-0.8007979790369669,-9.190632502237955,3.3511481285095215,1.688686589224364e+18,60.29836385091145,-0.6946157217025757,-9.23597208658854,3.2327149709065757,1.6886865892200435e+18,60.294043294270836,0.008399397212391,0.0430660005658864,0.0125227374956011,1.6886865892200435e+18,60.294043294270836,0.0074830992428662,0.0474947715799013,0.0149661982432007,,,,,,,,,,,,1.688686589228888e+18,60.302888085937504,21.062079620361327,38.35191879272461,-21.735519409179688,1.688686589228888e+18,60.302888085937504,-234.28391723632816,133.37771911621093,-154.45931701660157,1.688686589224364e+18,60.29836385091145,-0.2500934948523839,0.0285325646400451,-0.7311585744222006,0.6340711712837219,-1.782469391822815,1.2270087401072185,2.185114542643229
0.35,1.6886865892762775e+18,60.35027726236979,-0.0999996066093444,0.0370718638102212,0.0365183353424072,1.6886865892762775e+18,60.35027726236979,-0.7878368695576986,-9.215956370035808,3.333401362101237,1.6886865892762775e+18,60.35027726236979,-0.6936832865079244,-9.235523541768393,3.234195629755656,1.6886865892719542e+18,60.345954182942705,-0.006363179689894,-0.0465275694926579,0.0088575456757098,1.6886865892719542e+18,60.345954182942705,-0.0072285722320277,-0.0420987959951162,0.0113519119719663,,,,,,,,,,,,1.6886865892788833e+18,60.35288330078125,21.07183952331543,38.36411895751953,-21.898999786376955,1.6886865892788833e+18,60.35288330078125,-234.2741546630859,133.38992004394532,-154.62279663085937,1.6886865892762775e+18,60.35027726236979,-0.249795933564504,0.0280579260239998,-0.731144110361735,0.6342262625694275,-1.782097299893697,1.2268736759821577,2.1836159229278564
0.4,1.6886865893281925e+18,60.40219230143229,0.1017873088518778,0.0066070556640624,0.0197424888610839,1.6886865893281925e+18,60.40219230143229,-0.6027919054031372,-9.245068868001304,3.3168510595957437,1.6886865893281925e+18,60.40219230143229,-0.7104252378145853,-9.234171231587728,3.234421173731486,1.688686589323862e+18,60.39786181640625,-0.0016798794191951,-0.0298305864756305,-0.0340557365367809,1.688686589323862e+18,60.39786181640625,-0.0025961773159602,-0.0253509084383646,-0.031459559376041,,,,,,,,,,,,1.6886865893288832e+18,60.402883300781255,21.406119537353515,38.129878997802734,-21.103559494018555,1.6886865893288832e+18,60.402883300781255,-233.93987426757812,133.15567626953126,-153.82735595703124,1.6886865893281925e+18,60.40219230143229,-0.2490498224894205,0.0274344161152839,-0.731751004854838,0.6338469584782919,-1.787024935086568,1.226464827855428,2.1865519682566323
0.45,1.6886865893801044e+18,60.4541044921875,0.0908432006835936,-0.0273431142171223,-0.0652361710866291,1.6886865893801044e+18,60.4541044921875,-0.6199404795964559,-9.27796999613444,3.2335010369618735,1.6886865893801044e+18,60.4541044921875,-0.71662970383962,-9.233122189839682,3.2360498110453286,1.68868658937578e+18,60.44978011067709,-0.0069231394057471,-0.0082466808768609,0.0096211275085806,1.68868658937578e+18,60.44978011067709,-0.0078394372637072,-0.0038179078013248,0.012064588877062,,,,,,,,,,,,1.6886865893788838e+18,60.45288369140625,21.362199783325195,38.18599853515625,-21.64035987854004,1.6886865893788838e+18,60.45288369140625,-233.9837951660156,133.21179809570313,-154.36415405273436,1.6886865893801044e+18,60.4541044921875,-0.2489211459954579,0.0272510728488365,-0.7319739659627279,0.6336479981740316,-1.7887489398320515,1.226148207982381,2.187830130259196
0.5,1.688686589432016e+18,60.50601603190105,-0.0166495243708292,0.0194969177246093,0.0164219538370768,1.688686589432016e+18,60.50601603190105,-0.7096713185310364,-9.232107798258465,3.3162527879079184,1.688686589432016e+18,60.50601603190105,-0.6988678177197775,-9.234100023905436,3.2371434370676675,1.6886865894276923e+18,60.501692220052085,-0.0011708250676747,-0.0111991961797077,0.0419969850530226,1.6886865894276923e+18,60.501692220052085,-0.0020362174060816,-0.0067704230605158,0.0444404470423856,,,,,,,,,,,,1.6886865894288865e+18,60.502886474609376,21.16455993652344,38.28603897094727,-21.613519287109376,1.6886865894288865e+18,60.502886474609376,-234.18143310546876,133.31183471679688,-154.33731384277343,1.688686589432016e+18,60.50601603190105,-0.2487677832444509,0.0267181880772113,-0.7313749392827352,0.6344221433003744,-1.7834405501683552,1.2264435688654582,2.1815064748128257
0.55,1.6886865894752845e+18,60.54928454589844,-0.0083978474140167,0.0106196403503417,0.0337049961090087,1.6886865894752845e+18,60.54928454589844,-0.7016952335834503,-9.24108123779297,3.3332020044326782,1.6886865894752845e+18,60.54928454589844,-0.6991434097290039,-9.234196186065674,3.2368096113204956,1.688686589479601e+18,60.553600585937495,0.0041233403608202,0.0150171037918577,-0.0302378302440046,1.688686589479601e+18,60.553600585937495,0.0032070424252499,0.0194458772117892,-0.0277943682546416,,,,,,,,,,,,1.688686589478886e+18,60.552885839843746,21.32803955078125,38.25675888061524,-21.65743942260742,1.688686589478886e+18,60.552885839843746,-234.01795654296876,133.28255920410157,-154.38123779296876,1.6886865894752845e+18,60.54928454589844,-0.2487686425447463,0.0267498465254902,-0.7313834726810455,0.6344106495380402,-1.7835440635681152,1.226472556591034,2.1816564798355103
0.6,1.6886865895185367e+18,60.59253686523437,0.0053948760032653,0.0040324529012044,0.0043365160624186,1.6886865895185367e+18,60.59253686523437,-0.6969095865885416,-9.24766159057617,3.3018958568573,1.6886865895185367e+18,60.59253686523437,-0.7081504861513773,-9.23418935139974,3.2348719437917075,1.688686589531517e+18,60.60551684570313,0.0079412480505803,0.0305432629150648,-0.0160352125531062,1.688686589531517e+18,60.60551684570313,0.0070758558964977,0.0349720353260635,-0.0135408462568496,,,,,,,,,,,,1.6886865895288817e+18,60.60288178710938,21.286559295654296,38.28847961425781,-21.593999481201173,1.6886865895288817e+18,60.60288178710938,-234.05943298339844,133.31427917480468,-154.3177978515625,1.6886865895185367e+18,60.59253686523437,-0.249156226714452,0.027487232039372,-0.7316700220108032,0.6338962912559509,-1.7863277196884155,1.226470152537028,2.1860877672831216
0.65,1.6886865895704494e+18,60.64444946289063,0.0147435665130615,0.0354344050089518,0.0207568804423014,1.6886865895704494e+18,60.64444946289063,-0.687537690003713,-9.216355323791504,3.318047364552816,1.6886865895704494e+18,60.64444946289063,-0.7081272800763448,-9.234285036722818,3.2346030871073403,1.6886865895834284e+18,60.65742830403645,-0.0108428583480416,-0.0246382318437099,0.0197513094171881,1.6886865895834284e+18,60.65742830403645,-0.0116573449534673,-0.0202094583461681,0.0222456756358344,,,,,,,,,,,,1.6886865895788856e+18,60.65288569335937,21.59644012451172,38.18111877441406,-21.45491943359375,1.6886865895788856e+18,60.65288569335937,-233.7495544433594,133.20692138671876,-154.17872009277343,1.6886865895704494e+18,60.64444946289063,-0.249255155523618,0.027622357631723,-0.7316640615463257,0.6338585019111633,-1.7863375743230183,1.2264995574951172,2.186439355214437
0.7,1.6886865896223572e+18,60.696357421875,0.0092779000600178,-0.0255619684855143,-0.0526862939198811,1.6886865896223572e+18,60.696357421875,-0.6853442788124084,-9.276374816894531,3.2490543524424234,1.6886865896223572e+18,60.696357421875,-0.7004682024319967,-9.23330815633138,3.239053249359131,1.6886865896266888e+18,60.70068884277343,-0.0064140852773561,0.0048869218153412,0.0162642868235706,1.6886865896266888e+18,60.70068884277343,-0.0073303829412906,0.0093156949151306,0.0187077485024928,,,,,,,,,,,,1.6886865896288824e+18,60.70288232421875,21.298759841918944,38.21527938842773,-21.74527969360351,1.6886865896288824e+18,60.70288232421875,-234.0472381591797,133.24107666015624,-154.46907653808594,1.6886865896223572e+18,60.696357421875,-0.2491723050673802,0.0270577234526474,-0.7314184308052063,0.6341988245646158,-1.7837930123011272,1.2262046734491985,2.18295685450236
0.75,1.6886865896742738e+18,60.748273925781255,-0.0290304621060689,0.0141626993815104,0.010256290435791,1.6886865896742738e+18,60.748273925781255,-0.7238288323084513,-9.236893653869627,3.3112677733103433,1.6886865896742738e+18,60.748273925781255,-0.7006443937619528,-9.233551661173502,3.2383240858713784,1.6886865896699494e+18,60.74394946289062,0.0049887327477335,0.0012217304126048,-0.0120136833284049,1.6886865896699494e+18,60.74394946289062,0.0041233403608202,0.0056505034832904,-0.0095193164500718,,,,,,,,,,,,1.6886865896788864e+18,60.75288637695312,21.208480072021484,38.39583892822266,-21.418320083618163,1.6886865896788864e+18,60.75288637695312,-234.13751525878905,133.42163696289063,-154.14211730957032,1.6886865896742738e+18,60.748273925781255,-0.2492177287737528,0.0271705538034438,-0.7314203580220541,0.6341739296913147,-1.7838914394378662,1.2262778282165527,2.1832845211029053
0.8,1.6886865897261842e+18,60.80018391927083,0.0520474712053934,0.0155696868896483,-0.004115343093872,1.6886865897261842e+18,60.80018391927083,-0.6506483554840088,-9.235298792521158,3.2957143783569336,1.6886865897261842e+18,60.80018391927083,-0.7085418502489725,-9.23336378733317,3.237142324447632,1.688686589721861e+18,60.795861165364585,0.0008653924451209,-0.0019853121290604,-0.0116064395018231,1.688686589721861e+18,60.795861165364585,-5.0905437092266665e-05,0.0024943662962565,-0.0091629783467699,,,,,,,,,,,,1.6886865897288863e+18,60.80288662109375,21.206039810180663,38.27383880615234,-21.403680038452148,1.6886865897288863e+18,60.80288662109375,-234.13995361328125,133.2996398925781,-154.12747497558593,1.6886865897261842e+18,60.80018391927083,-0.2491010079781214,0.0272496299197275,-0.7316925724347433,0.633902351061503,-1.7862964471181233,1.2262214024861653,2.185636361440023
0.85,1.688686589778098e+18,60.85209790039062,0.0021347602208455,0.0036141077677409,-0.0103509426116943,1.688686589778098e+18,60.85209790039062,-0.6951149702072144,-9.24786059061686,3.2889347076416016,1.688686589778098e+18,60.85209790039062,-0.7030957539876302,-9.233970006306969,3.236598253250122,1.6886865897737746e+18,60.84777457682291,0.0020362174448867,0.0079921536768475,0.0156279690563678,1.6886865897737746e+18,60.84777457682291,0.0011199196063292,0.0124718323349952,0.0181223358958959,,,,,,,,,,,,1.6886865897788856e+18,60.85288559570313,20.9059196472168,38.12499923706055,-21.45735969543457,1.6886865897788856e+18,60.85288559570313,-234.44007568359376,133.15079650878906,-154.18115844726563,1.688686589778098e+18,60.85209790039062,-0.2492123792568842,0.0273383973787228,-0.7314995328585306,0.6340775092442831,-1.7847249110539751,1.226404309272766,2.1843515237172446
0.9,1.6886865898300116e+18,60.90401155598958,-0.0355760256449381,0.0025774637858072,-0.0315210024515787,1.6886865898300116e+18,60.90401155598958,-0.7270192702611288,-9.249256451924644,3.2679975827534995,1.6886865898300116e+18,60.90401155598958,-0.6972892681757609,-9.234329223632812,3.2368311882019043,1.6886865898256822e+18,60.89968221028645,-0.0032070425804703,-0.0114028177534539,0.0109446689796943,1.6886865898256822e+18,60.89968221028645,-0.0040215294963369,-0.0069231392117216,0.013439035664002,,,,,,,,,,,,1.688686589828886e+18,60.90288588867188,21.06695976257324,38.178679656982425,-21.55495948791504,1.688686589828886e+18,60.90288588867188,-234.2790374755859,133.20447692871093,-154.27875671386718,1.6886865898300116e+18,60.90401155598958,-0.2491416533788044,0.0271501255532105,-0.7313040693600973,0.6343388160069784,-1.782995065053304,1.226512869199117,2.1822385787963867
0.95,1.6886865898819218e+18,60.955921875,-0.0202011068662007,0.0253607432047525,0.0025287469228108,1.6886865898819218e+18,60.955921875,-0.7128617564837137,-9.22692362467448,3.30049999554952,1.6886865898819218e+18,60.955921875,-0.6985066731770834,-9.234779675801596,3.235283851623535,1.6886865898775982e+18,60.95159814453125,0.0051923546319205,-0.0084503028386582,-0.0052432599477469,1.6886865898775982e+18,60.95159814453125,0.0043269620897868,-0.0039197184960358,-0.0027488934962699,,,,,,,,,,,,1.6886865898788849e+18,60.952884765625,21.013279724121094,38.24700012207031,-21.63547973632813,1.6886865898788849e+18,60.952884765625,-234.33271484375,133.27279663085938,-154.3592742919922,1.6886865898819218e+18,60.955921875,-0.2489216327667236,0.0270373181750376,-0.7313504815101624,0.6343764662742615,-1.783451517422994,1.2266488075256348,2.1822028160095215
1.0,1.6886865899251845e+18,60.99918469238281,0.0009629726409911,-0.0287013053894042,-0.0212925672531127,1.6886865899251845e+18,60.99918469238281,-0.6963113844394684,-9.281160831451416,3.2751760482788086,1.6886865899251845e+18,60.99918469238281,-0.7031203806400299,-9.234954833984377,3.2337812185287476,1.688686589929511e+18,61.00351106770833,-0.0012217305193189,-0.0329358186572789,0.0088575461413711,1.688686589929511e+18,61.00351106770833,-0.002087122935336,-0.0284561390678087,0.0114028176176361,1.6886865899189212e+18,60.99292102050781,0.0,0.4596589058637619,0.8550091981887817,13.552000045776367,0.0100544309243559,0.0,40.20000076293945,-122.7531531,49.1903751,1.6886865899288837e+18,61.0028833984375,21.28167953491211,38.27627944946289,-21.48907928466797,1.6886865899288837e+18,61.0028833984375,-234.06431579589844,133.3020782470703,-154.21287536621094,1.6886865899251845e+18,60.99918469238281,-0.2485129833221435,0.0267550386488437,-0.731521725654602,0.6343512237071991,-1.784911036491394,1.2267020344734192,2.1826486587524414
1.05,1.6886865899684436e+18,61.04244368489583,0.0895943442980448,-0.0308879216512043,-0.0478380521138508,1.6886865899684436e+18,61.04244368489583,-0.6053841312726339,-9.284351348876951,3.246262709299723,1.6886865899684436e+18,61.04244368489583,-0.700824499130249,-9.235958735148111,3.2314133644104004,1.6886865899814254e+18,61.05542529296875,0.0124718318693339,-0.0038179075345396,0.0159843067328134,1.6886865899814254e+18,61.05542529296875,0.0116573451086878,0.0006617704057134,0.0184277681012947,,,,,,,,,,,,1.688686589978886e+18,61.05288627929688,21.56471977233887,38.46171951293945,-21.332919692993165,1.688686589978886e+18,61.05288627929688,-233.78127746582032,133.48751525878907,-154.0567199707031,1.6886865899684436e+18,61.04244368489583,-0.2480164070924122,0.0263353257129589,-0.7314568360646566,0.6346378525098165,-1.7843833367029829,1.2270052035649617,2.180768887201945
1.1,1.688686590020352e+18,61.09435188802083,-0.0348115563392638,0.0426959991455077,0.0183211962381998,1.688686590020352e+18,61.09435188802083,-0.7160521745681763,-9.214361190795898,3.3050862153371177,1.688686590020352e+18,61.09435188802083,-0.6870866417884827,-9.23955249786377,3.2240776220957437,1.688686590033335e+18,61.10733487955729,0.0152207255984345,0.0216857166960834,0.0324267633259296,1.688686590033335e+18,61.10733487955729,0.0143553329010803,0.0261653944229085,0.0348702240735292,,,,,,,,,,,,1.688686590028882e+18,61.10288193359374,21.30119934082031,37.98347930908203,-21.213359451293947,1.688686590028882e+18,61.10288193359374,-234.04479370117187,133.0092742919922,-153.9371551513672,1.688686590020352e+18,61.09435188802083,-0.2480297634998956,0.0267240380247433,-0.7309638063112894,0.6351841688156128,-1.7807800769805908,1.2280937830607097,2.1777162551879883
1.15,1.6886865900722688e+18,61.146268798828125,-0.0843290487925211,0.0521879196166991,0.1061015923817951,1.6886865900722688e+18,61.146268798828125,-0.7549355427424113,-9.206783930460611,3.3896327018737793,1.6886865900722688e+18,61.146268798828125,-0.6764525175094604,-9.241467157999674,3.22084371248881,1.6886865900765957e+18,61.15059582519531,0.0008399397484026,-0.0075594573281704,-0.0016035214066505,1.6886865900765957e+18,61.15059582519531,0.0,-0.0031306843739002,0.0009162977803498,,,,,,,,,,,,1.6886865900788833e+18,61.152883349609375,20.442319488525392,38.23967971801758,-21.237759399414063,1.6886865900788833e+18,61.152883349609375,-234.90367431640624,133.26547546386718,-153.96156005859376,1.6886865900722688e+18,61.146268798828125,-0.2480772833029428,0.0268742113063732,-0.7305874427159628,0.6355922222137451,-1.7778257926305134,1.228675127029419,2.1750311851501465
1.2,1.6886865901241805e+18,61.19818041992187,0.0155158837636311,0.0296068191528319,0.0314006010691324,1.6886865901241805e+18,61.19818041992187,-0.6588238477706909,-9.229116757710775,3.314857006072998,1.6886865901241805e+18,61.19818041992187,-0.6801857550938925,-9.24121888478597,3.220769008000692,1.688686590119858e+18,61.193857910156254,0.0069231394639548,0.045051312384506,-0.0212784732381502,1.688686590119858e+18,61.193857910156254,0.0060577470867428,0.0495309910426536,-0.0187841063986221,,,,,,,,,,,,1.6886865901288858e+18,61.202885742187505,20.947399139404297,38.38607940673828,-21.586679458618164,1.6886865901288858e+18,61.202885742187505,-234.39859619140623,133.41187438964843,-154.31047973632812,1.6886865901241805e+18,61.19818041992187,-0.2484478503465652,0.02736280610164,-0.7306994398434957,0.6352976759274801,-1.7789405584335327,1.2286001046498616,2.1774064699808755
1.25,1.6886865901760858e+18,61.25008577473958,-0.0365684231122334,0.0399583180745442,0.0611755847930908,1.6886865901760858e+18,61.25008577473958,-0.7128617366154989,-9.219545682271322,3.3419756094614663,1.6886865901760858e+18,61.25008577473958,-0.6821393370628357,-9.241999308268229,3.2181126276652017,1.688686590171766e+18,61.245766194661456,0.0102319926178703,0.065464391062657,-0.0287615718940893,1.688686590171766e+18,61.245766194661456,0.0093156949151306,0.0698931651810804,-0.0262162995835144,,,,,,,,,,,,1.6886865901788818e+18,61.252881738281246,20.79611930847168,38.38363952636719,-21.41831970214844,1.6886865901788818e+18,61.252881738281246,-234.54987487792968,133.40943908691406,-154.14212341308593,1.6886865901760858e+18,61.25008577473958,-0.2495403438806533,0.0288597798595825,-0.7307101090749105,0.6347907582918803,-1.7796895901362102,1.2288374503453572,2.181939204533895
1.3,1.688686590228006e+18,61.302005859374994,0.0805747906366983,0.0056441624959309,-0.0242364406585692,1.688686590228006e+18,61.302005859374994,-0.5996014674504598,-9.252646446228027,3.259223779042562,1.688686590228006e+18,61.302005859374994,-0.6860222816467285,-9.240785916646322,3.2207728226979575,1.6886865902236785e+18,61.29767838541667,-0.0067704231478273,0.0219911482806006,-0.0135408459852138,1.6886865902236785e+18,61.29767838541667,-0.0076358155347406,0.0264199214677015,-0.0110973852376142,,,,,,,,,,,,1.688686590228884e+18,61.302883837890626,20.852239990234377,38.25675964355469,-21.9087589263916,1.688686590228884e+18,61.302883837890626,-234.4937530517578,133.28255920410157,-154.63255615234374,1.688686590228006e+18,61.302005859374994,-0.2501895527044932,0.0294563565403222,-0.7308217485745748,0.6343792875607809,-1.7806751330693562,1.2284682989120483,2.184762477874756
1.35,1.6886865902799135e+18,61.353913655598966,0.076276143391927,-0.0286728541056314,-0.1214215755462646,1.6886865902799135e+18,61.353913655598966,-0.6019942959149679,-9.285547574361166,3.1665019194285073,1.6886865902799135e+18,61.353913655598966,-0.6841164628664652,-9.239370028177897,3.225236097971598,1.6886865902755914e+18,61.3495917154948,-0.0075340047478675,0.0653625801205634,-0.02295835254093,1.6886865902755914e+18,61.3495917154948,-0.0084503024506071,0.069893163939317,-0.0204639863222837,,,,,,,,,,,,1.688686590278885e+18,61.35288520507813,20.99863967895508,38.300679779052736,-21.508599853515623,1.688686590278885e+18,61.35288520507813,-234.34735412597655,133.32647705078125,-154.2324005126953,1.6886865902799135e+18,61.353913655598966,-0.2512621184190114,0.0303098124762375,-0.7307204405466715,0.6340315937995911,-1.779828707377116,1.2280385096867878,2.186753511428833
1.4,1.688686590331829e+18,61.405829101562496,-0.0399229923884073,-0.0607172648111979,-0.2602589130401611,1.688686590331829e+18,61.405829101562496,-0.7190432151158651,-9.316255569458006,3.0313074588775635,1.688686590331829e+18,61.405829101562496,-0.684966246287028,-9.238033612569174,3.228878974914551,1.6886865903275057e+18,61.40150577799479,-0.0121663993534941,-0.0424042288213968,0.0179696197931965,1.6886865903275057e+18,61.40150577799479,-0.0130317922060687,-0.0379754547029733,0.0204639853909611,,,,,,,,,,,,1.6886865903288868e+18,61.40288686523437,21.015719985961915,38.26407928466797,-21.70135917663574,1.6886865903288868e+18,61.40288686523437,-234.3302764892578,133.28987731933594,-154.42515869140624,1.688686590331829e+18,61.405829101562496,-0.2514588236808777,0.0302615544448295,-0.7307520111401876,0.6339195370674133,-1.7798510789871216,1.2276338338851929,2.1870079040527344
1.45,1.688686590375085e+18,61.44908520507812,0.1090836524963378,-0.0596919059753417,-0.0495449304580688,1.688686590375085e+18,61.44908520507812,-0.5667998492717743,-9.317053318023682,3.2374889850616455,1.688686590375085e+18,61.44908520507812,-0.6817295253276825,-9.239856719970703,3.2243465185165405,1.6886865903794132e+18,61.453413167317706,0.0123700212376812,-0.081499603887399,0.0245873260622223,1.6886865903794132e+18,61.453413167317706,0.011453722952865,-0.0770199274023373,0.0270307862277453,,,,,,,,,,,,1.6886865903788836e+18,61.452883544921875,20.625320053100587,38.3568000793457,-21.650119400024415,1.6886865903788836e+18,61.452883544921875,-234.72067565917968,133.38259887695312,-154.37391662597656,1.688686590375085e+18,61.44908520507812,-0.2499299347400664,0.028808869421482,-0.7306979596614838,0.634653776884079,-1.7791763544082642,1.228186309337616,2.181944966316223
1.5,1.6886865904183483e+18,61.492348225911456,0.1739368140697478,0.0455656051635742,0.161391258239746,1.6886865904183483e+18,61.492348225911456,-0.5046861867109934,-9.214361190795898,3.4404800732930503,1.6886865904183483e+18,61.492348225911456,-0.6844690442085266,-9.242422103881836,3.2164014180501304,1.6886865904313295e+18,61.50532950846355,0.0206167021145422,0.092189747840166,-0.0260635837912559,1.6886865904313295e+18,61.50532950846355,0.0195985930040478,0.0966694218417008,-0.023721933364868,,,,,,,,,,,,1.6886865904288837e+18,61.50288349609375,21.24751968383789,38.327519226074216,-21.464679718017575,1.6886865904288837e+18,61.50288349609375,-234.09847106933591,133.3533203125,-154.1884735107422,1.6886865904183483e+18,61.492348225911456,-0.249535580476125,0.0290250442922115,-0.7307848930358887,0.6346988479296366,-1.780491868654887,1.2289654811223347,2.1829721132914224
1.55,1.688686590470261e+18,61.544261067708334,-0.172509491443634,0.1035124460856119,0.0890671412150064,1.688686590470261e+18,61.544261067708334,-0.8424729704856873,-9.156933466593424,3.3684961001078286,1.688686590470261e+18,61.544261067708334,-0.6758095026016235,-9.2429412206014,3.2167415618896484,1.6886865904832422e+18,61.557242106119794,-0.014711671314823,0.0241800832251707,0.010181087302044,1.6886865904832422e+18,61.557242106119794,-0.0157806856247285,0.0286597615728775,0.0125227374956011,,,,,,,,,,,,1.6886865904788854e+18,61.55288520507812,20.793679428100585,38.02983856201172,-21.733079528808595,1.6886865904788854e+18,61.55288520507812,-234.55231323242188,133.0556396484375,-154.45687866210938,1.688686590470261e+18,61.544261067708334,-0.2512973447640736,0.0308931494752565,-0.7304062644640604,0.6343514919281006,-1.777893344561259,1.2291237513224285,2.1856857935587564
1.6,1.6886865905221737e+18,61.5961737467448,-0.0662878155708312,-0.0031169255574543,-0.0852676232655842,1.6886865905221737e+18,61.5961737467448,-0.7377869884173075,-9.260024388631184,3.2039895057678223,1.6886865905221737e+18,61.5961737467448,-0.6773451964060465,-9.239402770996094,3.226569732030233,1.6886865905264965e+18,61.60049609375,-0.0313068442046642,-0.1225548423826694,0.0187077480368315,1.6886865905264965e+18,61.60049609375,-0.0323758572340011,-0.1179733499884605,0.0209984928369521,,,,,,,,,,,,1.6886865905288822e+18,61.60288227539063,20.84247932434082,38.15427932739258,-21.62327919006348,1.6886865905288822e+18,61.60288227539063,-234.50351257324215,133.1800750732422,-154.34707641601562,1.6886865905221737e+18,61.5961737467448,-0.2508309483528137,0.0296029926588137,-0.7305126984914144,0.634474515914917,-1.777733047803243,1.2280489206314087,2.1829899152119956
1.65,1.6886865905740805e+18,61.64808024088541,0.2358503540356953,-0.0651137034098307,-0.0438044865926106,1.6886865905740805e+18,61.64808024088541,-0.4508476654688517,-9.319844881693522,3.248456080754598,1.6886865905740805e+18,61.64808024088541,-0.6925440629323324,-9.237226486206056,3.2295731703440347,1.688686590569762e+18,61.64376212565104,-0.0019344066580136,-0.0369064422945181,-0.0258090559703607,1.688686590569762e+18,61.64376212565104,-0.0029525152252366,-0.0323758584757645,-0.0235183115146355,,,,,,,,,,,,1.6886865905788805e+18,61.65288061523438,21.08891944885254,38.24455947875977,-21.806279373168945,1.6886865905788805e+18,61.65288061523438,-234.2570770263672,133.27035827636718,-154.530078125,1.6886865905740805e+18,61.64808024088541,-0.2495484054088591,0.0281212603052456,-0.7311017115910848,0.6343697905540466,-1.7820513645807905,1.2273889780044556,2.1832820574442544
1.7,1.688686590626e+18,61.69999975585937,0.0234911243120829,0.0182247161865234,0.0035953521728515,1.688686590626e+18,61.69999975585937,-0.6652047038078308,-9.23689333597819,3.294318596522013,1.688686590626e+18,61.69999975585937,-0.694541851679484,-9.237613360087076,3.228035847345988,1.6886865906216755e+18,61.695675455729166,0.0053450708898405,0.0872519190112749,-0.0169006052116553,1.6886865906216755e+18,61.695675455729166,0.0043269620897869,0.0918334101637203,-0.0145080499351024,,,,,,,,,,,,1.6886865906288837e+18,61.70288339843751,20.739999771118164,38.30555953979492,-21.86240005493164,1.6886865906288837e+18,61.70288339843751,-234.60599670410156,133.33135986328125,-154.58619689941406,1.688686590626e+18,61.69999975585937,-0.2506222824255625,0.029511605699857,-0.7311166922251383,0.6338656346003214,-1.7827425400416057,1.2275062799453735,2.187579075495402
1.75,1.6886865906779087e+18,61.75190877278646,-0.159726063410441,0.0047063827514648,-0.0623803138732909,1.6886865906779087e+18,61.75190877278646,-0.831904669602712,-9.250253677368164,3.232304652531942,1.6886865906779087e+18,61.75190877278646,-0.6780246297518412,-9.237455368041992,3.231997569402059,1.6886865906735828e+18,61.74758260091145,-0.0114028177534539,-0.0371100641787052,0.049734612305959,1.6886865906735828e+18,61.74758260091145,-0.0124209265535075,-0.0325794800495108,0.0520253566404183,,,,,,,,,,,,1.6886865906788836e+18,61.752883593750006,20.813199615478517,38.17867889404297,-22.016119384765624,1.6886865906788836e+18,61.752883593750006,-234.5327941894531,133.20447998046876,-154.7399139404297,1.6886865906779087e+18,61.75190877278646,-0.250949223836263,0.0293206920226414,-0.7305483818054199,0.634400208791097,-1.777600089708964,1.2274585167566936,2.182637612024943
1.8,1.688686590729824e+18,61.80382389322917,-0.0240556001663208,-0.0213136672973632,-0.0448140303293864,1.688686590729824e+18,61.80382389322917,-0.699701209863027,-9.27637513478597,3.248854955037435,1.688686590729824e+18,61.80382389322917,-0.6814916332562765,-9.23755677541097,3.2309815883636475,1.6886865907254958e+18,61.79949584960938,-0.0016798794191951,-0.0857247561216354,0.0053959762056668,1.6886865907254958e+18,61.79949584960938,-0.0027488937291006,-0.0812450796365737,0.0077376261663933,,,,,,,,,,,,1.6886865907288855e+18,61.80288549804688,20.72047996520996,38.342160034179685,-21.608639526367188,1.6886865907288855e+18,61.80288549804688,-234.62551574707032,133.36795654296876,-154.33243713378906,1.688686590729824e+18,61.80382389322917,-0.249464526772499,0.0277445645382006,-0.7307307720184326,0.6348463892936707,-1.7786900997161863,1.22748867670695,2.1792427698771157
1.85,1.688686590781736e+18,61.85573592122396,0.092774470647176,0.0475390752156575,0.0837690035502115,1.688686590781736e+18,61.85573592122396,-0.5986044605573019,-9.207382202148438,3.3744781017303467,1.688686590781736e+18,61.85573592122396,-0.6972249547640482,-9.23741658528646,3.2280217011769614,1.688686590777416e+18,61.851416015625006,0.0048869218832502,-0.0120645882561802,-0.0286088561018307,1.688686590777416e+18,61.851416015625006,0.0039197185978991,-0.0075849105293551,-0.0263181105256079,,,,,,,,,,,,1.6886865907788856e+18,61.852885546874994,21.12063980102539,38.405599212646486,-21.56471939086914,1.6886865907788856e+18,61.852885546874994,-234.22535400390623,133.431396484375,-154.28851928710938,1.688686590781736e+18,61.85573592122396,-0.2486645330985387,0.0272964611649512,-0.7312962015469869,0.6345287760098776,-1.7835362354914348,1.227446436882019,2.1822625001271567
1.9,1.6886865908336433e+18,61.90764306640625,0.0063643058141072,0.016707420349121,0.0606818199157714,1.6886865908336433e+18,61.90764306640625,-0.6843472520510355,-9.237092971801758,3.3547373612721763,1.6886865908336433e+18,61.90764306640625,-0.6965575814247131,-9.236295700073242,3.231368144353231,1.6886865908293235e+18,61.90332364908854,-0.0087557352768877,0.0148134821405012,0.0169006049012144,1.6886865908293235e+18,61.90332364908854,-0.0098247493927676,0.019293160488208,0.0192422556380431,,,,,,,,,,,,1.6886865908288837e+18,61.902883398437496,20.947399520874026,38.176239013671875,-21.679399490356445,1.6886865908288837e+18,61.902883398437496,-234.39859313964843,133.20203857421876,-154.4032012939453,1.6886865908336433e+18,61.90764306640625,-0.2489971816539764,0.027404682089885,-0.7312688231468201,0.6344251831372579,-1.783124844233195,1.2271074851353962,2.1825085481007895
1.95,1.6886865908769083e+18,61.95090856933594,-0.0396244525909423,0.067091941833496,0.0634853839874267,1.6886865908769083e+18,61.95090856933594,-0.7187440991401672,-9.18604612350464,3.361915826797486,1.6886865908769083e+18,61.95090856933594,-0.6849656701087952,-9.235633373260498,3.2357430458068848,1.688686590881236e+18,61.95523583984376,-0.0086030190189678,-0.0019344065415983,0.008144869779547,1.688686590881236e+18,61.95523583984376,-0.0096720329796273,0.0025961773159603,0.0104865208268165,,,,,,,,,,,,1.6886865908788818e+18,61.952881884765624,20.95227928161621,38.31775970458985,-21.567159271240236,1.6886865908788818e+18,61.952881884765624,-234.39371643066409,133.3435546875,-154.29095458984375,1.6886865908769083e+18,61.95090856933594,-0.2492153868079185,0.0271337879821657,-0.73087477684021,0.6348051428794861,-1.7794190645217896,1.2269068360328674,2.178732752799988
2.0,1.6886865909201644e+18,61.994164388020835,0.0369611382484435,0.0359586079915364,0.0469439029693602,1.6886865909201644e+18,61.994164388020835,-0.6494519313176473,-9.214959144592289,3.3501510620117188,1.6886865909201644e+18,61.994164388020835,-0.6922590931256613,-9.233413060506184,3.240519762039185,1.688686590933147e+18,62.007147135416666,-0.0119627776245275,0.0440841075032948,-0.04408410936594,1.688686590933147e+18,62.007147135416666,-0.013031791585187,0.0486146919429301,-0.0417933650314807,1.688686590926791e+18,62.000791015625,0.0,0.4630854427814483,0.869960367679596,13.54699993133545,0.0122122261673212,0.0,40.20000076293945,-122.7531531,49.1903749,1.6886865909288837e+18,62.00288364257813,21.37683982849121,38.23967971801758,-21.63547973632813,1.6886865909288837e+18,62.00288364257813,-233.9691589355469,133.26547546386718,-154.35927734375,1.6886865909201644e+18,61.994164388020835,-0.2495796432097753,0.0272861986110607,-0.7311231096585592,0.6343692342440287,-1.7812710205713909,1.226236621538798,2.1813650925954184
2.05,1.68868659097208e+18,62.04608015950521,0.0203715960184732,-0.0098711649576822,-0.0637776056925455,1.68868659097208e+18,62.04608015950521,-0.675773004690806,-9.257232666015623,3.247459173202514,1.68868659097208e+18,62.04608015950521,-0.7019906242688497,-9.229856808980308,3.2485493818918862,1.6886865909764086e+18,62.05040869140625,-0.0161115708760916,0.0279470840469002,-0.0177150918170808,1.6886865909764086e+18,62.05040869140625,-0.0171042270958423,0.0324522173032164,-0.0153479892760514,,,,,,,,,,,,1.688686590978881e+18,62.0528810546875,20.930319595336915,38.21039962768555,-21.65987968444824,1.688686590978881e+18,62.0528810546875,-234.415673828125,133.23619384765624,-154.38367614746093,1.68868659097208e+18,62.04608015950521,-0.2505967716375987,0.0279717314988374,-0.7314364115397135,0.6335768302281698,-1.783630609512329,1.2251646518707275,2.1862568855285645
2.1,1.688686591023994e+18,62.09799430338541,0.0635961890220641,-0.0394757588704426,-0.0626652240753173,1.688686591023994e+18,62.09799430338541,-0.6325027942657471,-9.284351030985514,3.2556345462799072,1.688686591023994e+18,62.09799430338541,-0.7019450068473816,-9.227370580037435,3.255612373352051,1.6886865910196687e+18,62.09366878255208,-0.0150680091852942,-0.0043778677160541,0.0069231395221625,1.6886865910196687e+18,62.09366878255208,-0.0161370234563946,0.000203621884187,0.0092138839730371,,,,,,,,,,,,1.6886865910288847e+18,62.10288452148437,21.049879455566405,38.193318939208986,-21.762359619140625,1.6886865910288847e+18,62.10288452148437,-234.29611206054688,133.2191162109375,-154.4861572265625,1.688686591023994e+18,62.09799430338541,-0.2508740524450938,0.027731359625856,-0.7314441005388895,0.6334688266118368,-1.783170739809672,1.2244174480438232,2.185877720514933
2.15,1.6886865910759035e+18,62.14990348307291,-0.0556549032529194,0.0002854665120442,-0.0995175043741861,1.6886865910759035e+18,62.14990348307291,-0.7457630435625712,-9.244071960449215,3.221536874771118,1.6886865910759035e+18,62.14990348307291,-0.695954163869222,-9.226852734883629,3.2583669821421304,1.6886865910715802e+18,62.14558015950521,-0.0008653924451209,0.0292197205126285,-0.0012726358448465,1.6886865910715802e+18,62.14558015950521,-0.0018835011481617,0.0337503049522637,0.0010181088776638,,,,,,,,,,,,1.688686591078883e+18,62.15288305664062,21.11819953918457,38.05667953491211,-21.730640029907228,1.688686591078883e+18,62.15288305664062,-234.2277984619141,133.0824768066406,-154.45443725585938,1.6886865910759035e+18,62.14990348307291,-0.2513910929361979,0.0280178834994633,-0.7312243978182474,0.6335048874219259,-1.781238317489624,1.2242618004480998,2.1851284503936768
2.2,1.6886865911278182e+18,62.20181803385416,-0.0495441555976867,-0.0028626124064127,0.0243640740712483,1.6886865911278182e+18,62.20181803385416,-0.7447660565376282,-9.248259544372557,3.3413774172465005,1.6886865911278182e+18,62.20181803385416,-0.7010679244995117,-9.22789223988851,3.2543259461720786,1.688686591123489e+18,62.19748901367188,0.0064140850833305,-0.049225558216373,-0.0008144870710869,1.688686591123489e+18,62.19748901367188,0.0053959763608872,-0.044694973155856,0.0014762577290336,,,,,,,,,,,,1.6886865911288858e+18,62.202885498046875,21.5281192779541,37.86147918701172,-21.789199447631837,1.6886865911288858e+18,62.202885498046875,-233.81787719726563,132.88727722167968,-154.51299743652345,1.6886865911278182e+18,62.20181803385416,-0.2508646647135416,0.0278087543944517,-0.7314104040463766,0.6335079073905945,-1.782993197441101,1.2245735724767048,2.1857943534851074
2.25,1.6886865911797302e+18,62.25373014322917,0.1307758688926696,0.0369237263997395,0.0890444119771321,1.6886865911797302e+18,62.25373014322917,-0.5762714544932047,-9.207381884256998,3.40658187866211,1.6886865911797302e+18,62.25373014322917,-0.7128933469454447,-9.226800918579102,3.2548500696818032,1.6886865911754084e+18,62.249408284505215,-0.0072794773926336,-0.0299323965640117,-0.0126245484376946,1.6886865911754084e+18,62.249408284505215,-0.0083484914309034,-0.0254527179834743,-0.0102319930059213,,,,,,,,,,,,1.6886865911788836e+18,62.25288359374999,20.957159805297852,38.100599670410155,-21.811159515380854,1.6886865911788836e+18,62.25288359374999,-234.38883361816409,133.12639770507812,-154.5349578857422,1.6886865911797302e+18,62.25373014322917,-0.2500546922286351,0.0270123245815435,-0.7318521936734518,0.6333524783452352,-1.786428968111674,1.22424578666687,2.1868881384531655
2.3,1.6886865912316403e+18,62.305640218098965,0.0205441912015278,-0.0001497268676757,-0.005834420522054,1.6886865912316403e+18,62.305640218098965,-0.6809574365615845,-9.243274370829266,3.3162527879079184,1.6886865912316403e+18,62.305640218098965,-0.7073476513226827,-9.225619951883951,3.2593998114267984,1.688686591227318e+18,62.30131803385416,-0.0049378272960893,0.0263181105256079,0.0161879289274413,1.688686591227318e+18,62.30131803385416,-0.0060068416253973,0.030848695586125,0.0185295793538291,,,,,,,,,,,,1.6886865912288845e+18,62.30288442382812,21.03036003112793,38.21283950805664,-21.67939987182617,1.6886865912288845e+18,62.30288442382812,-234.31563415527344,133.23863525390624,-154.4031951904297,1.6886865912316403e+18,62.305640218098965,-0.2504749993483225,0.0270523441334565,-0.7316576441129049,0.6334094603856405,-1.7845134735107422,1.2238917748133342,2.185659646987915
2.35,1.6886865912835525e+18,62.357552490234376,-0.0917850534121195,0.051319122314453,-0.0039303302764892,1.6886865912835525e+18,62.357552490234376,-0.7814559936523438,-9.191829045613607,3.320639689763387,1.6886865912835525e+18,62.357552490234376,-0.6955169637997946,-9.225643475850424,3.2618826230367026,1.68868659127923e+18,62.35322981770833,-0.0071776666833708,0.0004072434967383,0.0182241462171077,1.68868659127923e+18,62.35322981770833,-0.0082466808768609,0.0049887330581744,0.0205148911724487,,,,,,,,,,,,1.6886865912788805e+18,62.35288051757813,20.971799850463867,38.17867889404297,-21.64279975891113,1.6886865912788805e+18,62.35288051757813,-234.37419738769532,133.20447387695313,-154.3665985107422,1.6886865912835525e+18,62.357552490234376,-0.2507810294628143,0.0270280539989471,-0.7312463323275248,0.633764366308848,-1.7808889945348103,1.2238986889521282,2.182447671890259
2.4,1.6886865913268152e+18,62.40081506347656,-0.0809749364852905,-0.0283384323120117,-0.0575069189071654,1.6886865913268152e+18,62.40081506347656,-0.7755736410617828,-9.26919651031494,3.272484064102173,1.6886865913268152e+18,62.40081506347656,-0.7004447281360626,-9.223353385925291,3.267303586006165,1.688686591331143e+18,62.4051426595052,-0.0184786735723415,-0.0475456776718298,-0.0129808865798015,1.688686591331143e+18,62.4051426595052,-0.0195476884643236,-0.0430150938530762,-0.0106901417796809,,,,,,,,,,,,1.6886865913288842e+18,62.40288427734375,20.918119430541992,38.239678955078126,-21.803839492797852,1.6886865913288842e+18,62.40288427734375,-234.42787170410156,133.26547546386718,-154.52763671875,1.6886865913268152e+18,62.40081506347656,-0.2505553364753723,0.0264128288254141,-0.7314403653144836,0.6336555182933807,-1.781991183757782,1.2232117652893066,2.182342290878296
2.45,1.688686591370072e+18,62.44407185872396,0.0685460766156514,-0.0389874776204426,-0.1167490482330321,1.688686591370072e+18,62.44407185872396,-0.638883650302887,-9.277970631917318,3.215754270553589,1.688686591370072e+18,62.44407185872396,-0.7132757504781088,-9.221478462219238,3.2698159217834473,1.688686591383055e+18,62.45705493164062,-0.0001018107674705,-0.0327831017784773,-0.003003420929114,1.688686591383055e+18,62.45705493164062,-0.0011199196742381,-0.0282525170478038,-0.0007126760950389,,,,,,,,,,,,1.6886865913788805e+18,62.45288046875,21.103559494018555,38.0151985168457,-21.879479598999023,1.6886865913788805e+18,62.45288046875,-234.24243774414063,133.04099731445314,-154.6032745361328,1.688686591370072e+18,62.44407185872396,-0.2498279760281244,0.0255681977917749,-0.7319172620773315,0.6334267059961954,-1.7855827411015828,1.2226516405741374,2.183650811513265
2.5,1.688686591421987e+18,62.49598722330729,0.0453535914421081,-0.0077145894368489,0.0150725841522216,1.688686591421987e+18,62.49598722330729,-0.6602196296056112,-9.248259862263998,3.3435707887013755,1.688686591421987e+18,62.49598722330729,-0.7114192446072897,-9.223040580749512,3.26581080754598,1.688686591426321e+18,62.500320678710935,0.013820826075971,0.0363464830443262,0.0122173051349818,1.688686591426321e+18,62.500320678710935,0.0127518121153115,0.0408516135066747,0.0145080494694411,,,,,,,,,,,,1.6886865914288858e+18,62.50288554687499,20.925439834594727,38.19087905883789,-21.618399810791015,1.6886865914288858e+18,62.50288554687499,-234.420556640625,133.2166778564453,-154.34219360351562,1.688686591421987e+18,62.49598722330729,-0.2496241778135299,0.0256224044909079,-0.7318506439526876,0.6335817376772562,-1.7852944533030193,1.2231183449427288,2.1831268469492593
2.55,1.6886865914739013e+18,62.547901204427085,-0.098574936389923,0.0926262537638345,0.0472004413604736,1.6886865914739013e+18,62.547901204427085,-0.796411136786143,-9.14915657043457,3.373879909515381,1.6886865914739013e+18,62.547901204427085,-0.7036822239557902,-9.224278132120768,3.2639920711517334,1.68868659146957e+18,62.543570231119794,0.0027488934962699,0.0272853137770046,-0.0018325957159201,1.68868659146957e+18,62.543570231119794,0.0017307849290469,0.0318668039205173,0.000509054477637,,,,,,,,,,,,1.6886865914788838e+18,62.552883886718746,21.018159484863283,38.176238250732425,-21.620838928222657,1.6886865914788838e+18,62.552883886718746,-234.3278350830078,133.20203857421876,-154.34463500976562,1.6886865914739013e+18,62.547901204427085,-0.2502044240633647,0.026319288338224,-0.7315563559532166,0.6336642305056254,-1.783145745595296,1.223488966623942,2.182835817337036
2.6,1.6886865915258122e+18,62.59981217447916,-0.0738353331883748,-0.036177635192871,-0.0306580066680907,1.6886865915258122e+18,62.59981217447916,-0.7762715419133505,-9.27637513478597,3.2995030085245767,1.6886865915258122e+18,62.59981217447916,-0.7082822322845459,-9.222692807515465,3.2674736181894937,1.6886865915214835e+18,62.5954833984375,-0.0117591560507813,-0.0483601664503415,0.0040215294963369,1.6886865915214835e+18,62.5954833984375,-0.0128281700114408,-0.0437786749874551,0.0064140850057203,,,,,,,,,,,,1.688686591528881e+18,62.602880957031246,20.89859962463379,38.06643905639648,-21.772119522094727,1.688686591528881e+18,62.602880957031246,-234.44739379882813,133.092236328125,-154.49591369628905,1.6886865915258122e+18,62.59981217447916,-0.2499108562866846,0.0257739461958407,-0.7317359248797098,0.6335950295130411,-1.784271200497945,1.2230147123336792,2.1827492713928223
2.65,1.688686591577729e+18,62.65172892252605,0.1391872564951578,0.0086851119995117,0.0405438741048176,1.688686591577729e+18,62.65172892252605,-0.5730810364087423,-9.23111089070638,3.3696924845377603,1.688686591577729e+18,62.65172892252605,-0.7181143164634705,-9.222291310628256,3.266461213429769,1.6886865915734036e+18,62.647403808593744,0.0025961773159603,-0.0329867247492075,-0.0062104631991435,1.6886865915734036e+18,62.647403808593744,0.0015271631224701,-0.0284052329758802,-0.0039197185930484,,,,,,,,,,,,1.6886865915788856e+18,62.652885595703125,21.169439697265624,37.966400146484375,-21.92339973449707,1.6886865915788856e+18,62.652885595703125,-234.1765594482422,132.99219360351563,-154.6471954345703,1.688686591577729e+18,62.65172892252605,-0.2489279856284459,0.0248674098402261,-0.7321097254753113,0.6335865060488383,-1.7872087160746255,1.2228943904240923,2.182923634847006
2.7,1.6886865916296335e+18,62.703633300781256,0.0296979347864786,0.0454031626383462,0.0397732257843017,1.6886865916296335e+18,62.703633300781256,-0.6783652305603027,-9.194022496541342,3.370888868967692,1.6886865916296335e+18,62.703633300781256,-0.7139091889063517,-9.22192096710205,3.2684282461802163,1.688686591625311e+18,62.699310628255205,-0.0025961773159603,0.0618501069645086,-0.0072285722320277,1.688686591625311e+18,62.699310628255205,-0.0036651915094504,0.0664315956334272,-0.004886922019068,,,,,,,,,,,,1.6886865916288837e+18,62.70288369140625,21.31095962524414,38.1030387878418,-21.43539962768555,1.6886865916288837e+18,62.70288369140625,-234.0350372314453,133.12883911132812,-154.1592010498047,1.6886865916296335e+18,62.703633300781256,-0.2497176478306451,0.0255601791044075,-0.7319395343462626,0.6334446469942728,-1.7858558893203735,1.222783446311951,2.183746019999186
2.75,1.6886865916815493e+18,62.755549235026045,-0.1119090914726256,-0.023700714111328,-0.0365053017934162,1.6886865916815493e+18,62.755549235026045,-0.8127620816230774,-9.262018203735352,3.2993036111195884,1.6886865916815493e+18,62.755549235026045,-0.706699013710022,-9.220812797546383,3.2731215159098306,1.6886865916772247e+18,62.75122469075521,-0.0078903425795335,-0.0011199199167701,0.0131845079983273,1.6886865916772247e+18,62.75122469075521,-0.0089593570058543,0.0034615689267714,0.0154752526432275,,,,,,,,,,,,1.6886865916788836e+18,62.75288369140625,21.00839958190918,37.93223876953125,-21.7403995513916,1.6886865916788836e+18,62.75288369140625,-234.33759765625,132.95803833007812,-154.46419677734374,1.6886865916815493e+18,62.755549235026045,-0.2503580053647358,0.0258181759466727,-0.7316792408625284,0.6334823171297709,-1.7834514776865642,1.2224524815877278,2.182669242223104
2.8,1.688686591733459e+18,62.80745906575521,0.1015406648317972,-0.0019197463989257,-0.0191436608632405,1.688686591733459e+18,62.80745906575521,-0.607776939868927,-9.240084012349447,3.3152557214101157,1.688686591733459e+18,62.80745906575521,-0.7151636282602946,-9.220659573872885,3.271711985270182,1.6886865917291295e+18,62.803129475911454,0.0032579479739069,-0.0406225395078459,-0.0122682102955877,1.6886865917291295e+18,62.803129475911454,0.002188933858027,-0.036041049286723,-0.0098756549414246,,,,,,,,,,,,1.6886865917288837e+18,62.80288354492187,21.698919677734377,38.26408004760742,-21.781879425048828,1.6886865917288837e+18,62.80288354492187,-233.64707641601564,133.28987731933594,-154.50567932128905,1.688686591733459e+18,62.80745906575521,-0.2495796630779901,0.02515902929008,-0.731996754805247,0.6334490776062012,-1.786009351412455,1.2224067846934,2.1831231117248535
2.85,1.6886865917767153e+18,62.85071508789062,0.099502682685852,0.0450377464294433,0.0495585203170776,1.6886865917767153e+18,62.85071508789062,-0.6113661825656891,-9.193822860717772,3.3816566467285156,1.6886865917767153e+18,62.85071508789062,-0.7167148888111115,-9.22135591506958,3.269410729408264,1.688686591781046e+18,62.8550458984375,0.005854125212257,0.0507527217268943,-0.0083993971347807,1.688686591781046e+18,62.8550458984375,0.0047851111739873,0.0553342116375764,-0.0061086524898806,,,,,,,,,,,,1.6886865917788836e+18,62.85288354492187,21.332919311523437,38.042039489746095,-21.818479537963867,1.6886865917788836e+18,62.85288354492187,-234.01307373046876,133.06784057617188,-154.5422790527344,1.6886865917767153e+18,62.85071508789062,-0.2497453689575195,0.025556574575603,-0.7320369184017181,0.6333214640617371,-1.786608099937439,1.222614824771881,2.184539556503296
2.9,1.6886865918199828e+18,62.89398307291666,-0.0364182392756144,0.0287815729777017,0.0024881362915038,1.6886865918199828e+18,62.89398307291666,-0.7401797970136007,-9.2097749710083,3.336990515391032,1.6886865918199828e+18,62.89398307291666,-0.7096075812975565,-9.221051851908364,3.271814982096354,1.688686591832961e+18,62.90696118164062,-0.0072285720768073,0.030746883402268,0.0093156949927408,1.688686591832961e+18,62.90696118164062,-0.0082975863479077,0.03532837331295,0.0116573449534673,,,,,,,,,,,,1.6886865918288814e+18,62.90288134765625,20.64727935791016,38.10792007446289,-21.833119201660157,1.6886865918288814e+18,62.90288134765625,-234.69871520996097,133.1337158203125,-154.55691528320312,1.6886865918199828e+18,62.89398307291666,-0.2506067256132761,0.0262531209737062,-0.7317645947138468,0.6332673827807108,-1.7843791643778484,1.2225242058436077,2.184596141179403
2.95,1.6886865918718912e+18,62.94589119466146,-0.0655792752901713,-0.0113751093546548,-0.0489277839660644,1.6886865918718912e+18,62.94589119466146,-0.7635098099708557,-9.249256451924644,3.2887352307637534,1.6886865918718912e+18,62.94589119466146,-0.7037765582402548,-9.22037665049235,3.274975617726644,1.6886865918762158e+18,62.95021582031249,-0.0026725353382061,-0.0046578475448768,0.0006108651868999,1.6886865918762158e+18,62.95021582031249,-0.0037415496772154,-7.635797373950004e-05,0.0029779681935906,,,,,,,,,,,,1.6886865918788856e+18,62.95288559570313,20.874199295043944,38.23479995727539,-22.01367950439453,1.6886865918788856e+18,62.95288559570313,-234.47179565429687,133.260595703125,-154.73748168945312,1.6886865918718912e+18,62.94589119466146,-0.2509869436422984,0.0263526327908038,-0.7315577665964762,0.633351723353068,-1.7824764649073284,1.2223228613535564,2.183403491973877
3.0,1.6886865919238042e+18,62.99780419921874,0.0162901679674784,0.0329618453979491,-0.0553116798400878,1.6886865919238042e+18,62.99780419921874,-0.6905287305514017,-9.204590479532875,3.281357447306315,1.6886865919238042e+18,62.99780419921874,-0.7126649220784506,-9.22004763285319,3.273981730143229,1.688686591919483e+18,62.99348274739583,0.0018325957935302,-0.0023925555093834,-0.0227547306567429,1.688686591919483e+18,62.99348274739583,0.0007635815418325,0.0021380282317598,-0.0204639857014019,1.688686591926748e+18,63.000747802734374,0.0,0.4611015915870666,0.8803601264953613,13.552000045776367,0.0106696290895342,0.0,40.20000076293945,-122.7531532,49.1903749,1.688686591928886e+18,63.00288598632813,20.44475975036621,38.06887969970703,-22.023439025878908,1.688686591928886e+18,63.00288598632813,-234.90123901367187,133.094677734375,-154.7472381591797,1.6886865919238042e+18,62.99780419921874,-0.2508369088172912,0.0263940263539552,-0.7318658630053202,0.6330533822377523,-1.785132606824239,1.222224513689677,2.1859039465586343
3.05,1.688686591975719e+18,63.049719075520834,0.0432446201642353,-0.0458583831787109,-0.0292398929595947,1.688686591975719e+18,63.049719075520834,-0.6711867650349935,-9.283154805501304,3.3064820766448975,1.688686591975719e+18,63.049719075520834,-0.7202774087587992,-9.219791730244957,3.2730345726013184,1.6886865919713907e+18,63.0453907063802,0.0007126761095908,-0.0113010072964242,-0.0091120732637742,1.6886865919713907e+18,63.0453907063802,-0.0002545272000133,-0.0067704229149966,-0.0067195177543907,,,,,,,,,,,,1.6886865919788836e+18,63.05288349609375,20.6814395904541,38.24699935913086,-22.074679565429687,1.6886865919788836e+18,63.05288349609375,-234.66455688476563,133.27279663085938,-154.79847717285156,1.688686591975719e+18,63.049719075520834,-0.2507152060667674,0.0264445195595422,-0.7321291963259379,0.632794976234436,-1.787413239479065,1.222148338953654,2.1880829334259033
3.1,1.6886865920276278e+18,63.1016280110677,0.073545217514038,0.0049702326456705,0.0136229991912841,1.6886865920276278e+18,63.1016280110677,-0.6396812597910563,-9.23390261332194,3.345166047414144,1.6886865920276278e+18,63.1016280110677,-0.7190725008646647,-9.221368153889976,3.268855651219686,1.6886865920233057e+18,63.097305338541666,0.0148134818300603,0.0207694187605132,0.0012726359030542,1.6886865920233057e+18,63.097305338541666,0.013795373495668,0.0253509076622624,0.0036651915094504,,,,,,,,,,,,1.6886865920288845e+18,63.102884326171875,20.76439971923828,38.09083862304688,-21.93803939819336,1.6886865920288845e+18,63.102884326171875,-234.58159790039065,133.11663513183595,-154.66183776855468,1.6886865920276278e+18,63.1016280110677,-0.2506769001483917,0.0267135358105102,-0.7320774594942728,0.6328586935997009,-1.7873296737670898,1.2226190567016602,2.1883206367492676
3.15,1.6886865920795436e+18,63.15354378255208,-0.015690247217814,0.0714772542317707,0.1781123479207357,1.6886865920795436e+18,63.15354378255208,-0.7236294547716776,-9.169495582580566,3.504886945088705,1.6886865920795436e+18,63.15354378255208,-0.7137852311134338,-9.2234681447347,3.264087200164795,1.68868659207522e+18,63.14921997070312,0.0081957752505938,0.0216348102937141,-0.0013235413935035,1.68868659207522e+18,63.14921997070312,0.0072285719215869,0.0261653953542311,0.0009672033678119,,,,,,,,,,,,1.6886865920788833e+18,63.15288344726563,21.01571922302246,38.054239654541014,-21.713559341430663,1.6886865920788833e+18,63.15288344726563,-234.3302734375,133.08003845214844,-154.43735961914064,1.6886865920795436e+18,63.15354378255208,-0.25099511941274,0.0273794059952099,-0.7318689227104187,0.6329452792803446,-1.7860923210779829,1.2232468525568645,2.188502788543701
3.2,1.68868659213145e+18,63.205449869791664,-0.0473835666974385,0.031951904296875,-0.0148869355519612,1.68868659213145e+18,63.205449869791664,-0.7543373306592306,-9.204790115356444,3.324029445648194,1.68868659213145e+18,63.205449869791664,-0.7127997875213623,-9.219237327575684,3.276228984196981,1.6886865921271316e+18,63.20113159179687,-0.0351247520496447,0.0057014087215065,0.0028507045547788,1.6886865921271316e+18,63.20113159179687,-0.0361428589870531,0.0102319931611418,0.0052432601029674,,,,,,,,,,,,1.6886865921288852e+18,63.20288525390625,20.786359786987305,38.20307846069336,-21.781879043579103,1.6886865921288852e+18,63.20288525390625,-234.55963134765625,133.2288787841797,-154.50567321777345,1.68868659213145e+18,63.205449869791664,-0.2516296009222666,0.027134505410989,-0.7318437695503235,0.6327329079310099,-1.7850329081217449,1.2219831943511963,2.1880597273508706
3.25,1.6886865921833649e+18,63.25736490885416,-0.0423695047696431,-0.0918960571289062,-0.2282178401947021,1.6886865921833649e+18,63.25736490885416,-0.746361255645752,-9.324830055236816,3.1220354239145913,1.6886865921833649e+18,63.25736490885416,-0.7098377744356791,-9.215429306030272,3.2875658671061196,1.6886865921790464e+18,63.253046468098965,-0.0214820941910146,-0.0690277727941671,0.0313068435837824,1.6886865921790464e+18,63.253046468098965,-0.0225511083068946,-0.0644462816417216,0.0335975885391235,,,,,,,,,,,,1.688686592178885e+18,63.25288515625,20.979119491577148,38.312879180908205,-21.75747947692871,1.688686592178885e+18,63.25288515625,-234.36687622070312,133.33867797851562,-154.4812774658203,1.6886865921833649e+18,63.25736490885416,-0.2512096762657165,0.0257035121321677,-0.7317922115325928,0.6330188910166422,-1.7834552526474,1.2208491961161296,2.183810313542684
