seconds_elapsed_rounded,accelerometer_time,accelerometer_seconds_elapsed,accelerometer_z,accelerometer_y,accelerometer_x,accelerometeruncalibrated_time,accelerometeruncalibrated_seconds_elapsed,accelerometeruncalibrated_z,accelerometeruncalibrated_y,accelerometeruncalibrated_x,gravity_time,gravity_seconds_elapsed,gravity_z,gravity_y,gravity_x,gyroscope_time,gyroscope_seconds_elapsed,gyroscope_z,gyroscope_y,gyroscope_x,gyroscopeuncalibrated_time,gyroscopeuncalibrated_seconds_elapsed,gyroscopeuncalibrated_z,gyroscopeuncalibrated_y,gyroscopeuncalibrated_x,location_time,location_seconds_elapsed,location_bearingAccuracy,location_speedAccuracy,location_verticalAccuracy,location_horizontalAccuracy,location_speed,location_bearing,location_altitude,location_longitude,location_latitude,magnetometer_time,magnetometer_seconds_elapsed,magnetometer_z,magnetometer_y,magnetometer_x,magnetometeruncalibrated_time,magnetometeruncalibrated_seconds_elapsed,magnetometeruncalibrated_z,magnetometeruncalibrated_y,magnetometeruncalibrated_x,orientation_time,orientation_seconds_elapsed,orientation_qz,orientation_qy,orientation_qx,orientation_qw,orientation_roll,orientation_pitch,orientation_yaw
0.0,1.688686663926177e+18,135.00017692057293,-0.0124631524085998,0.0110378265380859,-0.0008949438730875,1.688686663926177e+18,135.00017692057293,-0.7042874495188395,-9.18185838063558,3.4620156288146973,1.688686663926177e+18,135.00017692057293,-0.6976703206698099,-9.17539151509603,3.400223175684611,1.68868666392185e+18,134.99585009765624,0.0207694185276825,0.0524326004087924,0.0416915540893872,1.68868666392185e+18,134.99585009765624,0.0197004042565822,0.0569631854693094,0.0440841081241766,1.688686663927657e+18,135.00165698242188,0.0,0.4022166430950165,0.8430699706077576,7.59499979019165,0.0398880839347839,0.0,40.30000305175781,-122.7531609,49.1903723,1.688686663928886e+18,135.00288603515625,19.505359649658203,37.32711944580078,-24.404879760742187,1.688686663928886e+18,135.00288603515625,-235.84063720703125,132.35291748046876,-157.12867736816406,1.688686663926177e+18,135.00017692057293,-0.2956425448258717,0.068563292423884,-0.7286015550295512,0.6140310565630595,-1.773179531097412,1.2091300090154011,2.3029557863871255
0.05,1.688686663978085e+18,135.05208487955727,-0.054478625456492,-0.0103737513224283,-0.0169936815897623,1.688686663978085e+18,135.05208487955727,-0.7389833927154541,-9.20399252573649,3.4454652468363443,1.688686663978085e+18,135.05208487955727,-0.6903507908185323,-9.176114082336426,3.399771531422933,1.688686663973759e+18,135.04775911458333,-0.0094175062452753,0.0619519166648387,-0.0298305864756305,1.688686663973759e+18,135.04775911458333,-0.0104356144244472,0.0665334053337573,-0.0275398421411712,,,,,,,,,,,,1.688686663978887e+18,135.05288662109373,19.36383972167969,37.04651947021485,-24.29751968383789,1.688686663978887e+18,135.05288662109373,-235.9821563720703,132.07232055664062,-157.0213165283203,1.688686663978085e+18,135.05208487955727,-0.2967388232549031,0.0697492013374964,-0.7282328208287557,0.6138060688972473,-1.7711390654246013,1.2093384265899658,2.3043053150177
0.1,1.6886866640300004e+18,135.10400032552084,-0.2957048614819844,0.0540949503580729,-0.3585370381673177,1.6886866640300004e+18,135.10400032552084,-0.9836495121320088,-9.132606188456217,3.121836026509603,1.6886866640300004e+18,135.10400032552084,-0.6937906742095947,-9.169196446736654,3.4176856676737466,1.688686664025676e+18,135.09967602539064,-0.0519744517902532,-0.1389209354917207,0.0710130849232276,1.688686664025676e+18,135.09967602539064,-0.0530434660613536,-0.1343903541564941,0.0733547344182928,,,,,,,,,,,,1.6886866640288837e+18,135.1028838378906,19.57855987548828,37.222198486328125,-24.51467933654785,1.6886866640288837e+18,135.1028838378906,-235.7674346923828,132.247998046875,-157.23847351074218,1.6886866640300004e+18,135.10400032552084,-0.296387086311976,0.0679807737469673,-0.7285192012786865,0.6138325730959574,-1.7710843880971272,1.2073495388031006,2.3011910915374756
0.15,1.6886866640819116e+18,135.15591153971354,0.1043431957562764,-0.1067209243774413,0.1357740561167399,1.6886866640819116e+18,135.15591153971354,-0.5748756428559622,-9.299705187479654,3.600998640060425,1.6886866640819116e+18,135.15591153971354,-0.6850648721059164,-9.175479571024576,3.402537186940511,1.6886866640775834e+18,135.15158325195313,0.0357356169455063,-0.3899356424808502,0.1401935741305351,1.6886866640775834e+18,135.15158325195313,0.0346666010445914,-0.3854050636291504,0.1424843172232309,,,,,,,,,,,,1.688686664078886e+18,135.15288603515626,19.52243957519531,37.22707901000977,-24.182839584350585,1.688686664078886e+18,135.15288603515626,-235.8235595703125,132.25287475585938,-156.90663452148436,1.6886866640819116e+18,135.15591153971354,-0.2901302476723988,0.0616013755400975,-0.7287803292274475,0.61717156569163,-1.769491195678711,1.2091567516326904,2.280710220336914
0.2,1.6886866641251686e+18,135.19916857910158,0.6177188754081726,0.3374652862548828,0.5721778869628906,1.6886866641251686e+18,135.19916857910158,-0.0738783981651067,-8.863912582397461,4.012165307998657,1.6886866641251686e+18,135.19916857910158,-0.6974433362483978,-9.183873176574709,3.3773000240325928,1.6886866641295002e+18,135.2035000813802,0.0642426597575346,0.1209513247013092,-0.0780889377929269,1.6886866641295002e+18,135.2035000813802,0.0632245528201261,0.125481903553009,-0.0756963855431725,,,,,,,,,,,,1.6886866641288855e+18,135.20288544921874,19.49803962707519,37.33687896728516,-23.92419891357422,1.6886866641288855e+18,135.20288544921874,-235.84795837402345,132.36267700195313,-156.647998046875,1.6886866641251686e+18,135.19916857910158,-0.2868871986865997,0.0600200742483138,-0.7293469607830048,0.618179440498352,-1.7744534611701963,1.2115812301635742,2.2783907651901245
0.25,1.688686664168432e+18,135.24243204752602,0.0873494346936543,0.2359898885091146,0.3874332110087077,1.688686664168432e+18,135.24243204752602,-0.6113661825656891,-8.965906143188477,3.824528217315674,1.688686664168432e+18,135.24243204752602,-0.7045616507530212,-9.184391339619957,3.3744076093037925,1.6886866641814126e+18,135.25541235351565,-0.0098756545533736,0.3587306042512257,-0.1755728522936502,1.6886866641814126e+18,135.25541235351565,-0.0108937627325454,0.3632102857033412,-0.1732311993837356,,,,,,,,,,,,1.688686664178885e+18,135.25288500976563,20.332519912719725,37.161199951171874,-24.314599609375,1.688686664178885e+18,135.25288500976563,-235.0134735107422,132.18699951171874,-157.03839721679688,1.688686664168432e+18,135.24243204752602,-0.2917498747507731,0.0661417270700136,-0.7290630539258321,0.6156002481778463,-1.7766441106796265,1.2117319504419963,2.2968974908192954
0.3,1.6886866642203476e+18,135.2943477376302,-0.4252202113469441,-0.2133080164591471,-0.461896816889445,1.6886866642203476e+18,135.2943477376302,-1.1531411012013753,-9.402796109517416,3.002593676249186,1.6886866642203476e+18,135.2943477376302,-0.7337669134140015,-9.171983400980633,3.4018030961354575,1.6886866642333207e+18,135.30732071940102,-0.0889827037851015,-0.3060434907674789,0.0494800868133704,1.6886866642333207e+18,135.30732071940102,-0.0900517180562019,-0.3015128994981447,0.0517708299060662,,,,,,,,,,,,1.6886866642288873e+18,135.3028874511719,19.5468391418457,37.31491928100586,-24.299959564208983,1.6886866642288873e+18,135.3028874511719,-235.79915466308591,132.3407196044922,-157.0237548828125,1.6886866642203476e+18,135.2943477376302,-0.2953583498795827,0.0688411742448806,-0.7298356294631958,0.6126678387324015,-1.783243974049886,1.2081509431203206,2.3130598862965903
0.35,1.688686664272254e+18,135.3462538248698,0.244434912999471,-0.35430908203125,-0.564166784286499,1.688686664272254e+18,135.3462538248698,-0.5022933483123779,-9.53799057006836,2.911865790685018,1.688686664272254e+18,135.3462538248698,-0.7525743047396342,-9.166176795959473,3.4133451779683432,1.688686664276585e+18,135.3505850830078,-0.050854530185461,-0.6454555094242096,0.2658790946006774,1.688686664276585e+18,135.3505850830078,-0.051923545077443,-0.6408739984035492,0.2682461962103843,,,,,,,,,,,,1.688686664278885e+18,135.35288510742188,19.971399307250977,37.1904800415039,-24.038879776000975,1.688686664278885e+18,135.35288510742188,-235.37459716796872,132.21628112792968,-156.76267700195314,1.688686664272254e+18,135.3462538248698,-0.2873400350411733,0.0587662160396575,-0.7313643495241801,0.6156817475954691,-1.7878135442733765,1.206484357515971,2.2908079624176025
0.4,1.6886866643241697e+18,135.39816975911458,0.3727405766646067,0.0883143742879232,-0.0157841841379801,1.6886866643241697e+18,135.39816975911458,-0.308075909813245,-9.107680956522625,3.440878947575887,1.6886866643241697e+18,135.39816975911458,-0.6866625348726908,-9.17849063873291,3.393975734710694,1.688686664319845e+18,135.39384497070313,0.0251472853124141,-0.2494366411119699,0.2789108902215957,1.688686664319845e+18,135.39384497070313,0.0241291768228013,-0.2449060597767432,0.2812016308307647,,,,,,,,,,,,1.6886866643288886e+18,135.4028884765625,20.088520050048828,37.21975936889648,-23.599679946899418,1.6886866643288886e+18,135.4028884765625,-235.25747680664065,132.245556640625,-156.32347717285157,1.6886866643241697e+18,135.39816975911458,-0.2796953320503235,0.0500319103399912,-0.7297231952349345,0.6219057440757751,-1.7704095045725503,1.2100253502527871,2.2489589850107827
0.45,1.68868666437608e+18,135.4500799967448,-0.0098192791144053,0.275074005126953,0.3818689187367757,1.68868666437608e+18,135.4500799967448,-0.5830511053403219,-8.931011199951172,3.831307808558146,1.68868666437608e+18,135.4500799967448,-0.5790778597195944,-9.188580513000488,3.3867514928181968,1.6886866643717496e+18,135.44574951171876,0.0451022184764345,0.4009821315606435,0.0675515147546926,1.6886866643717496e+18,135.44574951171876,0.0440841087450583,0.4054617981115977,0.0698931664228439,,,,,,,,,,,,1.6886866643788874e+18,135.45288745117188,19.78351936340332,37.55647964477539,-23.72411994934082,1.6886866643788874e+18,135.45288745117188,-235.5624755859375,132.5822784423828,-156.4479187011719,1.68868666437608e+18,135.4500799967448,-0.2832274834314982,0.0527196812132993,-0.7257622281710306,0.6247073610623678,-1.7401409149169922,1.2129493554433186,2.2277689774831138
0.5,1.688686664427994e+18,135.501994140625,-0.5436776081720988,0.0526580810546875,0.4079453945159912,1.688686664427994e+18,135.501994140625,-1.0879366795221963,-9.159326235453287,3.8462630907694497,1.688686664427994e+18,135.501994140625,-0.550105094909668,-9.194479624430338,3.3756302992502847,1.6886866644236667e+18,135.49766674804687,0.0637845136225223,0.5377650360266367,-0.2214895536502202,1.6886866644236667e+18,135.49766674804687,0.062715496867895,0.5422956148783366,-0.219147910674413,,,,,,,,,,,,1.6886866644288876e+18,135.50288754882814,19.14668006896973,37.50279922485352,-23.809519577026368,1.6886866644288876e+18,135.50288754882814,-236.19931335449215,132.52859802246093,-156.53331909179687,1.688686664427994e+18,135.501994140625,-0.2924236555894215,0.0637430933614571,-0.7238562703132629,0.6216442584991455,-1.7323508659998577,1.2146704196929932,2.2498992284139
0.55,1.688686664479903e+18,135.55390307617188,-0.6563719113667806,0.1133028666178385,-0.0398790836334228,1.688686664479903e+18,135.55390307617188,-1.2907284100850422,-9.090532620747885,3.404587825139364,1.688686664479903e+18,135.55390307617188,-0.640202522277832,-9.186330795288086,3.381779511769613,1.688686664475577e+18,135.5495770670573,-0.0362446724466281,-0.0138462794323761,-0.2169589747985203,1.688686664475577e+18,135.5495770670573,-0.0373136846271032,-0.0093156928196549,-0.2145664145549138,,,,,,,,,,,,1.6886866644788833e+18,135.5528831542969,19.53951950073242,37.49059982299805,-24.146239852905275,1.6886866644788833e+18,135.5528831542969,-235.8064758300781,132.51639404296876,-156.87003479003906,1.688686664479903e+18,135.55390307617188,-0.2956312100092569,0.0688299362858136,-0.7265615463256836,0.6164165933926901,-1.757865269978841,1.2122985124588015,2.287865479787191
0.6,1.6886866645318144e+18,135.60581445312502,0.624560276667277,-0.1162586212158203,-0.2982205549875894,1.6886866645318144e+18,135.60581445312502,-0.1371885066231092,-9.301300366719564,3.170689423878988,1.6886866645318144e+18,135.60581445312502,-0.7675948143005371,-9.167537053426107,3.4062225818634033,1.688686664527494e+18,135.60149397786458,-0.09952013194561,-0.495666245619456,-0.0728965873519579,1.688686664527494e+18,135.60149397786458,-0.1005891412496566,-0.4912374715010325,-0.0705549356838066,,,,,,,,,,,,1.6886866645288873e+18,135.60288745117185,20.454519271850582,37.31979827880859,-23.65579948425293,1.6886866645288873e+18,135.60288745117185,-234.8914764404297,132.34559631347656,-156.37959899902344,1.6886866645318144e+18,135.60581445312502,-0.2890709936618804,0.0616769405702749,-0.7316506505012512,0.6142549713452657,-1.792424201965332,1.206877668698629,2.302290121714274
0.65,1.6886866645750748e+18,135.64907495117188,0.8408407866954802,-0.3036084175109863,-0.419162392616272,1.6886866645750748e+18,135.64907495117188,0.0747757069766521,-9.480662822723389,3.0702905654907227,1.6886866645750748e+18,135.64907495117188,-0.7719111442565918,-9.159549713134766,3.426765561103821,1.6886866645794058e+18,135.65340600585938,-0.0394517144498725,0.0687732448180516,0.0981456836064656,1.6886866645794058e+18,135.65340600585938,-0.0405207278284554,0.073303831120332,0.1004364266991614,,,,,,,,,,,,1.6886866645788854e+18,135.65288540039063,20.62287940979004,37.11239929199219,-23.7314395904541,1.6886866645788854e+18,135.65288540039063,-234.72311706542968,132.13820190429686,-156.45523681640626,1.6886866645750748e+18,135.64907495117188,-0.2869358509778976,0.0575843267142772,-0.7321401536464691,0.6150789260864258,-1.7923685908317566,1.2045933604240415,2.293091297149658
0.7,1.6886866646183365e+18,135.69233642578124,0.004501183827718,-0.0588585535685221,-0.1854575475056965,1.6886866646183365e+18,135.69233642578124,-0.6937191585699717,-9.241479873657228,3.3036904335021973,1.6886866646183365e+18,135.69233642578124,-0.7040663758913676,-9.165116628011068,3.42646058400472,1.6886866646313152e+18,135.70531502278644,0.0521780724326768,0.2510656168063481,0.049174653366208,1.6886866646313152e+18,135.70531502278644,0.0511090606451034,0.2556471029917398,0.0515163019299506,,,,,,,,,,,,1.688686664628891e+18,135.70289086914062,20.310559463500976,37.20267944335937,-23.89491958618164,1.688686664628891e+18,135.70289086914062,-235.03543701171876,132.22847900390624,-156.61871948242188,1.6886866646183365e+18,135.69233642578124,-0.290130078792572,0.0600830391049384,-0.7295791506767273,0.6163808703422546,-1.7735169728597004,1.206188480059306,2.2826195557912192
0.75,1.6886866646702523e+18,135.74425219726564,-0.2995432217915852,0.0750802357991536,0.1476056575775146,1.6886866646702523e+18,135.74425219726564,-0.9455637335777284,-9.118648211161297,3.617349624633789,1.6886866646702523e+18,135.74425219726564,-0.6518665353457133,-9.176223754882812,3.4070565700531006,1.6886866646832218e+18,135.7572215983073,0.0514653970797856,0.1849903563658396,-0.0543670059026529,1.6886866646832218e+18,135.7572215983073,0.0503963815669218,0.189571847518285,-0.0520762627323468,,,,,,,,,,,,1.6886866646788872e+18,135.75288720703125,20.400839614868165,37.29295959472656,-23.88759956359863,1.6886866646788872e+18,135.75288720703125,-234.94515686035157,132.31875610351562,-156.61139526367188,1.6886866646702523e+18,135.74425219726564,-0.293718934059143,0.0648366212844848,-0.7274337212244669,0.6167360544204712,-1.7605957587560015,1.2092725435892742,2.2819534142812095
0.8,1.68868666472216e+18,135.7961600748698,-0.2291695078214009,0.1366529464721679,0.3039504686991374,1.68868666472216e+18,135.7961600748698,-0.8973084886868795,-9.060423215230308,3.760320822397868,1.68868666472216e+18,135.7961600748698,-0.6739850044250488,-9.179571469624838,3.3936829566955566,1.6886866647264814e+18,135.8004815673828,0.0172569435089826,0.0780380330979824,-0.1481348201632499,1.6886866647264814e+18,135.8004815673828,0.0161879288498311,0.082619521766901,-0.145767718553543,,,,,,,,,,,,1.6886866647288832e+18,135.80288325195312,19.89331970214844,37.2563591003418,-24.07791976928711,1.6886866647288832e+18,135.80288325195312,-235.45267639160156,132.28215637207032,-156.80171813964844,1.68868666472216e+18,135.7961600748698,-0.2956286867459615,0.0684353237350781,-0.7279815673828125,0.6147859493891398,-1.768262306849162,1.209864616394043,2.297791004180908
0.85,1.6886866647740795e+18,135.84807942708332,0.0447866320610046,0.0847994486490885,0.1300236384073892,1.6886866647740795e+18,135.84807942708332,-0.6829514503479004,-9.10628573099772,3.590230941772461,1.6886866647740795e+18,135.84807942708332,-0.7335841059684753,-9.173580487569174,3.397519906361898,1.688686664769752e+18,135.8437520345052,-0.0220929592226941,-0.0413861221944292,-0.1067487051089604,1.688686664769752e+18,135.8437520345052,-0.0231619744251171,-0.0368555349608262,-0.1044579545656839,,,,,,,,,,,,1.6886866647788918e+18,135.85289194335937,19.895759963989256,37.192919158935545,-23.89247932434082,1.6886866647788918e+18,135.85289194335937,-235.45023498535156,132.21871643066407,-156.61627502441405,1.6886866647740795e+18,135.84807942708332,-0.2956964472929637,0.0692647149165471,-0.7300214568773905,0.6122369170188904,-1.784965554873149,1.2078495025634766,2.315930684407552
0.9,1.6886866648259832e+18,135.8999833984375,0.3033539156119028,-0.0203981399536132,-0.0410254001617431,1.6886866648259832e+18,135.8999833984375,-0.4442674120267232,-9.204789797465006,3.4329028924306235,1.6886866648259832e+18,135.8999833984375,-0.7534673810005188,-9.166886965433756,3.411240895589193,1.688686664821662e+18,135.8956621907552,-0.0319686140865087,-0.0151698210587103,0.0155770642062028,1.688686664821662e+18,135.8956621907552,-0.0330376289784908,-0.0105883299062649,0.0178678085406621,,,,,,,,,,,,1.6886866648288837e+18,135.9028837890625,19.868919372558594,37.0635986328125,-24.109639358520507,1.6886866648288837e+18,135.9028837890625,-235.4770751953125,132.0894012451172,-156.83343505859375,1.6886866648259832e+18,135.8999833984375,-0.2953469455242156,0.0680938884615897,-0.7307335734367371,0.6116876602172852,-1.7889438072840371,1.2059650421142578,2.3177378177642822
0.95,1.6886866648779003e+18,135.95190047200524,-0.0446666876475016,-0.0430250167846679,-0.0605260531107584,1.6886866648779003e+18,135.95190047200524,-0.753140926361084,-9.226325352986654,3.424727439880371,1.6886866648779003e+18,135.95190047200524,-0.7143202622731527,-9.16579564412435,3.4225660959879556,1.6886866648735685e+18,135.9475682779948,-0.0111991958692668,0.1108720401922861,0.0511599648743867,1.6886866648735685e+18,135.9475682779948,-0.0122682106060285,0.1154026264945665,0.0534507073462008,,,,,,,,,,,,1.688686664878889e+18,135.95288886718748,19.920159912109376,36.95867919921875,-24.263359451293944,1.688686664878889e+18,135.95288886718748,-235.42583618164065,131.98447875976564,-156.987158203125,1.6886866648779003e+18,135.95190047200524,-0.2972424924373626,0.0686702678600946,-0.7292650938034058,0.6124565203984579,-1.7769891023635864,1.2057580550511675,2.3094774881998696
1.0,1.6886866649298145e+18,136.00381420898438,-0.2316809296607971,0.0678809483846028,-0.0916612148284911,1.6886866649298145e+18,136.00381420898438,-0.9274181723594666,-9.113862673441568,3.400400400161743,1.6886866649298145e+18,136.00381420898438,-0.7015832662582397,-9.164238929748535,3.4293742179870605,1.6886866649254922e+18,135.99949235026045,-0.0118609669928748,0.0205148917933305,-0.0173078487471987,1.6886866649254922e+18,135.99949235026045,-0.0129299809535343,0.0250454749912023,-0.0150171043351292,1.688686664927646e+18,136.00164599609374,0.0,0.4280290305614471,0.8535507917404175,7.532000064849853,0.0367508307099342,0.0,40.30000305175781,-122.7531609,49.1903721,1.6886866649288888e+18,136.00288896484375,19.483399200439457,37.13191909790039,-24.436599731445312,1.6886866649288888e+18,136.00288896484375,-235.8625946044922,132.15771484375,-157.1603973388672,1.6886866649298145e+18,136.00381420898438,-0.2985031604766845,0.0694629326462745,-0.7288113832473755,0.6122945745786031,-1.7736076911290486,1.2053498427073162,2.309178034464518
1.05,1.688686664981722e+18,136.05572208658853,-0.0525823235511779,-0.1466461817423502,-0.1213685671488443,1.688686664981722e+18,136.05572208658853,-0.7840482195218405,-9.32482941945394,3.37268344561259,1.688686664981722e+18,136.05572208658853,-0.7373119195302328,-9.160678545633951,3.43136461575826,1.6886866649773998e+18,136.0513996582031,-0.0120645888770619,-0.1737402578194936,-0.035175656278928,1.6886866649773998e+18,136.0513996582031,-0.0130826973666746,-0.1692096764842668,-0.0328340070943037,,,,,,,,,,,,1.6886866649788902e+18,136.0528902832031,20.00555992126465,37.09775924682617,-24.35851936340332,1.6886866649788902e+18,136.0528902832031,-235.34043579101564,132.1235565185547,-157.08231201171876,1.688686664981722e+18,136.05572208658853,-0.2964762051900227,0.067770205438137,-0.7302790880203247,0.6117183963457743,-1.784016489982605,1.2044337193171184,2.3140881061553955
1.1,1.688686665033635e+18,136.10763500976563,0.3609413206577301,0.0624539057413736,0.0363136927286783,1.688686665033635e+18,136.10763500976563,-0.3992025852203369,-9.116056124369305,3.5232319037119546,1.688686665033635e+18,136.10763500976563,-0.7659899592399597,-9.16100533803304,3.4242308139801025,1.6886866650293097e+18,136.10330997721354,0.013948089578965,-0.0711658000946044,0.0103338034823536,1.6886866650293097e+18,136.10330997721354,0.0129299812979297,-0.0665843139092127,0.0126754532878597,,,,,,,,,,,,1.688686665028885e+18,136.10288505859376,20.078759765625,37.01723861694336,-24.195039749145508,1.688686665028885e+18,136.10288505859376,-235.2672332763672,132.04303588867188,-156.91883544921876,1.688686665033635e+18,136.10763500976563,-0.2937685350577036,0.0656931946674982,-0.7313849329948425,0.6119317611058553,-1.7917911609013877,1.204646110534668,2.3147245248158774
1.15,1.6886866650768983e+18,136.15089843750002,0.0437388122081757,0.1975212097167968,0.1104319095611572,1.6886866650768983e+18,136.15089843750002,-0.6972087025642395,-8.984151840209961,3.5931222438812256,1.6886866650768983e+18,136.15089843750002,-0.7467935383319855,-9.16416835784912,3.4200029373168945,1.688686665081225e+18,136.1552249348958,0.0092138837402065,0.1451313992341359,0.0010181086448331,1.688686665081225e+18,136.1552249348958,0.0081448700123776,0.1496619880199432,0.0034106640766064,,,,,,,,,,,,1.6886866650788864e+18,136.15288632812502,20.220279693603516,36.87815933227539,-24.353639221191408,1.6886866650788864e+18,136.15288632812502,-235.12571411132816,131.903955078125,-157.0774383544922,1.6886866650768983e+18,136.15089843750002,-0.2950770705938339,0.0670589804649352,-0.730523943901062,0.612182080745697,-1.7860921025276184,1.2054581046104431,2.312967896461487
1.2,1.688686665120157e+18,136.1941571451823,-0.3688814441363017,-0.0847415924072265,-0.104319413503011,1.688686665120157e+18,136.1941571451823,-1.0919247666994731,-9.26640510559082,3.3822547594706216,1.688686665120157e+18,136.1941571451823,-0.7288893659909567,-9.164158821105955,3.423886775970459,1.688686665133133e+18,136.20713321940104,-0.008806640592714,-0.0822122792402903,0.0576758608222007,1.688686665133133e+18,136.20713321940104,-0.0098756545533735,-0.0777326052387555,0.05996660515666,,,,,,,,,,,,1.6886866651288837e+18,136.2028837890625,19.866479110717773,37.029439544677736,-24.17551956176758,1.6886866651288837e+18,136.2028837890625,-235.4795135498047,132.05523681640625,-156.89931640625,1.688686665120157e+18,136.1941571451823,-0.2964346706867217,0.0680626754959424,-0.7298787236213684,0.6121853192647299,-1.7814573446909587,1.2054341634114585,2.311852296193441
1.25,1.688686665172067e+18,136.24606689453125,-0.1078482270240783,-0.0084247589111328,-0.0458381175994873,1.688686665172067e+18,136.24606689453125,-0.8360921144485474,-9.191031138102211,3.4370903174082437,1.688686665172067e+18,136.24606689453125,-0.7340899109840393,-9.165101687113443,3.420241038004557,1.6886866651763968e+18,136.25039685058596,-0.0048869220772757,-0.3178026378154754,0.0458912514150142,1.6886866651763968e+18,136.25039685058596,-0.0058795779477804,-0.3132975101470947,0.0482583530247211,1.688686665165e+18,136.239,0.0,0.4280290305614471,0.8086012005805969,8.760000228881836,0.0363713391125202,0.0,40.30000305175781,-122.753161,49.190372,1.6886866651788846e+18,136.25288447265626,20.02995948791504,37.20512008666992,-24.329239273071288,1.6886866651788846e+18,136.25288447265626,-235.31603393554687,132.23091735839844,-157.05303649902345,1.688686665172067e+18,136.24606689453125,-0.2929445505142211,0.0644606128334998,-0.7304815053939819,0.6135308146476746,-1.7839746872584026,1.2057794729868572,2.3037924766540527
1.3,1.688686665223983e+18,136.2979833170573,0.3485194941361745,-0.01325257619222,0.2905468940734863,1.688686665223983e+18,136.2979833170573,-0.4025924106438954,-9.200602531433104,3.75573460261027,1.688686665223983e+18,136.2979833170573,-0.7569579482078552,-9.169845263163248,3.40250031153361,1.6886866652196577e+18,136.29365771484376,0.0386881319185097,-0.0928515171011289,0.0174096589908003,1.6886866652196577e+18,136.29365771484376,0.0376191176474094,-0.0883209307988484,0.0197513095724085,,,,,,,,,,,,1.6886866652288924e+18,136.3028923828125,20.359359741210938,36.9757583618164,-24.13647918701172,1.6886866652288924e+18,136.3028923828125,-234.98663330078125,132.00155944824218,-156.8602752685547,1.688686665223983e+18,136.2979833170573,-0.2888957262039184,0.0613885720570881,-0.7314772208531698,0.6145824193954468,-1.7908447980880735,1.2070657014846802,2.3000107606252036
1.35,1.6886866652758943e+18,136.34989453125,0.0304804146289825,0.2832425435384114,0.3337070147196452,1.6886866652758943e+18,136.34989453125,-0.6961119969685873,-8.909674962361654,3.7892340819040937,1.6886866652758943e+18,136.34989453125,-0.7324384450912476,-9.175412813822428,3.3928396701812744,1.6886866652715617e+18,136.34556176757812,0.0277434634044765,0.32696562508742,-0.0530943709115186,1.6886866652715617e+18,136.34556176757812,0.026674449443817,0.3315471162398655,-0.050752722347776,,,,,,,,,,,,1.6886866652788844e+18,136.35288437499997,20.117799758911133,37.08799819946289,-24.065719604492188,1.6886866652788844e+18,136.35288437499997,-235.2281921386719,132.11379699707032,-156.78951721191407,1.6886866652758943e+18,136.34989453125,-0.2924488385518392,0.0655430456002553,-0.7301751573880514,0.6140154997507731,-1.783658146858215,1.208317518234253,2.304225285847982
1.4,1.6886866653278031e+18,136.40180314127602,-0.5280914704004923,0.0053230921427409,-0.1265216668446858,1.6886866653278031e+18,136.40180314127602,-1.2354940970738728,-9.181260426839192,3.3501510620117188,1.6886866653278031e+18,136.40180314127602,-0.7132486502329508,-9.169078826904297,3.413985331853231,1.688686665323482e+18,136.39748217773436,-0.0539088578273852,0.1175915549198786,-0.022602013622721,1.688686665323482e+18,136.39748217773436,-0.0549269653856753,0.1221730547646681,-0.0203112699091434,,,,,,,,,,,,1.6886866653288852e+18,136.40288530273438,19.52975959777832,37.09531936645508,-24.648879623413087,1.6886866653288852e+18,136.40288530273438,-235.8162353515625,132.1211151123047,-157.37267150878907,1.6886866653278031e+18,136.40180314127602,-0.2972539067268371,0.0691709940632184,-0.7292816440264384,0.6123752593994141,-1.7778311173121135,1.2063216765721638,2.3110544681549072
1.45,1.6886866653797192e+18,136.45371915690103,-0.2512283523877461,-0.2302837371826171,-0.5015892187754313,1.6886866653797192e+18,136.45371915690103,-0.9862417380015056,-9.40339438120524,3.005185842514038,1.6886866653797192e+18,136.45371915690103,-0.7408594091733297,-9.155605951944986,3.444087664286295,1.6886866653753956e+18,136.44939534505207,-0.0888299867510795,-0.478511095046997,0.0717257608970006,1.6886866653753956e+18,136.44939534505207,-0.0898990010221799,-0.4739805261294047,0.0740165039896964,,,,,,,,,,,,1.688686665378885e+18,136.4528853027344,19.756679916381835,37.05383911132813,-24.548839569091797,1.688686665378885e+18,136.4528853027344,-235.58931579589844,132.079638671875,-157.27263793945312,1.6886866653797192e+18,136.45371915690103,-0.2931156158447265,0.0627956986427307,-0.7309645215670267,0.613036036491394,-1.785139838854472,1.2027875185012815,2.3028847376505532
1.5,1.6886866654316306e+18,136.50563061523437,0.7229295571645101,-0.1994800567626952,-0.3171435991923014,1.6886866654316306e+18,136.50563061523437,-0.0650050134863704,-9.371689160664875,3.18026065826416,1.6886866654316306e+18,136.50563061523437,-0.7937806049982706,-9.154704411824545,3.4347168604532876,1.6886866654273034e+18,136.50130346679688,0.0166969848796725,-0.4140648345152537,0.0976875349879264,1.6886866654273034e+18,136.50130346679688,0.0156279690563678,-0.4095342357953389,0.0999782780806223,,,,,,,,,,,,1.688686665428884e+18,136.5028841796875,20.276399993896483,37.0635986328125,-23.963239669799805,1.688686665428884e+18,136.5028841796875,-235.0695953369141,132.0893981933594,-156.68703918457032,1.6886866654316306e+18,136.50563061523437,-0.2835467358430226,0.0534837904075781,-0.733432948589325,0.6154766877492269,-1.79971440633138,1.2030977805455525,2.2893973191579184
1.55,1.6886866654835412e+18,136.5575409342448,0.2418509721755981,0.0141725540161132,0.2351933320363362,1.6886866654835412e+18,136.5575409342448,-0.4965107142925262,-9.177471796671549,3.691527128219605,1.6886866654835412e+18,136.5575409342448,-0.7442077199618021,-9.174139658610024,3.3936463991800943,1.6886866654792184e+18,136.5532186686198,0.1047124837835629,0.1900300011038779,0.0786998036007085,1.6886866654792184e+18,136.5532186686198,0.1036434695124626,0.1945605824391047,0.0809905504186947,,,,,,,,,,,,1.6886866654788849e+18,136.552884765625,20.427679443359377,37.29540023803711,-23.80463981628418,1.6886866654788849e+18,136.552884765625,-234.91831665039064,132.32119445800782,-156.5284393310547,1.6886866654835412e+18,136.5575409342448,-0.2826922436555226,0.0547024471064408,-0.7314485112826029,0.6181193391482035,-1.7871091763178508,1.2087565660476685,2.2770698070526123
1.6,1.6886866655268037e+18,136.6008037109375,-0.1811961531639099,0.1831183433532714,0.4545450210571289,1.6886866655268037e+18,136.6008037109375,-0.8581260144710541,-9.023932456970217,3.882055640220642,1.6886866655268037e+18,136.6008037109375,-0.6827758848667145,-9.18954610824585,3.3648232221603394,1.688686665531129e+18,136.60512915039064,0.0908662055929501,0.3735949993133545,0.0021889336057938,1.688686665531129e+18,136.60512915039064,0.0897971913218497,0.3781764805316925,0.0044796783477067,,,,,,,,,,,,1.688686665528882e+18,136.60288193359375,19.80303955078125,37.39543991088867,-23.9437198638916,1.688686665528882e+18,136.60288193359375,-235.54295349121097,132.42123718261718,-156.66751708984376,1.6886866655268037e+18,136.6008037109375,-0.28679259121418,0.0604452323168516,-0.728858232498169,0.6187562644481659,-1.7713434100151062,1.2129244208335876,2.2757091522216797
1.65,1.6886866655700626e+18,136.64406266276043,-0.3067354758580525,0.2426398595174153,0.529328187306722,1.6886866655700626e+18,136.64406266276043,-0.9381858905156454,-8.97527821858724,3.935993830362955,1.6886866655700626e+18,136.64406266276043,-0.6372964382171631,-9.200413386027018,3.34397824605306,1.6886866655830436e+18,136.65704345703125,0.0575740486383437,0.3219768951336542,-0.0526362210512161,1.6886866655830436e+18,136.65704345703125,0.0566068465511003,0.3265074789524078,-0.0503454779585202,,,,,,,,,,,,1.6886866655788856e+18,136.65288544921876,19.45411911010742,37.53939971923828,-24.07791976928711,1.6886866655788856e+18,136.65288544921876,-235.89187316894532,132.56520080566406,-156.80172119140624,1.6886866655700626e+18,136.64406266276043,-0.2916508913040161,0.0666391551494598,-0.726787269115448,0.6182821393013,-1.759790341059367,1.2156523863474529,2.2804462909698486
1.7,1.6886866656219758e+18,136.6959755859375,-0.4383642276128133,0.2554426193237304,0.3219531377156575,1.6886866656219758e+18,136.6959755859375,-1.068195939064026,-8.964111963907877,3.7244284947713218,1.6886866656219758e+18,136.6959755859375,-0.6356777350107828,-9.20204989115397,3.3397879600524902,1.6886866656263035e+18,136.70030334472656,-0.026572637958452,0.0653625798877328,-0.09918924421072,1.6886866656263035e+18,136.70030334472656,-0.0276416516862809,0.0698677115142345,-0.0968984961509704,,,,,,,,,,,,1.6886866656288865e+18,136.70288662109374,19.366279983520503,37.676039123535155,-24.17551956176758,1.6886866656288865e+18,136.70288662109374,-235.9797149658203,132.70183715820312,-156.89931640625,1.6886866656219758e+18,136.6959755859375,-0.2954531212647756,0.0711587791641553,-0.7264238397280375,0.6164020498593649,-1.7603072325388591,1.21562393506368,2.2933473587036133
1.75,1.6886866656738895e+18,136.74788940429687,-0.2866819699605306,-0.023084004720052,-0.0885805288950602,1.6886866656738895e+18,136.74788940429687,-0.9629117250442504,-9.22971534729004,3.340181032816569,1.6886866656738895e+18,136.74788940429687,-0.6820757786432902,-9.18912665049235,3.3660741647084556,1.688686665669561e+18,136.74356103515626,-0.0835867275794346,-0.2682207450270653,-0.0167478881776332,1.688686665669561e+18,136.74356103515626,-0.084553929666678,-0.2636901636918385,-0.0144571437655637,,,,,,,,,,,,1.6886866656788854e+18,136.75288530273437,19.683480072021485,37.36859893798828,-24.446359634399418,1.6886866656788854e+18,136.75288530273437,-235.6625183105469,132.39439697265624,-157.17015380859374,1.6886866656738895e+18,136.74788940429687,-0.2938314676284789,0.0681367516517638,-0.7284552256266276,0.6151153047879537,-1.7730214595794678,1.2117025852203371,2.29934024810791
1.8,1.6886866657257976e+18,136.79979752604166,0.6608240207036337,-0.2116117477416991,-0.2977279027303059,1.6886866657257976e+18,136.79979752604166,-0.0967099082966645,-9.403194745381674,3.154537836710612,1.6886866657257976e+18,136.79979752604166,-0.76337997118632,-9.174078305562338,3.389578342437744,1.6886866657214764e+18,136.7954763183594,-0.0743219392995039,-0.4274020393689473,-0.0169006049012143,1.6886866657214764e+18,136.7954763183594,-0.0753400474786757,-0.422871470451355,-0.0145589550957083,,,,,,,,,,,,1.6886866657288876e+18,136.80288764648438,20.27639961242676,37.14655990600586,-24.126719284057614,1.6886866657288876e+18,136.80288764648438,-235.0695953369141,132.1723602294922,-156.85051879882812,1.6886866657257976e+18,136.79979752604166,-0.286935031414032,0.0598563353220621,-0.7319570183753967,0.6150749325752258,-1.7941699028015137,1.2076211373011272,2.2981227238972983
1.85,1.6886866657777132e+18,136.85171321614584,0.6581194301446279,-0.1880591710408528,-0.2129008769989013,1.6886866657777132e+18,136.85171321614584,-0.0971087242166201,-9.379864692687988,3.239283641179403,1.6886866657777132e+18,136.85171321614584,-0.7610742052396139,-9.174300829569498,3.3894971211751304,1.6886866657733857e+18,136.8473857421875,0.0345138863970836,0.1738420650362968,0.0330376277367273,1.6886866657733857e+18,136.8473857421875,0.0335975882286826,0.1784235586722692,0.0354301842550436,,,,,,,,,,,,1.688686665778888e+18,136.85288793945313,20.086080169677736,37.19779891967774,-23.724119186401367,1.688686665778888e+18,136.85288793945313,-235.25991821289065,132.22359924316407,-156.44791259765626,1.6886866657777132e+18,136.85171321614584,-0.2862849434216817,0.0591240810851255,-0.7316933870315552,0.6157641410827637,-1.7917340596516926,1.2081393400828044,2.293609619140625
1.9,1.6886866658296256e+18,136.90362540690103,-0.2121273477872212,0.0841681162516276,0.102436065673828,1.6886866658296256e+18,136.90362540690103,-0.8959126671155294,-9.121240297953287,3.533002694447835,1.6886866658296256e+18,136.90362540690103,-0.6896313428878784,-9.18790372212728,3.3678792317708335,1.6886866658253048e+18,136.8993049316406,0.0726420606176058,0.3331760863463084,0.0206167021145422,1.6886866658253048e+18,136.8993049316406,0.071623949954907,0.3377066751321156,0.0229583519200483,,,,,,,,,,,,1.688686665828886e+18,136.90288608398436,19.754239654541017,37.180718994140626,-24.163319778442386,1.688686665828886e+18,136.90288608398436,-235.59175720214844,132.2065185546875,-156.88711853027343,1.6886866658296256e+18,136.90362540690103,-0.291531374057134,0.0656486451625823,-0.728608508904775,0.6162990132967631,-1.772610783576965,1.2121227184931438,2.2917848428090415
1.95,1.6886866658815314e+18,136.95553141276042,-0.3906863927841186,0.1718358993530273,0.1247488657633463,1.6886866658815314e+18,136.95553141276042,-1.0255239009857178,-9.041280110677084,3.5439697901407876,1.6886866658815314e+18,136.95553141276042,-0.6406835317611694,-9.195611317952476,3.3565335273742676,1.6886866658772122e+18,136.95121223958333,0.0215329998948921,0.1283326074481009,0.0335466830680767,1.6886866658772122e+18,136.95121223958333,0.0204639858566224,0.1328631949921448,0.0359392389655112,,,,,,,,,,,,1.688686665878885e+18,136.95288515625,19.405319213867188,37.43203887939453,-24.21211967468262,1.688686665878885e+18,136.95288515625,-235.940673828125,132.4578369140625,-156.9359161376953,1.6886866658815314e+18,136.95553141276042,-0.2947687606016795,0.0693274810910224,-0.7266526420911154,0.6166690389315287,-1.7600010633468628,1.2141695419947307,2.289366086324056
2.0,1.688686665933446e+18,137.00744596354167,-0.2536326646804809,-0.0064544677734374,0.0145889123280842,1.688686665933446e+18,137.00744596354167,-0.8965108791987101,-9.217950503031412,3.4366915225982666,1.688686665933446e+18,137.00744596354167,-0.6487242380777994,-9.193991343180338,3.3594152132670083,1.6886866659291277e+18,137.00312752278646,-0.0206167024249831,-0.1378519237041473,-0.0114537233797212,1.6886866659291277e+18,137.00312752278646,-0.0216857163856426,-0.1332704300681749,-0.0091120734189947,1.68868666592766e+18,137.00165991210935,0.0,0.4161866009235382,0.8173869848251343,7.085000038146973,0.0469453930854797,0.0,40.30000305175781,-122.753161,49.1903714,1.6886866659288855e+18,137.00288540039062,19.585879135131837,37.49059906005859,-24.16575927734375,1.6886866659288855e+18,137.00288540039062,-235.7601104736328,132.5164001464844,-156.88955688476562,1.688686665933446e+18,137.00744596354167,-0.29385640223821,0.0682075445850689,-0.7271379431088766,0.616656223932902,-1.7629173199335737,1.2135866085688274,2.2892858187357583
2.05,1.6886866659767055e+18,137.05070568847654,0.1192113757133483,-0.012244701385498,-0.1150529384613036,1.6886866659767055e+18,137.05070568847654,-0.5656034499406815,-9.21954584121704,3.310171127319336,1.6886866659767055e+18,137.05070568847654,-0.6906608641147614,-9.189796447753906,3.362536668777466,1.6886866659810345e+18,137.05503450520834,-0.0179187143221497,-0.2034181257088978,-0.0303905463467041,1.6886866659810345e+18,137.05503450520834,-0.0189877276619274,-0.1988366345564524,-0.0280998020122448,,,,,,,,,,,,1.6886866659788882e+18,137.05288813476562,19.756679916381835,37.39543991088867,-24.007159423828124,1.6886866659788882e+18,137.05288813476562,-235.58931579589844,132.42123718261718,-156.73095703125,1.6886866659767055e+18,137.05070568847654,-0.2908253818750381,0.065278086811304,-0.7288883328437805,0.6163443028926849,-1.774848699569702,1.212404489517212,2.292407751083374
2.1,1.6886866660199703e+18,137.09397029622394,0.3891985416412353,-0.069560686747233,-0.0994815826416015,1.6886866660199703e+18,137.09397029622394,-0.3176472087701161,-9.27617613474528,3.3230324586232505,1.6886866660199703e+18,137.09397029622394,-0.7126918037732443,-9.18911075592041,3.359826644261678,1.6886866660329495e+18,137.10694954427083,0.0190895387592414,0.030695978552103,0.0088066406266686,1.6886866660329495e+18,137.10694954427083,0.01807143073529,0.0352265648543834,0.0111482905534405,,,,,,,,,,,,1.6886866660288886e+18,137.10288857421875,20.132439804077148,37.46131896972656,-24.021799850463868,1.6886866660288886e+18,137.10288857421875,-235.21355590820312,132.48711853027345,-156.74559631347657,1.6886866660199703e+18,137.09397029622394,-0.2889511287212372,0.0637433230876922,-0.7297188838322958,0.6164044141769409,-1.780717134475708,1.212345282236735,2.2932121753692627
2.15,1.6886866660718817e+18,137.1458817545573,0.0532816449801127,-0.0059029261271159,0.0115507443745931,1.6886866660718817e+18,137.1458817545573,-0.6336991886297861,-9.21715259552002,3.425524950027466,1.6886866660718817e+18,137.1458817545573,-0.6928268671035767,-9.193744977315268,3.3512868086496987,1.6886866660762132e+18,137.15021313476564,0.0248927595093846,0.1367574632167815,0.0033597587607801,1.6886866660762132e+18,137.15021313476564,0.0238237446174024,0.1412625908851623,0.0056505037355236,,,,,,,,,,,,1.6886866660788874e+18,137.1528873046875,19.58099937438965,37.57600021362305,-24.036439895629883,1.6886866660788874e+18,137.1528873046875,-235.76499633789064,132.60179443359374,-156.76023559570314,1.6886866660718817e+18,137.1458817545573,-0.2902696828047434,0.0655668104688326,-0.7287960449854533,0.6166845957438151,-1.775039792060852,1.213768204053243,2.2921367486317954
2.2,1.688686666123789e+18,137.1977891438802,-0.227090040842692,0.0464378992716471,0.0255877971649169,1.688686666123789e+18,137.1977891438802,-0.8841479420661926,-9.168498992919922,3.435495138168335,1.688686666123789e+18,137.1977891438802,-0.6629039247830709,-9.197432200113932,3.347219944000244,1.6886866661194703e+18,137.19347029622395,0.0073303829024856,0.0228056367486715,0.0542651961247125,1.6886866661194703e+18,137.19347029622395,0.006261368903021,0.0273871260384718,0.0566068465511004,,,,,,,,,,,,1.6886866661288852e+18,137.20288544921874,19.73715934753418,37.61991882324219,-24.07547950744629,1.6886866661288852e+18,137.20288544921874,-235.6088348388672,132.64571838378907,-156.79927673339844,1.688686666123789e+18,137.1977891438802,-0.291514883438746,0.06677524993817,-0.7276786168416342,0.6172874569892883,-1.7670276562372844,1.2148171265920005,2.287722190221151
2.25,1.6886866661757071e+18,137.24970719401043,-0.0839305321375528,0.0532601674397786,0.0525634288787841,1.6886866661757071e+18,137.24970719401043,-0.729810893535614,-9.162715911865234,3.4618162314097085,1.6886866661757071e+18,137.24970719401043,-0.6517263849576315,-9.198471387227375,3.3465654055277505,1.6886866661713823e+18,137.24538224283853,-0.0042760566963503,-0.0756963839133579,0.0371100635578234,1.6886866661713823e+18,137.24538224283853,-0.0053450708898404,-0.0711148940026759,0.0394517133633295,,,,,,,,,,,,1.688686666178888e+18,137.25288779296875,19.44679985046387,37.62967987060547,-24.03155975341797,1.688686666178888e+18,137.25288779296875,-235.8991943359375,132.65547790527344,-156.75535583496094,1.6886866661757071e+18,137.24970719401043,-0.2904239594936371,0.0653096338113148,-0.7274589935938517,0.6182165940602621,-1.7641536792119343,1.2150581280390422,2.281036138534546
2.3,1.6886866662276196e+18,137.30161938476564,-0.0441954135894774,0.0169340769449869,-0.0068883895874023,1.6886866662276196e+18,137.30161938476564,-0.6975077986717224,-9.199007034301758,3.400998592376709,1.6886866662276196e+18,137.30161938476564,-0.6591584086418152,-9.198436419169107,3.3451995849609375,1.6886866662232945e+18,137.29729427083333,0.0028507044383634,-0.0231110677123069,-0.0225002033791193,1.6886866662232945e+18,137.29729427083333,0.0018325957935302,-0.0185295790433883,-0.0201585534960031,,,,,,,,,,,,1.6886866662288876e+18,137.30288754882812,19.590759658813475,37.4052001953125,-24.087679290771483,1.6886866662288876e+18,137.30288754882812,-235.75523681640624,132.43099975585938,-156.8114776611328,1.6886866662276196e+18,137.30161938476564,-0.2897365391254425,0.0647561823328335,-0.727782130241394,0.6182172099749247,-1.7664681275685628,1.2150284051895142,2.281507968902588
2.35,1.6886866662795318e+18,137.35353181966147,0.0750626921653747,-0.0172443389892577,-0.0296919345855712,1.6886866662795318e+18,137.35353181966147,-0.6015954812367758,-9.232905705769856,3.374278704325358,1.6886866662795318e+18,137.35353181966147,-0.6825041969617208,-9.198156674702965,3.3412832419077554,1.6886866662752072e+18,137.34920719401043,0.0067704231478273,-0.0327831022441387,-0.035277468462785,1.6886866662752072e+18,137.34920719401043,0.0057523141925532,-0.0282016123334566,-0.0329867241283257,,,,,,,,,,,,1.688686666278882e+18,137.35288203125,19.705439376831055,37.47839965820312,-24.102319717407227,1.688686666278882e+18,137.35288203125,-235.64055786132812,132.5041961669922,-156.82611389160155,1.6886866662795318e+18,137.35353181966147,-0.2889909446239471,0.0646681760748227,-0.7286025484402975,0.6176087458928426,-1.7733697493871052,1.214971939722697,2.287173589070638
2.4,1.6886866663314442e+18,137.4054442545573,0.0666951537132262,-0.0156755447387695,-0.0579318205515543,1.6886866663314442e+18,137.4054442545573,-0.611166775226593,-9.23250643412272,3.342573881149292,1.6886866663314442e+18,137.4054442545573,-0.6837079524993896,-9.199326197306316,3.3378183046976724,1.68868666632712e+18,137.40111979166667,0.0054977873029807,0.002036217522497,0.018733201160406,1.68868666632712e+18,137.40111979166667,0.0044796784253169,0.0066177069675177,0.0210239456112806,,,,,,,,,,,,1.688686666328891e+18,137.40289077148435,20.010439682006837,37.45643997192383,-23.91931915283203,1.688686666328891e+18,137.40289077148435,-235.33555603027344,132.48223571777345,-156.64311828613282,1.6886866663314442e+18,137.4054442545573,-0.2887403070926665,0.0646809265017509,-0.7286165157953898,0.6177082061767578,-1.7737157742182414,1.2153658469518025,2.287147521972656
2.45,1.6886866663833518e+18,137.45735188802084,0.0019497076670328,-0.0008726119995117,-0.0319239298502604,1.6886866663833518e+18,137.45735188802084,-0.6542375683784485,-9.2213404973348,3.362912813822428,1.6886866663833518e+18,137.45735188802084,-0.6620332996050516,-9.20296319325765,3.332149346669515,1.6886866663790313e+18,137.4530313313802,0.0154243473274011,-0.0206167021145422,0.0626136884093284,1.6886866663790313e+18,137.4530313313802,0.0144062383721271,-0.0160861180241529,0.0649044302602608,,,,,,,,,,,,1.6886866663788846e+18,137.45288481445314,19.380919647216796,37.5759994506836,-23.953479766845703,1.6886866663788846e+18,137.45288481445314,-235.96507873535157,132.60179748535157,-156.67727966308593,1.6886866663833518e+18,137.45735188802084,-0.2883316278457641,0.0642557938893635,-0.7278904517491659,0.61879829565684,-1.767798582712809,1.2164935668309529,2.27993909517924
2.5,1.6886866664266148e+18,137.50061474609376,-0.0695413649082183,0.0504703521728514,0.0691199302673339,1.6886866664266148e+18,137.50061474609376,-0.7025925517082214,-9.174680233001707,3.4555349349975586,1.6886866664266148e+18,137.50061474609376,-0.6388972103595734,-9.207645893096924,3.323727607727051,1.6886866664309368e+18,137.50493676757813,0.0197513091067472,0.020667607585589,0.0331394402310251,1.6886866664309368e+18,137.50493676757813,0.0186822957669694,0.0252490962545076,0.0354301845654844,,,,,,,,,,,,1.6886866664288855e+18,137.5028853515625,19.617599487304688,37.571118927001955,-23.63871955871582,1.6886866664288855e+18,137.5028853515625,-235.7283935546875,132.59691467285157,-156.36251525878907,1.6886866664266148e+18,137.50061474609376,-0.2882418930530548,0.0643471293151378,-0.7270764112472534,0.6197870969772339,-1.761622428894043,1.217855453491211,2.2737014293670654
2.55,1.6886866664698767e+18,137.5438768717448,-0.1230585773785909,0.0261287689208984,0.0554759502410888,1.6886866664698767e+18,137.5438768717448,-0.7533403237660726,-9.200801849365234,3.437489112218221,1.6886866664698767e+18,137.5438768717448,-0.636127769947052,-9.209425926208496,3.3193257649739585,1.688686666482851e+18,137.55685115559896,0.0053450708898404,-0.0259617725387215,-0.0139480894431471,1.688686666482851e+18,137.55685115559896,0.0042760566963503,-0.0213802837145824,-0.0116573449534673,,,,,,,,,,,,1.6886866664788833e+18,137.55288339843747,20.186120223999023,37.70775909423829,-23.841240310668944,1.6886866664788833e+18,137.55288339843747,-235.15987243652344,132.73355712890626,-156.56503601074218,1.6886866664698767e+18,137.5438768717448,-0.2881795267264048,0.0645518576105435,-0.7269845207532247,0.6199025710423788,-1.761239488919576,1.218329985936483,2.273507833480835
2.6,1.6886866665217871e+18,137.59578694661457,0.0192709962526956,0.0076500574747721,0.0303903420766194,1.6886866665217871e+18,137.59578694661457,-0.6225326855977377,-9.220143953959148,3.407778263092041,1.6886866665217871e+18,137.59578694661457,-0.6476497054100037,-9.210289319356283,3.3147005240122476,1.6886866665261166e+18,137.6001165771484,0.0140499006956814,-0.0281761586666106,-0.0058795779477804,1.6886866665261166e+18,137.6001165771484,0.0130572444759308,-0.0236710282042622,-0.0035888332640751,,,,,,,,,,,,1.6886866665288883e+18,137.60288837890624,19.781079864501955,37.54427947998047,-23.643599700927737,1.6886866665288883e+18,137.60288837890624,-235.56491394042968,132.57007446289063,-156.36740112304688,1.6886866665217871e+18,137.59578694661457,-0.2874386807282765,0.0642715493837992,-0.7274228930473328,0.6197612881660461,-1.7649156252543132,1.2185654242833457,2.2756569385528564
2.65,1.688686666573695e+18,137.64769506835938,0.1552061835924784,0.0556777318318685,0.1403477986653645,1.688686666573695e+18,137.64769506835938,-0.4895316362380981,-9.174879709879557,3.5094731648763022,1.688686666573695e+18,137.64769506835938,-0.6505838632583618,-9.213052749633787,3.3064379692077637,1.6886866665693755e+18,137.6433758951823,0.0186822954565285,0.0273871240206062,-0.0107410470955073,1.6886866665693755e+18,137.6433758951823,0.0176132814958691,0.0319177098572253,-0.0084503026058275,,,,,,,,,,,,1.688686666578886e+18,137.652886328125,19.59319953918457,37.67115936279297,-23.79976005554199,1.688686666578886e+18,137.652886328125,-235.75279541015624,132.69695434570312,-156.5235595703125,1.688686666573695e+18,137.64769506835938,-0.2872356573740641,0.0646807899077733,-0.727462907632192,0.619765837987264,-1.7659855683644612,1.2193351984024048,2.2769972483317056
2.7,1.6886866666256136e+18,137.69961360677084,0.0080103476842244,0.0260044733683267,-0.0017557144165039,1.6886866666256136e+18,137.69961360677084,-0.6209374666213989,-9.205388387044271,3.3680972258249917,1.6886866666256136e+18,137.69961360677084,-0.6347938378651937,-9.21388816833496,3.307165543238322,1.6886866666212895e+18,137.6952899576823,0.0008144870225805,0.1237002164125442,0.0089593565401931,1.6886866666212895e+18,137.6952899576823,-0.0002545271806108,0.1282817001144091,0.0112501010298728,,,,,,,,,,,,1.688686666628884e+18,137.70288388671875,19.92259979248047,37.7858383178711,-24.02424011230469,1.688686666628884e+18,137.70288388671875,-235.42339782714845,132.81163940429687,-156.74803771972657,1.6886866666256136e+18,137.69961360677084,-0.2890241146087646,0.0663505891958872,-0.7267304062843323,0.6196165680885315,-1.7610882918039958,1.2195451656977336,2.277225971221924
2.75,1.6886866666775258e+18,137.75152596028647,-0.1847094893455505,0.011757214864095,-0.0315909385681151,1.6886866666775258e+18,137.75152596028647,-0.7862416505813599,-9.220941543579102,3.339782158533732,1.6886866666775258e+18,137.75152596028647,-0.6073781847953796,-9.21519406636556,3.308685700098674,1.6886866666732012e+18,137.7472012532552,0.0012217305290202,0.0374664009238282,0.0296269642810026,1.6886866666732012e+18,137.7472012532552,0.00015271633553,0.0419969850530227,0.0320195189366737,,,,,,,,,,,,1.688686666678887e+18,137.7528869628906,19.102759552001952,37.705319213867185,-24.090119552612304,1.688686666678887e+18,137.7528869628906,-236.24323425292968,132.73111572265626,-156.813916015625,1.6886866666775258e+18,137.75152596028647,-0.2904885609944661,0.0674389650424321,-0.7256982922554016,0.6200245221455892,-1.7532832622528076,1.2199493646621704,2.2731947898864746
2.8,1.6886866667294372e+18,137.80343717447917,-0.1259637673695881,0.0150868097941081,-0.0509196122487385,1.6886866667294372e+18,137.80343717447917,-0.7290132840474447,-9.216156005859377,3.3242289225260415,1.6886866667294372e+18,137.80343717447917,-0.6088955402374268,-9.213738123575846,3.3124611377716064,1.6886866667251103e+18,137.79911035156252,-0.0122682102955877,-0.0419969856739043,-0.000305432632255,1.6886866667251103e+18,137.79911035156252,-0.0133372244114676,-0.0374154957632223,0.0019853120514501,,,,,,,,,,,,1.6886866667288855e+18,137.80288544921876,19.466320037841797,37.6150390625,-23.92663993835449,1.6886866667288855e+18,137.80288544921876,-235.87967834472656,132.64083862304688,-156.6504364013672,1.6886866667294372e+18,137.80343717447917,-0.2901592552661895,0.0668272127707799,-0.7258417805035909,0.6200769543647766,-1.753816286722819,1.219527006149292,2.272349198659261
2.85,1.6886866667813489e+18,137.85534887695312,0.1631236175696055,-0.0296382904052734,0.031399647394816,1.6886866667813489e+18,137.85534887695312,-0.4614159762859344,-9.260423024495443,3.4037901560465493,1.6886866667813489e+18,137.85534887695312,-0.6303856372833252,-9.213280042012531,3.3097031116485596,1.6886866667770258e+18,137.85102587890626,0.0098756549414246,-0.0499382354319095,-0.0426587561766306,1.6886866667770258e+18,137.85102587890626,0.0088575460637608,-0.0454076481983065,-0.0403171057502428,,,,,,,,,,,,1.6886866667788838e+18,137.8528837890625,19.72007942199707,37.676039123535155,-23.90223960876465,1.6886866667788838e+18,137.8528837890625,-235.62591552734375,132.70183410644532,-156.62604064941405,1.6886866667813489e+18,137.85534887695312,-0.2890314559141794,0.0661664629975954,-0.7266539732615153,0.6197230815887451,-1.7602148453394573,1.2194108565648396,2.2760958671569824
2.9,1.6886866668332603e+18,137.9072607421875,0.2631168564160664,0.0231583913167317,0.0439621607462564,1.6886866668332603e+18,137.9072607421875,-0.369491696357727,-9.209575335184732,3.4093735218048096,1.6886866668332603e+18,137.9072607421875,-0.6384545962015787,-9.215229034423828,3.3027239640553794,1.688686666828938e+18,137.90293806966147,0.0234165011594692,0.1616247644027073,-0.0346156983481099,1.688686666828938e+18,137.90293806966147,0.0223474868883688,0.166104440887769,-0.0323249526942769,,,,,,,,,,,,1.6886866668288906e+18,137.90289072265625,19.527320098876952,37.77119903564453,-23.897359466552736,1.6886866668288906e+18,137.90289072265625,-235.81867065429688,132.7969970703125,-156.62115783691405,1.6886866668332603e+18,137.9072607421875,-0.2902391155560811,0.0682331894834836,-0.7266738216082255,0.6189091205596924,-1.7623467048009236,1.2200021346410117,2.2830659548441568
2.95,1.688686666876523e+18,137.95052319335937,-0.230112224817276,0.0871868133544921,0.048753261566162,1.688686666876523e+18,137.95052319335937,-0.8294121325016022,-9.147761344909668,3.41425883769989,1.688686666876523e+18,137.95052319335937,-0.6051459312438965,-9.217443466186522,3.302818179130554,1.688686666880843e+18,137.95484301757813,-0.0030543260121097,0.1016581559864182,0.0386881319185097,1.688686666880843e+18,137.95484301757813,-0.0040215294187267,0.1062396472940841,0.040978876252969,,,,,,,,,,,,1.6886866668788854e+18,137.95288520507813,19.202799987792968,37.93711929321289,-23.90955924987793,1.6886866668788854e+18,137.95288520507813,-236.14319763183593,132.96291809082032,-156.63335876464845,1.688686666876523e+18,137.95052319335937,-0.2929790169000625,0.070747684687376,-0.7252666652202606,0.618988037109375,-1.7526292204856873,1.2206369042396543,2.2811315059661865
3.0,1.6886866669197816e+18,137.99378165690104,-0.1359140872955322,0.0225273768107096,0.0241001447041829,1.6886866669197816e+18,137.99378165690104,-0.7276174823443095,-9.20997428894043,3.3978081544240317,1.6886866669197816e+18,137.99378165690104,-0.5975494186083475,-9.214996973673502,3.311020612716675,1.6886866669327552e+18,138.00675504557293,-0.0323758584757645,-0.084553929666678,-0.0093156949927409,1.6886866669327552e+18,138.00675504557293,-0.0333430605630079,-0.0799724409977594,-0.0070249506582816,1.688686666927684e+18,138.00168408203126,0.0,0.4077702164649963,0.8277891874313354,7.284999847412109,0.0561488606035709,0.0,40.30000305175781,-122.7531611,49.1903706,1.688686666928886e+18,138.00288588867187,19.061279678344725,37.6565185546875,-23.77779960632324,1.688686666928886e+18,138.00288588867187,-236.2847198486328,132.68231811523438,-156.50159912109376,1.6886866669197816e+18,137.99378165690104,-0.2930861711502075,0.0700779159863789,-0.7251020868619283,0.6192060510317484,-1.7502727111180625,1.219866116841634,2.2779749234517417
3.05,1.6886866669716954e+18,138.0456953938802,0.1877031326293945,-0.0315996805826822,-0.1858151753743489,1.6886866669716954e+18,138.0456953938802,-0.4257230261961619,-9.259027163187662,3.198007504145304,1.6886866669716954e+18,138.0456953938802,-0.6192722121874491,-9.209922790527344,3.3211352825164795,1.6886866669760233e+18,138.0500233154297,-0.0110719321528449,-0.0119118727743626,-0.0327576491981744,1.6886866669760233e+18,138.0500233154297,-0.012140946695581,-0.0074067404493689,-0.0303141865879296,,,,,,,,,,,,1.6886866669788854e+18,138.05288544921876,19.52487983703613,37.541839599609375,-24.165760040283203,1.6886866669788854e+18,138.05288544921876,-235.82111511230468,132.56763916015626,-156.88955383300782,1.6886866669716954e+18,138.0456953938802,-0.2922418216864267,0.0687727207938829,-0.7259726723035177,0.6187315583229065,-1.7559421062469482,1.2184365193049114,2.2805150349934897
3.1,1.6886866670236045e+18,138.09760432942707,0.0346270600954691,-0.0785535176595051,-0.0592816670735676,1.6886866670236045e+18,138.09760432942707,-0.5816553036371866,-9.30748176574707,3.3198420206705728,1.6886866670236045e+18,138.09760432942707,-0.6221283872922262,-9.211423556009928,3.316436290740967,1.688686667019279e+18,138.09327905273437,0.0179696188618738,0.0210239452620347,-0.0068722339347004,1.688686667019279e+18,138.09327905273437,0.0169006045907735,0.0256054339309533,-0.0045814892898002,,,,,,,,,,,,1.6886866670288847e+18,138.102884765625,19.376039886474608,37.74923858642578,-24.002279663085936,1.6886866670288847e+18,138.102884765625,-235.9699554443359,132.77503967285156,-156.72608032226563,1.6886866670236045e+18,138.09760432942707,-0.2924041350682576,0.069448672235012,-0.7259843150774637,0.6185657183329264,-1.7568772633870442,1.2189911603927612,2.282670497894287
3.15,1.6886866670755205e+18,138.14952001953125,0.1351846754550933,0.0139290491739908,-0.0921465555826822,1.6886866670755205e+18,138.14952001953125,-0.4805585443973541,-9.216554641723633,3.2827532291412354,1.6886866670755205e+18,138.14952001953125,-0.6215892632802328,-9.212978998819986,3.3122123877207437,1.6886866670711962e+18,138.1451962890625,0.0008653924257183,-0.0249945698305963,0.0235692174173891,1.6886866670711962e+18,138.1451962890625,-0.0002036217726223,-0.0204130809288471,0.0258599618731143,,,,,,,,,,,,1.688686667078887e+18,138.15288666992188,19.678599548339843,37.688238525390624,-24.048639678955077,1.688686667078887e+18,138.15288666992188,-235.66739501953128,132.7140380859375,-156.7724365234375,1.6886866670755205e+18,138.14952001953125,-0.2918922007083892,0.0691838935017585,-0.7259704073270162,0.6188533107439677,-1.7568008104960124,1.2194982767105105,2.2814146677652993
3.2,1.68868666712743e+18,138.20142960611977,-0.0869871973991393,-0.0095507303873697,-0.0117183526357015,1.68868666712743e+18,138.20142960611977,-0.6761717995007833,-9.24367332458496,3.3579277992248535,1.68868666712743e+18,138.20142960611977,-0.5950306256612142,-9.216617902119957,3.3069587548573813,1.6886866671231078e+18,138.19710766601565,0.0162897401799757,-0.003257948361958,0.0587957799434661,1.6886866671231078e+18,138.19710766601565,0.0152207255984345,0.0012726360000669,0.0610865217943985,,,,,,,,,,,,1.6886866671288837e+18,138.20288359375,19.27356033325195,37.51987915039062,-23.93151969909668,1.6886866671288837e+18,138.20288359375,-236.0724365234375,132.5456787109375,-156.65531311035156,1.68868666712743e+18,138.20142960611977,-0.2917553583780924,0.0689359034101168,-0.725058913230896,0.6200129588445028,-1.7493400573730469,1.220632831255595,2.273327668507894
