seconds_elapsed_rounded,accelerometer_time,accelerometer_seconds_elapsed,accelerometer_z,accelerometer_y,accelerometer_x,accelerometeruncalibrated_time,accelerometeruncalibrated_seconds_elapsed,accelerometeruncalibrated_z,accelerometeruncalibrated_y,accelerometeruncalibrated_x,gravity_time,gravity_seconds_elapsed,gravity_z,gravity_y,gravity_x,gyroscope_time,gyroscope_seconds_elapsed,gyroscope_z,gyroscope_y,gyroscope_x,gyroscopeuncalibrated_time,gyroscopeuncalibrated_seconds_elapsed,gyroscopeuncalibrated_z,gyroscopeuncalibrated_y,gyroscopeuncalibrated_x,location_time,location_seconds_elapsed,location_bearingAccuracy,location_speedAccuracy,location_verticalAccuracy,location_horizontalAccuracy,location_speed,location_bearing,location_altitude,location_longitude,location_latitude,magnetometer_time,magnetometer_seconds_elapsed,magnetometer_z,magnetometer_y,magnetometer_x,magnetometeruncalibrated_time,magnetometeruncalibrated_seconds_elapsed,magnetometeruncalibrated_z,magnetometeruncalibrated_y,magnetometeruncalibrated_x,orientation_time,orientation_seconds_elapsed,orientation_qz,orientation_qy,orientation_qx,orientation_qw,orientation_roll,orientation_pitch,orientation_yaw
0.0,1.6886862325205944e+18,29.996594401041666,-0.0920244852701822,0.0389204025268554,-0.1037246386210123,1.688686232529247e+18,30.005247070312503,-0.736590584119161,-9.70189889272054,-1.20478622118632,1.6886862325205944e+18,29.996594401041666,-0.6250880559285482,-9.72012424468994,-1.1681358019510906,1.6886862325249226e+18,30.00092260742187,-0.0081703227479009,0.041538837365806,0.0409279707819223,1.6886862325249226e+18,30.00092260742187,-0.0092393369413911,0.0459676086902618,0.0432187169790267,,,,,,,,,,,,1.6886862325238513e+18,29.999851123046874,-14.64731960296631,41.43607940673828,3.9015599727630614,1.6886862325238513e+18,29.999851123046874,-269.9933166503906,136.46187744140624,-128.82223815917968,1.6886862325205944e+18,29.996594401041666,-0.6821011304855347,0.7286710143089294,0.0299754148970047,0.0536466812094052,2.0621442794799805,1.4353307485580444,1.0458942254384358
0.05,1.68868623257251e+18,30.048509765625,-0.0759005546569823,0.0442428588867186,-0.0738942225774128,1.6886862325811643e+18,30.057164388020833,-0.6667999227841696,-9.686146100362144,-1.167498032251994,1.68868623257251e+18,30.048509765625,-0.6204741994539896,-9.720860481262209,-1.1644666989644368,1.6886862325681828e+18,30.044182779947917,-0.0088066404374936,0.0058032199740408,-0.0044796785029272,1.6886862325681828e+18,30.044182779947917,-0.0098756550190348,0.0102828983217477,-0.0021889337028065,,,,,,,,,,,,1.6886862325738524e+18,30.04985234375,-14.610719871520995,41.365319061279294,3.711239910125733,1.6886862325738524e+18,30.04985234375,-269.9567138671875,136.3911163330078,-129.01255493164064,1.68868623257251e+18,30.048509765625,-0.6823068857192993,0.7285020550092062,0.0301599813004334,0.0532212033867835,2.0603792667388916,1.435887575149536,1.0485249757766724
0.1,1.688686232624424e+18,30.100423990885417,-0.0838359793027242,0.0467106501261392,0.0039267539978027,1.688686232624425e+18,30.10042504882812,-0.715753048658371,-9.696914196014404,-1.0767702460289,1.688686232624424e+18,30.100423990885417,-0.6320801575978597,-9.720536231994627,-1.1609317064285278,1.6886862326200986e+18,30.0960986328125,-0.0035633804897466,0.0496837055931487,-0.0178678082302212,1.6886862326200986e+18,30.0960986328125,-0.004632394760847,0.0541633833199739,-0.015577063585321,,,,,,,,,,,,1.688686232623848e+18,30.099847949218752,-14.217879676818848,41.309199523925784,3.9381597995758058,1.688686232623848e+18,30.099847949218752,-269.5638732910156,136.33499755859376,-128.78563842773437,1.688686232624424e+18,30.100423990885417,-0.6819233894348145,0.7288906375567118,0.0305737908929586,0.0525744892656802,2.0693840185801187,1.4356417655944824,1.041024128595988
0.15,1.688686232676339e+18,30.15233911132813,-0.0727587143580118,0.0438674290974934,-0.0476021369298298,1.688686232667686e+18,30.14368644205729,-0.7704888979593912,-9.691131273905436,-1.1250254313151042,1.688686232676339e+18,30.15233911132813,-0.650934100151062,-9.72048473358154,-1.150878389676412,1.688686232672012e+18,30.148011881510417,-0.0333939672758181,-0.0473929612586895,-0.0476474886139233,1.688686232672012e+18,30.148011881510417,-0.0344629809260368,-0.042862377439936,-0.0453567436585823,,,,,,,,,,,,1.6886862326738547e+18,30.1498546875,-13.932399940490722,41.58003921508789,3.9308398723602296,1.6886862326738547e+18,30.1498546875,-269.2783996582031,136.6058380126953,-128.79295654296874,1.688686232676339e+18,30.15233911132813,-0.6812476714452108,0.7295644481976827,0.0302038074781497,0.0521969571709632,2.0855462551116943,1.4356025457382202,1.0248720248540242
0.2,1.6886862327282524e+18,30.204252278645836,0.3436326881249745,-0.0555311838785807,-0.0841570297876993,1.688686232719602e+18,30.19560205078125,-0.3142573833465575,-9.795817057291666,-1.1483554442723591,1.6886862327282524e+18,30.204252278645836,-0.6653313239415487,-9.72118600209554,-1.1366565227508545,1.6886862327239304e+18,30.19993058268229,-0.024230988540997,-0.0355829000473022,-0.0234674063200751,1.6886862327239304e+18,30.19993058268229,-0.025300002656877,-0.0311032216995954,-0.021176661675175,,,,,,,,,,,,1.6886862327238523e+18,30.199852294921875,-13.624959754943848,41.6385986328125,3.7453999519348145,1.6886862327238523e+18,30.199852294921875,-268.9709533691406,136.66439819335938,-128.9783966064453,1.6886862327282524e+18,30.204252278645836,-0.680649995803833,0.7301437060038248,0.0283036461720863,0.0529591552913188,2.1003758112589517,1.4361344575881958,1.0062683820724487
0.25,1.6886862327801664e+18,30.256166341145832,-0.0948500235875447,-0.0019022623697916,-0.1264472802480061,1.6886862327715174e+18,30.24751749674479,-0.6917251547177633,-9.73719278971354,-1.2111670573552449,1.6886862327801664e+18,30.256166341145832,-0.6505776047706604,-9.722372055053713,-1.1350442171096802,1.6886862327758408e+18,30.25184073893229,-0.0023925556063962,-0.0205148911724487,0.0405716337263583,1.6886862327758408e+18,30.25184073893229,-0.0034615697028735,-0.0160352125143011,0.0428623780608177,,,,,,,,,,,,1.6886862327738516e+18,30.24985151367188,-14.334999656677246,41.6190788269043,3.764919948577881,1.6886862327738516e+18,30.24985151367188,-269.6809936523438,136.6448760986328,-128.95887756347656,1.6886862327801664e+18,30.256166341145832,-0.6812104185422262,0.7296281456947327,0.0283149766425291,0.0528517415126164,2.091257890065511,1.437037984530131,1.015556772549947
0.3,1.688686232823433e+18,30.29943298339844,-0.0579956769943237,0.0500969886779785,0.0142637491226196,1.68868623282343e+18,30.299429931640628,-0.6973083813985189,-9.691729227701822,-1.0671988725662231,1.688686232823433e+18,30.29943298339844,-0.6396751999855042,-9.722626686096191,-1.1390653252601624,1.6886862328277573e+18,30.30375732421875,0.0108428578823804,-0.0519235444565613,7.761023363324811e-11,1.6886862328277573e+18,30.30375732421875,0.0097738439217209,-0.047494774373869,0.0022907448583282,,,,,,,,,,,,1.688686232823854e+18,30.29985405273437,-14.051959609985351,41.46779861450195,3.799079847335816,1.688686232823854e+18,30.29985405273437,-269.39794921875,136.49360046386718,-128.92471618652343,1.688686232823433e+18,30.29943298339844,-0.6815243661403656,0.7292840778827667,0.0273476904258131,0.054049240425229,2.082492709159851,1.4372320771217346,1.021251201629639
0.35,1.6886862328666918e+18,30.342691569010416,-0.0483937263488769,0.0296173095703125,0.0516824722290038,1.6886862328753492e+18,30.35134944661458,-0.6781658331553141,-9.722237904866535,-1.039880871772766,1.6886862328666918e+18,30.342691569010416,-0.6453888018925985,-9.721588770548502,-1.1446794271469116,1.6886862328796751e+18,30.35567504882813,0.0092647895216941,-0.0174096599221229,-0.0238237443069616,1.6886862328796751e+18,30.35567504882813,0.0081957752505937,-0.0129299803326527,-0.0215329999725023,,,,,,,,,,,,1.6886862328738504e+18,30.349850244140622,-13.951919555664062,41.48731918334961,3.677079916000366,1.6886862328738504e+18,30.349850244140622,-269.29791870117185,136.51311950683595,-129.04671936035157,1.6886862328666918e+18,30.342691569010416,-0.681276818116506,0.7294852137565613,0.0273040011525153,0.0544766448438167,2.0841851234436035,1.4364410638809204,1.018890619277954
0.4,1.6886862329186068e+18,30.39460693359375,0.1687538524468739,-0.0437924067179361,0.0597794850667317,1.6886862329272614e+18,30.403261555989584,-0.4769693116346995,-9.78823979695638,-1.0342976252237956,1.6886862329186068e+18,30.39460693359375,-0.6531644264856974,-9.720561981201172,-1.148987809816996,1.6886862329315912e+18,30.40759106445313,0.0109955742955207,-0.003003420929114,-0.0014253521027664,1.6886862329315912e+18,30.40759106445313,0.0099265603348612,0.0014253519475459,0.000865392309303,1.688686232922449e+18,30.398448974609376,0.0,0.0,1.008317947387695,10.010000228881836,0.3427043557167053,165.68478393554688,40.20000076293945,-122.7531754,49.1903005,1.6886862329238574e+18,30.39985732421875,-14.127599716186523,41.67763900756836,3.9796399116516112,1.6886862329238574e+18,30.39985732421875,-269.4736022949219,136.70343322753905,-128.74415893554686,1.6886862329186068e+18,30.39460693359375,-0.680942157904307,0.7297669251759847,0.0270357641081015,0.0550193724532921,2.0877156257629395,1.4356612364451091,1.014210224151611
0.45,1.6886862329705254e+18,30.446525390625,0.0544787049293517,-1.3669331868499992e-05,0.0038815736770629,1.6886862329791826e+18,30.4551826171875,-0.5934200286865234,-9.723633448282875,-1.1032906373341878,1.6886862329705254e+18,30.446525390625,-0.6457686622937521,-9.72047233581543,-1.1539074579874675,1.688686232974853e+18,30.45085302734375,0.0062613687478005,-0.0207694191485643,0.0287106661126017,1.688686232974853e+18,30.45085302734375,0.0051923546707256,-0.0162642872892319,0.0310014113783836,,,,,,,,,,,,1.6886862329738575e+18,30.449857666015625,-14.298399734497073,41.54831924438477,3.7429598331451417,1.6886862329738575e+18,30.449857666015625,-269.64439086914064,136.5741180419922,-128.9808319091797,1.6886862329705254e+18,30.446525390625,-0.6812001466751099,0.7295037508010864,0.0271676828463872,0.0552502249677975,2.08101216952006,1.435593883196513,1.0207734107971191
0.5,1.6886862330224407e+18,30.49844091796875,0.0008737444877624,0.0117235183715819,-0.0396276712417602,1.6886862330310932e+18,30.50709326171875,-0.6572286089261373,-9.732806205749512,-1.1214361985524497,1.6886862330224407e+18,30.49844091796875,-0.6320440769195557,-9.720644315083822,-1.160049279530843,1.6886862330181192e+18,30.49411922200521,0.0139989955350756,-0.0113519122824072,0.020667607585589,1.6886862330181192e+18,30.49411922200521,0.0129299807983139,-0.0069231394057472,0.0229583519200483,,,,,,,,,,,,1.688686233023849e+18,30.499848925781247,-13.944599723815918,41.41899948120117,3.8405599117279055,1.688686233023849e+18,30.499848925781247,-269.29059448242185,136.44479675292968,-128.88323669433595,1.6886862330224407e+18,30.49844091796875,-0.6816685597101847,0.7290282448132833,0.0270575794080893,0.0558011345565318,2.0696805318196616,1.435723622639974,1.0311685800552368
0.55,1.6886862330743488e+18,30.55034847005209,-0.0691607991854349,0.020059585571289,0.1010360320409138,1.6886862330743557e+18,30.55035559082031,-0.6894320249557495,-9.714262008666992,-0.9978070259094238,1.6886862330743488e+18,30.55034847005209,-0.6262169480323792,-9.720007260640465,-1.168509562810262,1.6886862330700268e+18,30.546026774088546,0.0147625768246749,-0.0051414490832636,0.0063122740636268,1.6886862330700268e+18,30.546026774088546,0.0136935623983541,-0.0005599597352557,0.008603018708527,,,,,,,,,,,,1.688686233073852e+18,30.549851953125,-14.215439605712891,41.49707946777344,3.652679967880249,1.688686233073852e+18,30.549851953125,-269.5614379882812,136.52287902832032,-129.0711212158203,1.6886862330743488e+18,30.55034847005209,-0.6818627317746481,0.7288120985031128,0.0273929803321758,0.0560883420209089,2.062767505645752,1.4352434873580933,1.03814963499705
0.6,1.688686233126271e+18,30.602270833333336,0.0092943906784057,-0.0039717356363932,0.0619682868321736,1.6886862331176154e+18,30.593615315755205,-0.622333288192749,-9.736594518025717,-1.0476575295130413,1.688686233126271e+18,30.602270833333336,-0.6263071894645691,-9.719903945922852,-1.1693221728007,1.6886862331219466e+18,30.59794669596354,-0.0005599597934633,-0.0133372242562472,0.0030034210843344,1.6886862331219466e+18,30.59794669596354,-0.001628974006356,-0.0088575459085404,0.0052941655740141,,,,,,,,,,,,1.6886862331238528e+18,30.599852880859373,-13.98119945526123,41.702039337158205,4.018680000305176,1.6886862331238528e+18,30.599852880859373,-269.3271911621094,136.72783508300782,-128.70511779785156,1.688686233126271e+18,30.602270833333336,-0.6818318963050842,0.7288262446721395,0.027099210768938,0.0564200542867183,2.062537590662638,1.4351644118626912,1.0374910831451416
0.65,1.6886862331781847e+18,30.6541845703125,-0.0090630650520324,0.0021470387776692,0.1270087957382201,1.6886862331695342e+18,30.64553450520833,-0.6209374666213989,-9.741978645324709,-0.9838489095369974,1.6886862331781847e+18,30.6541845703125,-0.619515061378479,-9.720239957173666,-1.1701552867889404,1.688686233173862e+18,30.64986197916667,0.0060577470188338,0.0168496997406084,0.0155261584247151,1.688686233173862e+18,30.64986197916667,0.0049887329029539,0.0213293783987561,0.0178169030696152,,,,,,,,,,,,1.6886862331738578e+18,30.649857666015624,-14.25447998046875,41.42387924194336,3.647799921035767,1.6886862331738578e+18,30.649857666015624,-269.60048217773436,136.44967651367188,-129.07599487304688,1.6886862331781847e+18,30.6541845703125,-0.6821004350980123,0.7285789847373962,0.0273627564311027,0.0562407796581585,2.05772066116333,1.435417652130127,1.0429373184839883
0.7,1.6886862332301007e+18,30.706100911458336,-0.0467326839764912,0.0164998372395833,0.0086466471354166,1.6886862332214484e+18,30.69744832356771,-0.6444668968518575,-9.725228945414225,-1.071585734685262,1.6886862332301007e+18,30.706100911458336,-0.6099610924720764,-9.720834096272789,-1.1702378590901692,1.6886862332257743e+18,30.7017744140625,0.0008144869789247,0.0142535221142072,0.0242818935463825,1.6886862332257743e+18,30.7017744140625,-0.000254527190312,0.0187332012380162,0.0265726378808418,,,,,,,,,,,,1.688686233223851e+18,30.699851025390625,-14.3764799118042,41.54831924438477,3.867399930953979,1.688686233223851e+18,30.699851025390625,-269.72247314453125,136.57411499023436,-128.856396484375,1.6886862332301007e+18,30.706100911458336,-0.6824766000111898,0.7282345493634542,0.0276341550052165,0.056004699319601,2.051292578379313,1.435866395632426,1.0500850677490234
0.75,1.6886862332733637e+18,30.749363525390628,-0.043156087398529,0.0199699401855468,-0.0297842025756835,1.6886862332733617e+18,30.74936173502604,-0.6269195278485616,-9.720243771870932,-1.132403294245402,1.6886862332733637e+18,30.749363525390628,-0.6060601472854614,-9.720914363861084,-1.1715876460075378,1.6886862332776868e+18,30.753686767578127,0.006006841547787,0.0288124773651361,0.0024943663738668,1.6886862332776868e+18,30.753686767578127,0.0049378274319071,0.0332921557128429,0.0047851109072022,,,,,,,,,,,,1.6886862332738575e+18,30.749857519531247,-14.266679763793944,41.39215927124023,3.8576398849487306,1.6886862332738575e+18,30.749857519531247,-269.6126647949219,136.41795654296874,-128.86615600585938,1.6886862332733637e+18,30.749363525390628,-0.6826472580432892,0.7280815541744232,0.0280681736767291,0.055697588250041,2.0482014417648315,1.4359285235404968,1.0542267560958862
0.8,1.6886862333166213e+18,30.792621256510415,0.0520526965459188,0.0208336512247721,0.0433004697163899,1.68868623332528e+18,30.80127978515625,-0.5778666536013285,-9.734999338785808,-1.066600680351257,1.6886862333166213e+18,30.792621256510415,-0.6070515116055807,-9.720781008402506,-1.172189752260844,1.688686233329606e+18,30.805605957031247,-0.0010181087418459,0.0447967847188313,0.011606439637641,1.688686233329606e+18,30.805605957031247,-0.0020871229935437,0.0493273697793483,0.0138971841273207,,,,,,,,,,,,1.6886862333238533e+18,30.7998533203125,-14.320359802246092,41.477560424804686,3.7990798950195312,1.6886862333238533e+18,30.7998533203125,-269.666357421875,136.50335693359375,-128.92472229003906,1.6886862333166213e+18,30.792621256510415,-0.6826531688372294,0.7280925710995992,0.0286775001635153,0.0551673260827858,2.0486607551574707,1.435826579729716,1.0553832451502485
0.85,1.6886862333685384e+18,30.844538655598956,-0.0676557620366414,-0.0117362340291341,0.0232949256896972,1.6886862333771912e+18,30.85319116210938,-0.6683951218922933,-9.725228945414225,-1.0879366795221963,1.6886862333685384e+18,30.844538655598956,-0.6016003489494324,-9.721511522928871,-1.1689339478810628,1.6886862333815217e+18,30.857521809895832,-0.0032579480515171,0.0454076503713925,0.0135408461404342,1.6886862333815217e+18,30.857521809895832,-0.004326962167397,0.0498873280982176,0.0158315909405548,,,,,,,,,,,,1.6886862333738514e+18,30.84985146484375,-14.452119827270508,41.55075912475586,4.055279874801636,1.6886862333738514e+18,30.84985146484375,-269.79811401367186,136.5765594482422,-128.66851806640625,1.6886862333685384e+18,30.844538655598956,-0.6829275290171305,0.7278736631075541,0.0293850923577943,0.0542812459170818,2.046119213104248,1.4363813797632854,1.060185194015503
0.9,1.688686233420456e+18,30.8964560546875,-0.0574731429417927,0.0319163004557291,-0.0241351524988809,1.6886862334291087e+18,30.905108642578124,-0.6426722804705302,-9.728020350138346,-1.1262218554814656,1.688686233420456e+18,30.8964560546875,-0.604006290435791,-9.721694310506184,-1.1661699215571086,1.688686233424784e+18,30.9007841796875,-0.0022907446546014,0.035735617391765,-0.0144316917285322,1.688686233424784e+18,30.9007841796875,-0.0033597588771953,0.0402407478541135,-0.0121409471612423,,,,,,,,,,,,1.688686233423849e+18,30.899849072265624,-14.344759559631347,41.39459915161133,4.004039859771728,1.688686233423849e+18,30.899849072265624,-269.6907531738281,136.42039794921874,-128.71975708007812,1.688686233420456e+18,30.8964560546875,-0.6829091310501099,0.7279269496599833,0.0301405377686023,0.0533758824070294,2.048709233601888,1.4365193843841553,1.0599483648935957
0.95,1.688686233472368e+18,30.948367919921875,0.0247161785761515,0.0940332412719726,-0.1165586312611897,1.6886862334810245e+18,30.957024007161458,-0.6079763770103455,-9.623733520507812,-1.2464611927668254,1.688686233472368e+18,30.948367919921875,-0.6193959712982178,-9.720999717712402,-1.1638760964075725,1.6886862334680463e+18,30.94404638671875,-0.010893763663868,-0.0151698204378287,-0.0391462805370489,1.6886862334680463e+18,30.94404638671875,-0.0119627780125786,-0.0106901420901219,-0.0368555362025896,,,,,,,,,,,,1.6886862334738516e+18,30.949851562499997,-14.21055965423584,41.53855972290039,3.950359964370727,1.6886862334738516e+18,30.949851562499997,-269.5565612792969,136.56435546875,-128.7734375,1.688686233472368e+18,30.948367919921875,-0.6823468009630839,0.7284664312998453,0.0301196426153182,0.0532186118264992,2.059873898824056,1.435991644859314,1.0489767789840698
1.0,1.6886862335242862e+18,31.000286295572916,0.028155376513799,0.004458745320638,-0.1824748913447061,1.6886862335242875e+18,31.000287719726565,-0.633499801158905,-9.748658180236816,-1.280160129070282,1.6886862335242862e+18,31.000286295572916,-0.6379897197087606,-9.7203582127889,-1.159176230430603,1.688686233519962e+18,30.995961832682298,-0.0177150924379626,-0.1150462875763574,-0.0509563436110813,1.688686233519962e+18,30.995961832682298,-0.0187841063986221,-0.1105666110912958,-0.0486655967930952,,,,,,,,,,,,1.6886862335238518e+18,30.999851953125,-14.261799812316896,41.5995590209961,3.764919900894165,1.6886862335238518e+18,30.999851953125,-269.60780029296876,136.62535705566407,-128.95888061523436,1.6886862335242862e+18,31.000286295572916,-0.6815421382586161,0.7291905879974365,0.0282638520002364,0.0546047290166218,2.0739447275797525,1.435506780942281,1.030309756596883
1.05,1.6886862335762012e+18,31.052201171875,0.4432112375895182,-0.0542790095011392,-0.0167715152104695,1.688686233567549e+18,31.043548990885416,-0.2221337010463078,-9.772088368733725,-1.1493524710337322,1.6886862335762012e+18,31.052201171875,-0.6648101409276327,-9.718250592549644,-1.1617688337961831,1.6886862335718707e+18,31.04787076822917,0.0058032199740409,-0.0391971863185366,-0.0688241521517435,1.6886862335718707e+18,31.04787076822917,0.004734205858161,-0.0346666028102239,-0.0665334053337573,,,,,,,,,,,,1.6886862335738527e+18,31.049852832031252,-13.978759574890136,41.36531829833984,3.686839962005615,1.6886862335738527e+18,31.049852832031252,-269.324755859375,136.3911163330078,-129.03695983886718,1.6886862335762012e+18,31.052201171875,-0.6804118951161703,0.7301847139994303,0.026756294692556,0.0561602798600991,2.0905633767445884,1.4339229265848796,1.0093467235565186
1.1,1.6886862336281132e+18,31.104113362630205,-0.0438830455144245,-0.0138219197591145,-0.0387692054112752,1.6886862336194642e+18,31.095464111328123,-0.634496808052063,-9.77129077911377,-1.110469102859497,1.6886862336281132e+18,31.104113362630205,-0.6506970922152201,-9.718827565511068,-1.16489577293396,1.6886862336237924e+18,31.099792236328124,-0.0001018106704578,-0.0372627812127272,0.0639881355067094,1.6886862336237924e+18,31.099792236328124,-0.0011708251549862,-0.0328340077151854,0.0663297822078068,,,,,,,,,,,,1.6886862336238584e+18,31.09985830078125,-14.169079780578612,41.399479675292966,3.794199895858765,1.6886862336238584e+18,31.09985830078125,-269.51507568359375,136.42527465820314,-128.92959899902343,1.6886862336281132e+18,31.104113362630205,-0.6809121370315552,0.7296958367029825,0.0266502741724252,0.0564972907304762,2.080204486846924,1.434354583422343,1.019077221552531
1.15,1.6886862336800315e+18,31.156031494140624,-0.0864305893580118,0.104411760965983,-0.1766383647918701,1.6886862336713705e+18,31.147370442708336,-0.6969096064567566,-9.640881856282553,-1.287139177322388,1.6886862336800315e+18,31.156031494140624,-0.6354676087697347,-9.719613393147789,-1.1668073733647664,1.6886862336757002e+18,31.151700276692708,-0.0064649905155722,-0.140957161784172,-0.0126754535983006,1.6886862336757002e+18,31.151700276692708,-0.0075340045150368,-0.1364774778485298,-0.0103847091086208,,,,,,,,,,,,1.688686233673849e+18,31.149849365234378,-13.84699993133545,41.44095993041992,3.964999914169311,1.688686233673849e+18,31.149849365234378,-269.1929931640625,136.46676025390624,-128.75879516601563,1.6886862336800315e+18,31.156031494140624,-0.6812921166419983,0.7292417685190836,0.0244128530224164,0.0587420438726742,2.06952174504598,1.434943477312724,1.0234065055847168
1.2,1.688686233723298e+18,31.199297973632813,-0.1906608343124389,0.0229473114013672,0.0091270804405212,1.6886862337232955e+18,31.19929532877604,-0.8085746566454569,-9.69452095031738,-1.1062816778818767,1.688686233723298e+18,31.199297973632813,-0.6356242597103119,-9.718807220458984,-1.1734102368354795,1.688686233727622e+18,31.20362215169271,0.0116573451086878,-0.0828231448928514,-0.0253000025792668,1.688686233727622e+18,31.20362215169271,0.0105883309928078,-0.0783943732579548,-0.0230092569254338,,,,,,,,,,,,1.6886862337238513e+18,31.199851416015623,-14.137359619140623,41.51659927368164,3.740519905090332,1.6886862337238513e+18,31.199851416015623,-269.483349609375,136.5424011230469,-128.9832763671875,1.688686233723298e+18,31.199297973632813,-0.681120365858078,0.7292972505092621,0.0228757951408624,0.0606404207646845,2.0672558546066284,1.4343392848968506,1.0207999348640442
1.25,1.6886862337665556e+18,31.24255558268229,-0.0265626708666483,0.0407323837280273,0.090504765510559,1.6886862337752092e+18,31.251209228515624,-0.6462615132331848,-9.716056187947592,-1.0285149415334065,1.6886862337665556e+18,31.24255558268229,-0.6624342203140259,-9.71675173441569,-1.1755256255467732,1.6886862337795372e+18,31.255537109375,-0.0113010068113604,-0.068773246059815,-0.0941241507728894,1.6886862337795372e+18,31.255537109375,-0.0123700213929016,-0.0643444719413916,-0.0918334101637204,,,,,,,,,,,,1.6886862337738527e+18,31.249852734375004,-13.925079917907714,41.489759826660155,3.5892399311065675,1.6886862337738527e+18,31.249852734375004,-269.2710815429688,136.51555786132812,-129.13455810546876,1.6886862337665556e+18,31.24255558268229,-0.6800204316775004,0.7302649021148682,0.0218384520461161,0.0617077238857745,2.083942174911499,1.432808756828308,1.0011264483133953
1.3,1.6886862338184724e+18,31.294472656249997,0.2163862387339273,-0.0729522705078124,0.0783649285634358,1.688686233827124e+18,31.303123697916664,-0.4753741025924682,-9.810572624206545,-1.0311071872711182,1.6886862338184724e+18,31.294472656249997,-0.691225508848826,-9.715330123901367,-1.1707636912663777,1.6886862338314478e+18,31.30744807942709,-0.014151711637775,-0.078852521876494,-0.0129808864245812,1.6886862338314478e+18,31.30744807942709,-0.0152207259088754,-0.0744237477580705,-0.0106901420901219,,,,,,,,,,,,1.6886862338238492e+18,31.2998494140625,-13.493199729919434,41.78255844116211,3.713679885864258,1.6886862338238492e+18,31.2998494140625,-268.8391967773438,136.80835876464843,-129.01011657714844,1.6886862338184724e+18,31.294472656249997,-0.6788277824719747,0.7313189705212911,0.0200990065932273,0.0629375005761781,2.104149023691813,1.431757132212321,0.9767053723335266
1.35,1.688686233870385e+18,31.346384847005208,-0.0228861172993977,0.0008598963419596,0.0551973978678385,1.6886862338790395e+18,31.35503963216146,-0.738584578037262,-9.70748202006022,-1.0562318166097004,1.688686233870385e+18,31.346384847005208,-0.6816641290982565,-9.716560363769531,-1.1661405165990193,1.6886862338747162e+18,31.350716064453124,-0.009850202128291,-0.0758236460387706,0.0301614711061119,1.6886862338747162e+18,31.350716064453124,-0.0109192160889505,-0.0713185183703898,0.0324522154405712,,,,,,,,,,,,1.6886862338738555e+18,31.34985561523437,-13.737199783325195,41.54343948364258,3.5111599445343016,1.6886862338738555e+18,31.34985561523437,-269.08319702148435,136.5692352294922,-129.21263732910157,1.688686233870385e+18,31.346384847005208,-0.6790745457013448,0.7310284972190857,0.0184837734947601,0.0641340638200441,2.0997889041900635,1.4326653480529783,0.9770798087120056
1.4,1.688686233922303e+18,31.398302978515627,-0.1567274729410807,0.056230862935384,-0.0050567785898844,1.688686233930952e+18,31.40695198567708,-0.8085746367772421,-9.692527135213217,-1.117248773574829,1.688686233922303e+18,31.398302978515627,-0.6754399736722311,-9.717095375061035,-1.1653080781300862,1.6886862339179738e+18,31.39397387695313,-0.004326962167397,-0.0629700248440106,-0.0136426572377483,1.6886862339179738e+18,31.39397387695313,-0.0053959762056667,-0.058541253209114,-0.0113519125928481,1.688686233922476e+18,31.39847607421875,0.0,0.0,1.0186963081359863,10.180999755859377,0.2762512862682342,165.89190673828125,40.20000076293945,-122.753179,49.1903091,1.6886862339238513e+18,31.39985126953125,-13.766479873657229,41.609318542480466,3.242759943008423,1.6886862339238513e+18,31.39985126953125,-269.1124755859375,136.63511352539064,-129.4810363769531,1.688686233922303e+18,31.398302978515627,-0.6791946689287821,0.7308437824249268,0.0171512768914301,0.0653272221485773,2.096110979715983,1.4330626328786211,0.977176328500112
1.45,1.6886862339742134e+18,31.45021346028646,0.0846480329831441,-0.0321483612060546,0.0070255200068156,1.6886862339742172e+18,31.450217041015627,-0.5886343717575073,-9.768997192382812,-1.095613658428192,1.6886862339742134e+18,31.45021346028646,-0.6980716188748678,-9.715456008911133,-1.1656256914138794,1.688686233969887e+18,31.44588680013021,-0.0026470827482019,-0.0485128822426,-0.0568104684352874,1.688686233969887e+18,31.44588680013021,-0.0037160968252767,-0.0440332032740116,-0.0544688180088996,,,,,,,,,,,,1.6886862339738514e+18,31.4498513671875,-13.556639671325684,41.687399291992186,3.4379598617553713,1.6886862339738514e+18,31.4498513671875,-268.9026306152344,136.71319580078125,-129.28583984375,1.6886862339742134e+18,31.45021346028646,-0.6782541076342264,0.7316561937332153,0.0161099632581074,0.0662641078233718,2.110399087270101,1.4318516254425049,0.9600798487663268
1.5,1.6886862340261322e+18,31.50213232421875,0.0353801846504211,-0.0115941365559895,0.0367286602656046,1.6886862340174797e+18,31.493479736328123,-0.6109673778216044,-9.752347310384115,-1.0572288036346436,1.6886862340261322e+18,31.50213232421875,-0.7016452550888062,-9.715272585550943,-1.1650197505950928,1.688686234021808e+18,31.497808268229164,-0.0057523143477737,-0.0551305897533893,0.0105883308375875,1.688686234021808e+18,31.497808268229164,-0.006821328618874,-0.0506509107848008,0.0128790757929285,,,,,,,,,,,,1.6886862340238495e+18,31.499849853515627,-13.10279960632324,41.85575942993164,3.381839895248413,1.6886862340238495e+18,31.499849853515627,-268.44879150390625,136.88155517578124,-129.34195861816406,1.6886862340261322e+18,31.50213232421875,-0.6780325770378113,0.7318023641904196,0.0151002264271179,0.0671493982275326,2.112890084584554,1.4317160844802856,0.954900562763214
1.55,1.6886862340780475e+18,31.554047526041668,-0.1052287618319193,0.0584856669108072,-0.0016578435897827,1.6886862340693934e+18,31.545393554687504,-0.7800601919492086,-9.675378481547035,-1.1010972261428833,1.6886862340780475e+18,31.554047526041668,-0.6886535286903381,-9.71635913848877,-1.163721998532613,1.688686234073723e+18,31.54972273763021,-0.0090611679479479,-0.0866919582088788,0.0058541249794264,1.688686234073723e+18,31.54972273763021,-0.0101301819086074,-0.0821613743901252,0.0081957752505938,,,,,,,,,,,,1.6886862340738514e+18,31.549851318359373,-13.417559623718262,41.63127899169922,3.1402799129486083,1.6886862340738514e+18,31.549851318359373,-268.7635559082031,136.65707702636718,-129.58351440429686,1.6886862340780475e+18,31.554047526041668,-0.6783817807833353,0.7313803831736246,0.013540107756853,0.0685374314586321,2.105161984761556,1.4325168132781982,0.9584492643674216
1.6,1.688686234129961e+18,31.6059609375,-0.0480765302975971,0.0100091298421223,0.0373485485712686,1.688686234121306e+18,31.59730623372396,-0.7513463298479716,-9.712267557779947,-1.0689935286839802,1.688686234129961e+18,31.6059609375,-0.6963541110356649,-9.715938250223797,-1.162648598353068,1.6886862341256369e+18,31.60163704427083,-0.0033088534061485,-0.0244346090282002,-0.025605434551835,1.6886862341256369e+18,31.60163704427083,-0.0043778676384438,-0.0198531202040612,-0.0233146902173757,,,,,,,,,,,,1.688686234123851e+18,31.599851074218748,-13.693279838562011,41.71423873901367,3.396479940414429,1.688686234123851e+18,31.599851074218748,-269.0392822265625,136.7400360107422,-129.3273193359375,1.688686234129961e+18,31.6059609375,-0.6780102849006653,0.7316660086313883,0.0125635225946703,0.0693476969997087,2.110449473063151,1.4322054783503215,0.9506247440973916
1.65,1.6886862341732247e+18,31.64922473144531,-0.0691001117229461,-0.0340147018432616,0.1115742325782775,1.6886862341732252e+18,31.64922517903646,-0.7641080220540365,-9.76550801595052,-0.9784650405248008,1.6886862341732247e+18,31.64922473144531,-0.707234799861908,-9.715384483337402,-1.1607028245925903,1.6886862341775534e+18,31.653553385416668,-0.0077376263216136,-0.0466802865266799,-0.0201585525646805,1.6886862341775534e+18,31.653553385416668,-0.0088066407479345,-0.0421497020870446,-0.0178678080750007,,,,,,,,,,,,1.688686234173854e+18,31.64985395507812,-13.720119667053222,41.79963989257813,3.171999931335449,1.688686234173854e+18,31.64985395507812,-269.06611328125,136.8254364013672,-129.55179748535156,1.6886862341732247e+18,31.64922473144531,-0.6775671541690826,0.7320538461208344,0.0120267653837799,0.0696798898279666,2.118054509162903,1.4317981004714966,0.9417853057384492
1.7,1.6886862342164877e+18,31.692487630208333,-0.0325656334559122,-0.0216534932454427,0.2080232302347818,1.688686234225141e+18,31.70114111328125,-0.7232306599617004,-9.751948674519856,-0.8933204412460327,1.6886862342164877e+18,31.692487630208333,-0.7090733448664347,-9.715781529744469,-1.1562544107437134,1.6886862342294725e+18,31.705472412109373,-0.0114028177534539,-0.0237728394567965,-0.0055995982450742,1.6886862342294725e+18,31.705472412109373,-0.0124718320245543,-0.0192931609538693,-0.0033088534449536,,,,,,,,,,,,1.6886862342238508e+18,31.699850830078123,-13.71767978668213,41.792318725585936,2.9816799640655516,1.6886862342238508e+18,31.699850830078123,-269.0636779785156,136.818115234375,-129.74211730957032,1.6886862342164877e+18,31.692487630208333,-0.6774412393569946,0.7321324944496155,0.0110907377675175,0.0702309037248293,2.1209173997243247,1.432090202967326,0.936812937259674
1.75,1.688686234268408e+18,31.74440828450521,-0.0258195002873738,0.0281985600789387,0.0244371891021727,1.6886862342770532e+18,31.753052978515623,-0.7369893789291382,-9.705886840820312,-1.0913265546162922,1.688686234268408e+18,31.74440828450521,-0.7090398271878561,-9.716580708821615,-1.1495378414789836,1.6886862342813796e+18,31.75737947591146,-0.0130826973666746,-0.0191913495461145,0.0053959762056667,1.6886862342813796e+18,31.75737947591146,-0.014151711637775,-0.0147116711984077,0.0076867211610078,,,,,,,,,,,,1.688686234273852e+18,31.749851806640624,-13.907999992370604,41.684959411621094,3.001199960708618,1.688686234273852e+18,31.749851806640624,-269.2539978027344,136.71075744628905,-129.72259521484375,1.688686234268408e+18,31.74440828450521,-0.6774330536524454,0.7321402629216512,0.0104861098031202,0.0703221832712491,2.123494863510132,1.4326810836791992,0.9332502484321594
1.8,1.6886862343203185e+18,31.79631827799479,-0.0070113539695739,-0.0235865910847981,-0.0448853572209675,1.6886862343289697e+18,31.804969645182293,-0.679162840048472,-9.758329391479492,-1.1216355959574382,1.6886862343203185e+18,31.79631827799479,-0.7083065907160441,-9.717238108317057,-1.1444226900736492,1.6886862343246454e+18,31.800645507812497,-0.0102319931611418,-0.0119118723087012,-0.0116827976889907,1.6886862343246454e+18,31.800645507812497,-0.0113010071218013,-0.0074067409150302,-0.0093920533545314,1.688686234306e+18,31.781999755859378,0.0,0.0,0.9668427109718324,10.42199993133545,0.2282159030437469,165.9081573486328,40.20000076293945,-122.7531819,49.1903166,1.6886862343238518e+18,31.799851660156246,-13.666439819335938,41.81671905517578,3.064639949798584,1.6886862343238518e+18,31.799851660156246,-269.0124450683594,136.84251403808594,-129.6591583251953,1.6886862343203185e+18,31.79631827799479,-0.6774454315503439,0.7321221431096395,0.009943278816839,0.0704698935151099,2.12502384185791,1.4331681330998738,0.9307422439257304
1.85,1.688686234372233e+18,31.848232910156252,0.0961379210154215,0.0293105443318684,-0.0851431290308634,1.6886862343808817e+18,31.85688159179687,-0.6187440554300944,-9.707083384195965,-1.1752747297286987,1.688686234372233e+18,31.848232910156252,-0.7145465413729349,-9.717294057210289,-1.1400572856267293,1.6886862343679086e+18,31.84390852864583,-0.0094684114058811,0.0031561370318134,-0.0120136834836254,1.6886862343679086e+18,31.84390852864583,-0.0105374253665406,0.007686720850567,-0.009722938411869,,,,,,,,,,,,1.6886862343738537e+18,31.84985356445312,-13.700599479675294,41.62151947021484,2.8255199432373046,1.6886862343738537e+18,31.84985356445312,-269.0466003417969,136.6473175048828,-129.89827575683594,1.688686234372233e+18,31.848232910156252,-0.6772299806276957,0.7323413888613383,0.0097970484445492,0.0702831620971361,2.13067634900411,1.433210293451945,0.925147533416748
1.9,1.688686234424148e+18,31.900148111979167,0.0078282554944356,0.0185308456420898,-0.0446016788482665,1.6886862344241464e+18,31.900146484375,-0.6939185559749603,-9.71605634689331,-1.1222338676452637,1.688686234424148e+18,31.900148111979167,-0.7073934475580851,-9.717879931131998,-1.1395219167073567,1.6886862344198198e+18,31.895819661458333,-0.0025961773159603,-0.0578794802228609,0.0166969833274681,1.6886862344198198e+18,31.895819661458333,-0.0036651914512427,-0.0533488976458708,0.0189877282828092,,,,,,,,,,,,1.6886862344238556e+18,31.8998556640625,-13.742079734802246,42.07047958374024,2.9377599239349363,1.6886862344238556e+18,31.8998556640625,-269.08807373046875,137.09627685546874,-129.78603820800782,1.688686234424148e+18,31.900148111979167,-0.6774253646532694,0.7321025133132935,0.0090165613219141,0.0709885135293006,2.1263691584269204,1.4336462020874023,0.927348574002584
1.95,1.6886862344760625e+18,31.9520625,-0.0368004838625589,-0.0240532557169596,0.098668615023295,1.688686234467411e+18,31.943411051432292,-0.7369893789291382,-9.754142125447592,-1.0037890871365864,1.6886862344760625e+18,31.9520625,-0.7060349384943644,-9.717569351196287,-1.1430115302403767,1.6886862344717384e+18,31.947738281249997,0.0089593571610748,-0.0074321934953332,-0.0121154945227317,1.6886862344717384e+18,31.947738281249997,0.007890342734754,-0.0029525151476264,-0.009824749159937,,,,,,,,,,,,1.6886862344738524e+18,31.949852587890625,-13.94215965270996,41.628839111328126,2.847479963302612,1.6886862344738524e+18,31.949852587890625,-269.2881591796875,136.654638671875,-129.87631530761718,1.6886862344760625e+18,31.9520625,-0.6774083971977234,0.7320603926976522,0.0085827512666582,0.0716370691855748,2.124138593673706,1.4334150552749634,0.9280426303545634
2.0,1.68868623452797e+18,32.00397013346355,0.0378120342890421,0.0109977722167968,0.0288832585016886,1.6886862345193254e+18,31.995325358072915,-0.669990340868632,-9.736594518025717,-1.0336993932724,1.68868623452797e+18,32.00397013346355,-0.7072675426801046,-9.71712652842204,-1.146007815996806,1.688686234523652e+18,31.999652099609374,0.0037160970193022,-0.0232128794305025,0.0065158962582548,1.688686234523652e+18,31.999652099609374,0.0026470827433513,-0.0187332002727391,0.0088066406703243,,,,,,,,,,,,1.688686234523857e+18,31.999856933593747,-13.820159530639648,41.75815963745117,3.064639949798584,1.688686234523857e+18,31.999856933593747,-269.16615600585936,136.7839569091797,-129.6591552734375,1.68868623452797e+18,32.00397013346355,-0.6773325602213541,0.732104221979777,0.0085044593239823,0.0719146927197774,2.1237494945526123,1.4330860773722331,0.9279254078865052
2.05,1.6886862345798932e+18,32.055893147786456,-0.1200500528017679,0.050581932067871,-0.0122578938802083,1.688686234571237e+18,32.04723714192708,-0.7912267049153646,-9.67697334289551,-1.0947163899739585,1.6886862345798932e+18,32.055893147786456,-0.6963646411895752,-9.717827796936035,-1.1467411120732625,1.6886862345755727e+18,32.05157275390625,-0.0029525153028467,-0.0416406479974587,0.0164424564572982,1.6886862345755727e+18,32.05157275390625,-0.0040215295739471,-0.0371609684079885,0.0187332009275753,,,,,,,,,,,,1.6886862345738537e+18,32.0498537109375,-13.480999755859376,41.748399353027345,2.9377599716186524,1.6886862345738537e+18,32.0498537109375,-268.827001953125,136.7741943359375,-129.78603515625,1.6886862345798932e+18,32.055893147786456,-0.6776700615882874,0.731731633345286,0.0078578018583356,0.0725972826282182,2.1165438493092856,1.4336079756418865,0.9332465529441832
2.1,1.6886862346231557e+18,32.09915576171875,0.0049692392349242,0.0021853446960449,-0.0701600909233092,1.6886862346231552e+18,32.0991552734375,-0.7016952435175577,-9.73440138498942,-1.1535398960113523,1.6886862346231557e+18,32.09915576171875,-0.702041894197464,-9.71748685836792,-1.1461669206619265,1.688686234627482e+18,32.10348201497396,-0.0055995980898538,-0.0272853144754965,-0.0332412502417961,1.688686234627482e+18,32.10348201497396,-0.0066686123609541,-0.0228565412883956,-0.0309505059073368,,,,,,,,,,,,1.6886862346238533e+18,32.09985341796875,-13.58835964202881,41.66787948608398,2.4546399116516113,1.6886862346238533e+18,32.09985341796875,-268.9343627929687,136.6936767578125,-130.26915893554687,1.6886862346231557e+18,32.09915576171875,-0.6773950159549713,0.7319362759590149,0.0071766807232051,0.0731702484190463,2.1203736066818237,1.4333544373512268,0.9276367127895356
2.15,1.6886862346664148e+18,32.14241495768229,0.0338661670684813,0.0079002380371093,-0.0512632528940836,1.688686234675071e+18,32.15107080078125,-0.6779664158821106,-9.718648592631022,-1.1118649244308472,1.6886862346664148e+18,32.14241495768229,-0.7095031142234802,-9.71682071685791,-1.147217313448588,1.6886862346793984e+18,32.15539827473958,0.0065158957925934,-0.0302378286918003,0.0023416501159469,1.6886862346793984e+18,32.15539827473958,0.0054977873029807,-0.0257072461148102,0.0046323946056266,,,,,,,,,,,,1.688686234673849e+18,32.14984921875,-13.910439682006835,42.0411979675293,2.601039981842041,1.688686234673849e+18,32.14984921875,-269.2564453125,137.06700134277344,-130.1227600097656,1.6886862346664148e+18,32.14241495768229,-0.6770737767219543,0.7321993311246237,0.0068272167506317,0.0735433896382649,2.1246860027313232,1.4328594605127971,0.9222962061564128
2.2,1.688686234718333e+18,32.194332682291666,0.0535039703051249,-0.0010331471761067,0.047715147336324,1.6886862347269837e+18,32.20298347981771,-0.6414758563041687,-9.731808980305988,-1.0446664889653523,1.688686234718333e+18,32.194332682291666,-0.7072067260742188,-9.716461499532064,-1.1516791979471843,1.6886862347313103e+18,32.20731022135417,0.005599598167464,-0.0018325959099456,-0.0035124751739203,1.6886862347313103e+18,32.20731022135417,0.0045305838575586,0.0025961771607398,-0.0012217305290202,,,,,,,,,,,,1.6886862347238554e+18,32.19985546875,-13.44927978515625,41.86795883178711,2.7571999073028564,1.6886862347238554e+18,32.19985546875,-268.7952819824219,136.8937561035156,-129.9665985107422,1.688686234718333e+18,32.194332682291666,-0.6770930488904318,0.732122520605723,0.0065070884302258,0.0741576254367828,2.121507406234741,1.432592550913493,0.9241484800974528
2.25,1.6886862347702484e+18,32.24624837239583,0.0106808145840962,0.0186669031778971,0.000743826230367,1.6886862347789018e+18,32.25490169270834,-0.7066802779833475,-9.713663419087728,-1.089531938234965,1.6886862347702484e+18,32.24624837239583,-0.7056597471237183,-9.716420809427897,-1.152963161468506,1.6886862347745746e+18,32.25057458496094,0.0010690141934901,0.0037415494443848,0.0106137837283312,1.6886862347745746e+18,32.25057458496094,0.0,0.0082466807216405,0.0129045280627905,,,,,,,,,,,,1.6886862347738483e+18,32.2498482421875,-13.76891975402832,41.73619918823242,2.642519950866699,1.6886862347738483e+18,32.2498482421875,-269.1149108886719,136.76199951171876,-130.0812744140625,1.6886862347702484e+18,32.24624837239583,-0.67715456088384,0.7320674856503805,0.0066419619445999,0.0741272394855816,2.120035489400228,1.432563106218974,0.9258545835812888
2.3,1.688686234822159e+18,32.29815909830729,-0.016710619131724,0.0140536626180012,-0.0093378623326619,1.688686234830816e+18,32.30681599934896,-0.7050850788752238,-9.72024408976237,-1.0929217338562012,1.688686234822159e+18,32.29815909830729,-0.7037917574246725,-9.716593424479166,-1.152652144432068,1.688686234817838e+18,32.29383813476563,-0.0033597589160004,-0.0240782710413137,-0.0015780685595624,1.688686234817838e+18,32.29383813476563,-0.0044287730318803,-0.0195985933144886,0.0007126761289934,,,,,,,,,,,,1.6886862348238513e+18,32.29985131835937,-13.600559997558594,41.931399536132815,2.73767991065979,1.6886862348238513e+18,32.29985131835937,-268.94655151367186,136.9571960449219,-129.98611755371093,1.688686234822159e+18,32.29815909830729,-0.6771939198176066,0.7320052981376648,0.0063204624069232,0.0744088913003603,2.118976593017578,1.4326903025309246,0.9260570605595908
2.35,1.6886862348740792e+18,32.35007902018229,-0.0190516511599222,0.0346794128417968,-0.0214677651723225,1.688686234874073e+18,32.350072875976565,-0.7154539525508881,-9.69930648803711,-1.1198409795761108,1.6886862348740792e+18,32.35007902018229,-0.7046411633491516,-9.71648120880127,-1.1530845562616985,1.688686234869754e+18,32.34575390625,0.003767002490349,0.0255545297016699,-0.0002545271660588,1.688686234869754e+18,32.34575390625,0.0026979881367878,0.0300851128995418,0.0020362175321981,,,,,,,,,,,,1.6886862348738496e+18,32.34984965820313,-13.620079803466798,41.86307907104492,2.818199968338013,1.6886862348738496e+18,32.34984965820313,-268.96607666015626,136.88887939453124,-129.90559997558594,1.6886862348740792e+18,32.35007902018229,-0.6771752238273621,0.7320334116617838,0.0064802051832277,0.0742885544896125,2.119345267613729,1.4326069752375286,0.9260856906572976
2.4,1.68868623492599e+18,32.40198990885417,-0.0030638178189595,-0.0171168645222981,0.0205843051274617,1.688686234917337e+18,32.393337402343754,-0.7222336332003275,-9.750552813212076,-1.0869396527608235,1.68868623492599e+18,32.40198990885417,-0.7078672647476196,-9.716130892435707,-1.1540598471959431,1.6886862349216653e+18,32.3976650390625,0.0003563380984512,-0.0132863192508618,-0.0063122739860166,1.6886862349216653e+18,32.3976650390625,-0.0007126761289934,-0.0087557351216673,-0.0039706240834978,1.688686234922469e+18,32.39846923828125,0.0,0.0,0.9740259051322936,10.543999671936035,0.2024045139551162,165.77001953125,40.20000076293945,-122.7531831,49.19032,1.6886862349238528e+18,32.39985278320312,-13.7079195022583,41.87527923583984,2.6547199726104735,1.6886862349238528e+18,32.39985278320312,-269.0539184570313,136.9010772705078,-130.06907653808594,1.68868623492599e+18,32.40198990885417,-0.6770580609639486,0.732144812742869,0.006584820182373,0.0742495035131772,2.1210033098856607,1.432347536087036,0.9246309796969095
2.45,1.688686234977908e+18,32.453907877604166,0.0011751850446065,0.0292552312215168,0.059320290883382,1.6886862349692562e+18,32.44525626627604,-0.6989036202430725,-9.7046906153361,-1.0255239009857178,1.688686234977908e+18,32.453907877604166,-0.7061242262522379,-9.71644083658854,-1.1525166034698486,1.688686234973584e+18,32.44958390299479,-0.0041233402929112,0.0100283715873956,0.0052432600835648,1.688686234973584e+18,32.44958390299479,-0.005192354787141,0.0145080490037798,0.0075340046702573,,,,,,,,,,,,1.688686234973849e+18,32.44984931640625,-13.424879837036134,41.76303939819336,2.7083999633789064,1.688686234973849e+18,32.44984931640625,-268.7708740234375,136.78883666992186,-130.01539916992186,1.688686234977908e+18,32.453907877604166,-0.6771174470583597,0.732085645198822,0.0064127833272019,0.0743066693345704,2.1205005645751953,1.4325769742329917,0.9248096346855164
2.5,1.6886862350298245e+18,32.50582454427083,0.0128210981686909,-0.0004221598307291,-0.0093368689219156,1.6886862350211674e+18,32.497167399088546,-0.7034898400306702,-9.72323481241862,-1.1008978287378948,1.6886862350298245e+18,32.50582454427083,-0.7107910712560018,-9.716673851013184,-1.1476680835088091,1.6886862350254912e+18,32.50149153645833,-0.007890342734754,0.0258090570569037,-0.0092138840506473,1.6886862350254912e+18,32.50149153645833,-0.0089593570058543,0.0303396402547756,-0.0069231396385778,,,,,,,,,,,,1.688686235023853e+18,32.499853076171874,-13.74695987701416,41.73863906860352,2.9377599716186524,1.688686235023853e+18,32.499853076171874,-269.09296264648435,136.76443481445312,-129.78603820800782,1.6886862350298245e+18,32.50582454427083,-0.6770129998524984,0.7322450478871664,0.0067345330802102,0.073656457165877,2.1253220240275064,1.4327504237492878,0.921367903550466
2.55,1.688686235073086e+18,32.549086059570314,-0.0089834034442901,0.0201506614685058,0.0720943212509155,1.6886862350730867e+18,32.54908691406251,-0.7244270443916321,-9.722237586975098,-1.0179466406504314,1.688686235073086e+18,32.549086059570314,-0.7126156985759735,-9.716907501220703,-1.1445528268814087,1.688686235077413e+18,32.553413248697915,-0.0092647895216941,0.0094684110954403,-0.0014762577290336,1.688686235077413e+18,32.553413248697915,-0.0103338040256251,0.0140499011613428,0.0008144869546716,,,,,,,,,,,,1.68868623507385e+18,32.54985014648438,-14.117840003967284,41.792318725585936,2.732799959182739,1.68868623507385e+18,32.54985014648438,-269.4638305664063,136.8181121826172,-129.99100036621093,1.688686235073086e+18,32.549086059570314,-0.6769864559173584,0.7323068976402283,0.0069134922232478,0.0732682608067989,2.1276891231536865,1.432923674583435,0.9198068380355836
2.6,1.688686235116345e+18,32.59234521484375,-0.03097798426946,-0.0040356318155924,-0.0283978780110676,1.688686235124999e+18,32.60099861653646,-0.6951149900754293,-9.74556795756022,-1.1330015261967976,1.688686235116345e+18,32.59234521484375,-0.7146490414937338,-9.717646598815918,-1.1369819243748982,1.6886862351293297e+18,32.60532975260417,-0.018835011559228,-0.0391971866289774,-0.0110973852376142,1.6886862351293297e+18,32.60532975260417,-0.0199040264512101,-0.034615697339177,-0.0088066407479345,,,,,,,,,,,,1.6886862351238548e+18,32.59985498046875,-13.258959770202637,41.56051864624023,2.9060399532318115,1.6886862351238548e+18,32.59985498046875,-268.60496215820314,136.58631591796876,-129.81775512695313,1.688686235116345e+18,32.59234521484375,-0.6769120891888937,0.7323827147483826,0.0063591968889037,0.0732468118270237,2.13195808728536,1.433472712834676,0.914783239364624
2.65,1.6886862351682665e+18,32.64426668294271,0.0587868491808573,0.0104621251424153,-0.0817701816558837,1.6886862351769157e+18,32.652915445963544,-0.6811568339665731,-9.726624488830566,-1.1246266762415569,1.6886862351682665e+18,32.64426668294271,-0.7170758446057638,-9.717787424723308,-1.134257713953654,1.6886862351812406e+18,32.65724080403646,0.0060577469800287,-0.0083993971347808,0.0043778675608336,1.6886862351812406e+18,32.65724080403646,0.0049887329369084,-0.0039197186997625,0.0067195176767806,,,,,,,,,,,,1.6886862351738537e+18,32.649853808593754,-13.754279708862304,41.78743896484375,2.6059199810028075,1.6886862351738537e+18,32.649853808593754,-269.10027465820315,136.81323852539063,-130.11788024902344,1.6886862351682665e+18,32.64426668294271,-0.6767757534980774,0.7324726581573486,0.0056969728320836,0.0736613124608993,2.134567658106486,1.433577020963033,0.9106460412343343
2.7,1.6886862352201766e+18,32.69617651367187,-0.0353937943776448,0.0013484954833984,0.1139823198318481,1.688686235228829e+18,32.70482885742188,-0.7326025366783142,-9.732207616170246,-0.9429715077082316,1.6886862352201766e+18,32.69617651367187,-0.7140218615531921,-9.717646598815918,-1.137388030687968,1.6886862352245066e+18,32.700506591796874,0.0027488935447763,-0.0130572444759308,-0.0029016097541898,1.6886862352245066e+18,32.700506591796874,0.0016798794968053,-0.0085521133150904,-0.0006108651868999,,,,,,,,,,,,1.6886862352238515e+18,32.699851416015626,-13.66887969970703,42.05095901489258,2.747440004348755,1.6886862352238515e+18,32.699851416015626,-269.01487426757814,137.0767578125,-129.97635803222656,1.6886862352201766e+18,32.69617651367187,-0.6768592198689779,0.7323668797810873,0.0056308745406567,0.0739502385258674,2.1313987572987876,1.4334715604782104,0.9133094350496928
2.75,1.688686235272094e+18,32.74809391276042,-0.0006946325302124,0.0082108179728189,0.0516756772994995,1.6886862352807437e+18,32.75674365234375,-0.724427064259847,-9.73300552368164,-1.0532407760620115,1.688686235272094e+18,32.74809391276042,-0.718411942323049,-9.717729568481444,-1.1339049339294434,1.6886862352677655e+18,32.74376570638021,-0.007279477547854,0.0142026167983809,-0.0049378275871276,1.6886862352677655e+18,32.74376570638021,-0.0083484915085136,0.0187332009275753,-0.0026470824765662,,,,,,,,,,,,1.688686235273854e+18,32.74985400390625,-13.551759719848633,41.91431884765625,2.50831995010376,1.688686235273854e+18,32.74985400390625,-268.89775390625,136.94011840820312,-130.2154754638672,1.688686235272094e+18,32.74809391276042,-0.6767175396283468,0.7325198451677958,0.0055854311212896,0.0737355525294939,2.1355461279551187,1.4335346221923828,0.9094037016232808
2.8,1.688686235324004e+18,32.80000390625,0.0125669439633687,0.0111039479573567,-0.0296631256739298,1.6886862353240082e+18,32.80000817871094,-0.6963113844394684,-9.718449115753174,-1.0959128141403198,1.688686235324004e+18,32.80000390625,-0.7139267524083456,-9.718429247538248,-1.1307317018508911,1.6886862353196808e+18,32.79568082682292,-0.0053450710450608,-0.0107919524113336,0.0089084515348076,1.6886862353196808e+18,32.79568082682292,-0.0064140850833305,-0.0062613687478005,0.0111991963349282,,,,,,,,,,,,1.6886862353238505e+18,32.799850634765626,-13.58347969055176,41.89235916137695,2.5302799701690675,1.6886862353238505e+18,32.799850634765626,-268.9294677734375,136.91815795898438,-130.19351806640626,1.688686235324004e+18,32.80000390625,-0.6768921415011088,0.7323649724324545,0.0054178925541539,0.0736838430166244,2.133980909983317,1.4340571562449138,0.9108064572016398
2.85,1.68868623537592e+18,32.851919921875,-0.0140161315600077,0.0223630269368488,-0.0461270809173583,1.6886862353672722e+18,32.843271972656254,-0.7162515918413798,-9.721639633178713,-1.1086744864781697,1.68868623537592e+18,32.851919921875,-0.7112719019254049,-9.71852207183838,-1.13161567846934,1.6886862353716006e+18,32.847600667317714,0.0030034208515037,0.0142026171088218,0.0074321939609944,1.6886862353716006e+18,32.847600667317714,0.0019344065804034,0.0187841060881812,0.0097229382954537,,,,,,,,,,,,1.6886862353738506e+18,32.849850537109376,-13.380959510803224,41.7435188293457,2.6205599784851072,1.6886862353738506e+18,32.849850537109376,-268.72694702148436,136.76931457519532,-130.10323486328124,1.68868623537592e+18,32.851919921875,-0.6770036617914835,0.7322712540626526,0.0056099902528027,0.0735763857762018,2.131950775782267,1.434125820795695,0.91326238711675
2.9,1.6886862354278395e+18,32.903839680989584,0.0231936375300089,0.00959841410319,-0.0512204567591349,1.688686235419183e+18,32.89518310546875,-0.6779664158821106,-9.72323481241862,-1.1198409795761108,1.6886862354278395e+18,32.903839680989584,-0.7117917140324911,-9.71851921081543,-1.1313079198201497,1.6886862354235146e+18,32.89951448567708,-0.0031052315801691,-0.0051923544767001,-0.0060068417806177,1.6886862354235146e+18,32.89951448567708,-0.0041742459094771,-0.0007126761483959,-0.0037160968689324,,,,,,,,,,,,1.6886862354238505e+18,32.899850488281245,-13.72499942779541,41.82647933959961,2.85723991394043,1.6886862354238505e+18,32.899850488281245,-269.07099609375,136.85227661132814,-129.8665557861328,1.6886862354278395e+18,32.903839680989584,-0.676984171072642,0.7322895129521688,0.0055864377257724,0.0735750620563824,2.132402181625366,1.434123198191325,0.9127779006958008
2.95,1.688686235479751e+18,32.95575089518229,-0.0316560665766397,0.0078039169311522,0.0047992467880248,1.6886862354711017e+18,32.9471015625,-0.7322037220001221,-9.723434130350748,-1.0849456787109375,1.688686235479751e+18,32.95575089518229,-0.7111793359120687,-9.71851921081543,-1.1316944758097331,1.6886862354754284e+18,32.95142830403646,-0.0017816903661392,-0.033699399481217,0.0004072435355434,1.6886862354754284e+18,32.95142830403646,-0.0028507045547787,-0.0292706272254387,0.0026979881804436,,,,,,,,,,,,1.6886862354738488e+18,32.949848974609374,-13.856759643554687,41.85575866699219,2.6107999324798583,1.6886862354738488e+18,32.949848974609374,-269.2027526855469,136.88155517578124,-130.1129943847656,1.688686235479751e+18,32.95575089518229,-0.6769622365633646,0.7322712143262228,0.0051708857839306,0.073988102376461,2.131860335667928,1.4341237545013428,0.912144402662913
3.0,1.6886862355316692e+18,33.00766927083333,0.0196559031804402,-0.0102170308430989,0.07407808303833,1.688686235523019e+18,32.99901896158854,-0.6955137848854065,-9.746165911356607,-1.003589749336243,1.6886862355316692e+18,33.00766927083333,-0.7114444176355997,-9.718443870544434,-1.1321797370910645,1.6886862355273454e+18,33.00334545898438,0.0023416501159469,-0.0183768624750276,-0.0017307850066572,1.6886862355273454e+18,33.00334545898438,0.0012726358448465,-0.0138971844377617,0.0005599597352557,,,,,,,,,,,,1.688686235523849e+18,32.99984916992187,-13.837239456176755,41.88015975952148,2.96703987121582,1.688686235523849e+18,32.99984916992187,-269.18323974609376,136.90595397949218,-129.7567596435547,1.6886862355316692e+18,33.00766927083333,-0.6768936912218729,0.7322839697202047,0.0046270744254191,0.0745237320661544,2.1318325996398926,1.4340674877166748,0.9106400012969972
3.05,1.6886862355749317e+18,33.05093151855469,-0.0381247103214264,0.0218033790588378,0.0708078742027282,1.6886862355749307e+18,33.05093058268229,-0.7435696125030518,-9.714261690775553,-1.003589669863383,1.6886862355749317e+18,33.05093151855469,-0.7074025869369507,-9.718560218811035,-1.133695125579834,1.6886862355792558e+18,33.05525594075521,0.0041742459288798,0.0144571440760045,0.0141008058562874,1.6886862355792558e+18,33.05525594075521,0.0031052315995717,0.0188859165646135,0.0163915511220693,,,,,,,,,,,,1.688686235573855e+18,33.049855078125,-13.439519500732422,41.79963836669922,2.64739990234375,1.688686235573855e+18,33.049855078125,-268.7855224609375,136.825439453125,-130.07639770507814,1.6886862355749317e+18,33.05093151855469,-0.6770572662353516,0.7321417331695557,0.0048685004003345,0.0744194090366363,2.1286685466766357,1.4341554045677185,0.9142947793006896
3.1,1.688686235618192e+18,33.09419213867188,-0.10024623076121,0.024127960205078,0.0307186841964721,1.68868623562684e+18,33.10284016927083,-0.7864410479863485,-9.713663419087728,-1.0580264329910278,1.688686235618192e+18,33.09419213867188,-0.7048025528589884,-9.718891143798828,-1.132489283879598,1.6886862356311667e+18,33.10716674804687,-0.0064649904767671,-0.005548692618807,-0.00213802830937,1.6886862356311667e+18,33.10716674804687,-0.0075340047478675,-0.0010181087418458,0.0001527162918743,,,,,,,,,,,,1.68868623562385e+18,33.09984995117187,-13.66887969970703,41.84355926513672,2.674240016937256,1.68868623562385e+18,33.09984995117187,-269.01488037109374,136.8693603515625,-130.0495574951172,1.688686235618192e+18,33.09419213867188,-0.6771637201309204,0.7320511142412821,0.0048698495763043,0.0743426556388536,2.1274918715159097,1.4344030618667605,0.9155836304028828
3.15,1.688686235670107e+18,33.14610668945313,0.0231589476267496,0.0323718388875325,-0.0465918779373168,1.688686235678759e+18,33.154759114583335,-0.669990340868632,-9.716853777567543,-1.1084750890731812,1.688686235670107e+18,33.14610668945313,-0.7085666060447693,-9.718959172566732,-1.129555622736613,1.688686235674433e+18,33.15043298339844,-0.0074067409150301,0.0012217306066304,-0.0113773648627101,1.688686235674433e+18,33.15043298339844,-0.0084757553413509,0.0058032198285217,-0.0090866205282508,,,,,,,,,,,,1.6886862356738514e+18,33.1498513671875,-13.5712797164917,41.928958892822266,2.469279909133911,1.6886862356738514e+18,33.1498513671875,-268.9172790527344,136.9547576904297,-130.2545135498047,1.688686235670107e+18,33.14610668945313,-0.6770259737968445,0.7321833968162537,0.0046738761787612,0.0743071710069974,2.131050189336141,1.4344536860783894,0.911797841389974
3.2,1.688686235722023e+18,33.19802278645833,0.0033164620399475,0.0277786254882811,-0.0195168256759643,1.688686235730677e+18,33.206677001953125,-0.7130611538887024,-9.699306488037111,-1.078365405400594,1.688686235722023e+18,33.19802278645833,-0.7110571265220642,-9.719151814778646,-1.1263216336568196,1.6886862357176988e+18,33.1936991373698,-0.007177666760981,0.001730784929047,-0.0007126761677985,1.6886862357176988e+18,33.1936991373698,-0.0082466808768609,0.006159557805707,0.0015780685935169,,,,,,,,,,,,1.6886862357238543e+18,33.199854541015625,-13.358999633789065,42.00459899902344,2.364359951019287,1.6886862357238543e+18,33.199854541015625,-268.7049987792969,137.03040161132813,-130.35943603515625,1.688686235722023e+18,33.19802278645833,-0.6769513090451559,0.7322705785433451,0.0046112687947848,0.074131650229295,2.1339265505472818,1.4345982472101848,0.9090819358825684
3.25,1.6886862357739377e+18,33.24993782552084,0.0141195654869079,0.023358662923177,-0.0191118717193603,1.6886862357739392e+18,33.24993920898437,-0.6963113844394684,-9.704092025756836,-1.074377357959747,1.6886862357739377e+18,33.24993782552084,-0.7154793739318848,-9.719517389933268,-1.1203457117080688,1.6886862357696154e+18,33.24561531575521,-0.0163406453405816,-0.0238237439965207,-0.0189368223461011,1.6886862357696154e+18,33.24561531575521,-0.017409659611682,-0.0192931600225467,-0.0166460778564214,,,,,,,,,,,,1.6886862357738532e+18,33.249853369140624,-13.893359756469726,41.84111862182617,2.8181999206542967,1.6886862357738532e+18,33.249853369140624,-269.23935546875,136.86691589355468,-129.9055969238281,1.6886862357739377e+18,33.24993782552084,-0.6767789522806803,0.7324275175730387,0.0040869072545319,0.0741854657729466,2.1391393343607583,1.4348734219868975,0.9030500849088032
