seconds_elapsed_rounded,accelerometer_time,accelerometer_seconds_elapsed,accelerometer_z,accelerometer_y,accelerometer_x,accelerometeruncalibrated_time,accelerometeruncalibrated_seconds_elapsed,accelerometeruncalibrated_z,accelerometeruncalibrated_y,accelerometeruncalibrated_x,gravity_time,gravity_seconds_elapsed,gravity_z,gravity_y,gravity_x,gyroscope_time,gyroscope_seconds_elapsed,gyroscope_z,gyroscope_y,gyroscope_x,gyroscopeuncalibrated_time,gyroscopeuncalibrated_seconds_elapsed,gyroscopeuncalibrated_z,gyroscopeuncalibrated_y,gyroscopeuncalibrated_x,location_time,location_seconds_elapsed,location_bearingAccuracy,location_speedAccuracy,location_verticalAccuracy,location_horizontalAccuracy,location_speed,location_bearing,location_altitude,location_longitude,location_latitude,magnetometer_time,magnetometer_seconds_elapsed,magnetometer_z,magnetometer_y,magnetometer_x,magnetometeruncalibrated_time,magnetometeruncalibrated_seconds_elapsed,magnetometeruncalibrated_z,magnetometeruncalibrated_y,magnetometeruncalibrated_x,orientation_time,orientation_seconds_elapsed,orientation_qz,orientation_qy,orientation_qx,orientation_qw,orientation_roll,orientation_pitch,orientation_yaw
0.0,1.6886866489235333e+18,119.997533203125,-0.0263953407605489,0.0351037979125976,0.0123789310455321,1.6886866489235333e+18,119.997533203125,-0.677767018477122,-9.230313301086426,3.281357447306315,1.6886866489235333e+18,119.997533203125,-0.6572177012761434,-9.247912406921388,3.206291119257609,1.688686648919208e+18,119.9932078450521,0.0031561370221121,-0.0256054351727168,-0.0040215295545445,1.688686648919208e+18,119.9932078450521,0.0020871229159335,-0.0210239455724755,-0.0017307848514368,1.688686648927452e+18,120.00145190429689,0.0,0.4132427275180816,0.8558133840560913,6.004000186920166,0.0087369428947567,0.0,40.20000076293945,-122.7531555,49.190375,1.688686648928887e+18,120.00288706054688,20.62287940979004,38.551998901367185,-21.447599411010746,1.688686648928887e+18,120.00288706054688,-234.72311706542968,133.5778015136719,-154.17139587402343,1.6886866489235333e+18,119.997533203125,-0.2395508289337158,0.0179753558089335,-0.7301879326502482,0.639623204867045,-1.7729745308558147,1.2306395371754963,2.144638776779175
0.05,1.6886866489754442e+18,120.0494444173177,0.0706876913706461,-0.0072606404622395,0.0028616587320963,1.6886866489754442e+18,120.0494444173177,-0.58683975537618,-9.272187868754068,3.2719856103261313,1.6886866489754442e+18,120.0494444173177,-0.6633734703063965,-9.247422536214192,3.206436554590861,1.6886866489711237e+18,120.04512369791668,-0.0036142860384036,-0.0247400426305829,0.0035124749410897,1.6886866489711237e+18,120.04512369791668,-0.0046833000766733,-0.0201585536900286,0.005905030760914,,,,,,,,,,,,1.6886866489788815e+18,120.05288149414062,20.98399963378906,38.356798553466795,-21.274359130859377,1.6886866489788815e+18,120.05288149414062,-234.36199645996095,133.38259887695312,-153.99815979003907,1.6886866489754442e+18,120.0494444173177,-0.2389431993166605,0.0173567148546377,-0.7304179469744364,0.6396049857139587,-1.7748093605041504,1.23048996925354,2.144688049952189
0.1,1.6886866490273605e+18,120.1013605143229,0.0060755809148152,0.0250304539998372,0.0545697212219237,1.6886866490273605e+18,120.1013605143229,-0.6492525339126587,-9.240283330281576,3.3230324586232505,1.6886866490273605e+18,120.1013605143229,-0.6611741383870443,-9.247809092203775,3.205775340398153,1.6886866490230362e+18,120.09703597005208,0.0036651915094504,-0.0111482909414916,0.0045814894450207,1.6886866490230362e+18,120.09703597005208,0.0025961772771551,-0.0066177068899075,0.0069231395027599,,,,,,,,,,,,1.688686649028883e+18,120.10288295898438,21.123079681396483,38.34459915161133,-21.191399383544923,1.688686649028883e+18,120.10288295898438,-234.2229156494141,133.37039489746093,-153.91519470214843,1.6886866490273605e+18,120.1013605143229,-0.2387668788433074,0.0171769460042317,-0.7303455670674642,0.6397583484649658,-1.774193326632182,1.230608304341634,2.1435484886169434
0.15,1.6886866490792694e+18,120.15326928710935,0.0616196592648824,0.032271385192871,0.0182912349700927,1.6886866490792694e+18,120.15326928710935,-0.593220591545105,-9.233703295389812,3.2849466800689697,1.6886866490792694e+18,120.15326928710935,-0.6606862743695577,-9.248469988505043,3.203968048095703,1.688686649074941e+18,120.1489404296875,0.007075855663667,0.0346156978048383,-0.0054977873805909,1.688686649074941e+18,120.1489404296875,0.0060068416253973,0.0391462811579306,-0.0031561371288262,,,,,,,,,,,,1.688686649078881e+18,120.15288120117188,20.779039764404295,38.43731842041016,-21.267039489746093,1.688686649078881e+18,120.15288120117188,-234.56695556640625,133.46311645507814,-153.99083862304687,1.6886866490792694e+18,120.15326928710935,-0.2389211903015772,0.0174889924625555,-0.7303211291631063,0.6397200624148051,-1.774159034093221,1.2308101654052734,2.144188563028971
0.2,1.6886866491311813e+18,120.20518139648436,-0.154975394407908,0.03193728129069,0.0094672838846841,1.6886866491311813e+18,120.20518139648436,-0.802193800608317,-9.234700202941896,3.2757741610209146,1.6886866491311813e+18,120.20518139648436,-0.6530644297599792,-9.249132792154947,3.2036194801330566,1.6886866491268577e+18,120.20085725911458,-0.0007635814108652,0.0155261581142743,0.0088575462189812,1.6886866491268577e+18,120.20085725911458,-0.0017816904388989,0.0201076474040746,0.011148290708661,,,,,,,,,,,,1.6886866491288827e+18,120.20288276367188,21.093799591064453,38.41291885375976,-21.457359313964844,1.6886866491288827e+18,120.20288276367188,-234.252197265625,133.438720703125,-154.18115844726563,1.6886866491311813e+18,120.20518139648436,-0.2395750830570856,0.0181559696793555,-0.7300386230150858,0.6397794683774313,-1.771895408630371,1.2310129006703694,2.1438466707865396
0.25,1.688686649183097e+18,120.25709716796877,0.0785569846630096,-0.0239108403523762,-0.050614833831787,1.688686649183097e+18,120.25709716796877,-0.5784648656845093,-9.28913688659668,3.217748244603475,1.688686649183097e+18,120.25709716796877,-0.6628678838411967,-9.247721354166666,3.2056756814320884,1.6886866491787692e+18,120.25276912434896,-0.0064649907095978,-0.0497346116850772,-0.0122173047469307,1.6886866491787692e+18,120.25276912434896,-0.0075340047478675,-0.0451531239474812,-0.0099265599856152,,,,,,,,,,,,1.6886866491788856e+18,120.25288564453125,20.827839279174803,38.44219970703125,-21.247519302368165,1.6886866491788856e+18,120.25288564453125,-234.51815490722657,133.46799926757814,-153.97131958007813,1.688686649183097e+18,120.25709716796877,-0.2388614167769749,0.0173163935542106,-0.7304009993871053,0.6396559278170267,-1.7747031450271606,1.2305819193522136,2.144400676091512
0.3,1.688686649226352e+18,120.30035217285156,0.0954822599887847,-0.0126848220825194,0.0344634056091308,1.688686649226352e+18,120.30035217285156,-0.5650052428245544,-9.27936601638794,3.2979077100753784,1.688686649226352e+18,120.30035217285156,-0.6663335263729095,-9.249176502227783,3.2007569074630737,1.6886866492306844e+18,120.3046844889323,0.0250454743703205,0.08460483700037,-0.0247909476359684,1.6886866492306844e+18,120.3046844889323,0.0240273668120304,0.0891863256692886,-0.0223983923594156,,,,,,,,,,,,1.6886866492288852e+18,120.30288520507813,20.56431999206543,38.45195846557617,-21.16455955505371,1.6886866492288852e+18,120.30288520507813,-234.78167114257812,133.47775573730468,-153.88835754394532,1.688686649226352e+18,120.30035217285156,-0.23909343034029,0.0180183593183754,-0.7305048406124115,0.6394311189651489,-1.7760456800460815,1.231026530265808,2.1470924615859985
0.35,1.688686649269618e+18,120.34361775716144,-0.0883327722549438,0.120276133219401,0.1623058319091796,1.688686649269618e+18,120.34361775716144,-0.7473582824071249,-9.147761027018229,3.4221351941426597,1.688686649269618e+18,120.34361775716144,-0.6648715337117513,-9.250532468159994,3.197141965230306,1.688686649282593e+18,120.35659309895834,-0.0047851107859363,0.0454076488191882,-0.0283034232755501,1.688686649282593e+18,120.35659309895834,-0.0058541251346468,0.0499891402820745,-0.0260126783202091,,,,,,,,,,,,1.6886866492788856e+18,120.35288569335935,20.86443977355957,38.266519927978514,-21.320719528198243,1.6886866492788856e+18,120.35288569335935,-234.48155517578124,133.2923156738281,-154.04451904296874,1.688686649269618e+18,120.34361775716144,-0.2403248250484465,0.0196904800832271,-0.7304107348124186,0.6390275756518046,-1.7758334080378215,1.231441577275594,2.151106516520182
0.4,1.688686649321529e+18,120.395529296875,0.0039943059285481,0.0006494522094726,-0.0112602710723876,1.688686649321529e+18,120.395529296875,-0.6630112727483114,-9.263812700907389,3.257229804992676,1.688686649321529e+18,120.395529296875,-0.6728516022364298,-9.246957461039225,3.2058026790618896,1.688686649325848e+18,120.39984790039064,-0.0215330002829432,-0.0109192165546118,-0.0040469823870808,1.688686649325848e+18,120.39984790039064,-0.0226020133122801,-0.0064140852118726,-0.0016798791475594,,,,,,,,,,,,1.6886866493288858e+18,120.40288579101562,21.457359313964844,38.4421989440918,-21.123079681396483,1.6886866493288858e+18,120.40288579101562,-233.88863525390624,133.4679931640625,-153.8468780517578,1.688686649321529e+18,120.395529296875,-0.2408931305011113,0.019769803310434,-0.7306869824727377,0.6384953260421753,-1.7776798009872437,1.2303486267725627,2.1539343198140464
0.45,1.688686649373442e+18,120.44744197591145,0.0696670015652974,0.013165791829427,-0.0416296323140461,1.688686649373442e+18,120.44744197591145,-0.5994020700454712,-9.249256451924644,3.232304573059082,1.688686649373442e+18,120.44744197591145,-0.674915095170339,-9.244917551676432,3.2112468083699546,1.6886866493691177e+18,120.44311767578124,-0.006566801574081,0.0287106658021608,-0.024027365919513,1.6886866493691177e+18,120.44311767578124,-0.0076358155347406,0.0332412508626778,-0.0216348111474265,,,,,,,,,,,,1.6886866493788897e+18,120.452889453125,21.01083984375,38.49832000732422,-21.140159606933594,1.6886866493788897e+18,120.452889453125,-234.33515625,133.52411804199218,-153.86395874023438,1.688686649373442e+18,120.44744197591145,-0.2413566062847773,0.0198995278527339,-0.7307553887367249,0.6382377545038859,-1.7779539426167803,1.229725956916809,2.1550955772399902
0.5,1.6886866494253545e+18,120.49935449218748,0.0917830069859822,-0.0506464640299478,-0.1168441772460937,1.6886866494253545e+18,120.49935449218748,-0.5910272002220154,-9.311071077982584,3.159921646118164,1.6886866494253545e+18,120.49935449218748,-0.688656230767568,-9.242919921875,3.214078426361084,1.6886866494210255e+18,120.49502563476562,-0.0027488937291006,0.0302378299335638,-0.0403171069920062,1.6886866494210255e+18,120.49502563476562,-0.0038179076897601,0.0348193186024824,-0.0380263626575469,,,,,,,,,,,,1.6886866494288822e+18,120.50288227539065,21.20115966796875,38.13231887817383,-21.515919494628907,1.6886866494288822e+18,120.50288227539065,-234.14483337402345,133.15812072753906,-154.23971862792968,1.6886866494253545e+18,120.49935449218748,-0.2420250624418258,0.020638429870208,-0.7312140663464864,0.6374354163805643,-1.7818689346313477,1.2291176716486614,2.1610867977142334
0.55,1.6886866494772662e+18,120.55126586914064,0.0992840528488158,-0.0599686304728189,-0.0488828818003336,1.6886866494772662e+18,120.55126586914064,-0.5876373449961344,-9.322636286417644,3.2205398877461753,1.6886866494772662e+18,120.55126586914064,-0.6927674214045206,-9.245162963867188,3.206735372543335,1.688686649472941e+18,120.54694108072916,0.022551108462115,0.0187841063986221,-0.0076358155347406,1.688686649472941e+18,120.54694108072916,0.0215329999725023,0.0232637847463289,-0.0053450708898405,,,,,,,,,,,,1.6886866494788856e+18,120.55288549804688,20.94251937866211,38.451959228515626,-21.706239700317383,1.6886866494788856e+18,120.55288549804688,-234.40347290039065,133.47775573730468,-154.43003845214844,1.6886866494772662e+18,120.55126586914064,-0.2421722809473673,0.0214473282297451,-0.7313340902328491,0.6372150778770447,-1.783563534418742,1.2298007408777871,2.1641560395558677
0.6,1.6886866495291791e+18,120.60317911783854,0.0590563217798868,0.0970579783121744,0.1051265398661295,1.6886866495291791e+18,120.60317911783854,-0.6181458433469137,-9.168498675028484,3.3682967027028403,1.6886866495291791e+18,120.60317911783854,-0.6830481886863708,-9.24805196126302,3.2004827658335366,1.688686649524854e+18,120.59885408528646,0.0077376263216137,0.0355319945762554,0.0174605650827287,1.688686649524854e+18,120.59885408528646,0.0066686120505134,0.0400625796367724,0.0198022148882348,,,,,,,,,,,,1.688686649528886e+18,120.60288608398436,21.223119735717773,38.42755889892578,-21.645239639282227,1.688686649528886e+18,120.60288608398436,-234.1228759765625,133.45335693359374,-154.36903686523436,1.6886866495291791e+18,120.60317911783854,-0.2424124528964359,0.0220767619709173,-0.7309766610463461,0.637512187163035,-1.7810646295547483,1.2306818167368572,2.1628987789154053
0.65,1.6886866495810875e+18,120.65508723958332,-0.1837675968805948,0.0666418075561523,0.0939866701761881,1.6886866495810875e+18,120.65508723958332,-0.84067835410436,-9.197013219197592,3.36690084139506,1.6886866495810875e+18,120.65508723958332,-0.6627567807833353,-9.246150334676107,3.2102267742156982,1.6886866495767665e+18,120.65076635742189,-0.0185295790433882,0.0845539321502049,0.0082466807216405,1.6886866495767665e+18,120.65076635742189,-0.0195985933144886,0.0891354208191235,0.0105374253665407,,,,,,,,,,,,1.6886866495788884e+18,120.65288837890624,21.29875946044922,38.25675964355469,-21.386598968505854,1.6886866495788884e+18,120.65288837890624,-234.0472381591797,133.28255615234374,-154.1103942871094,1.6886866495810875e+18,120.65508723958332,-0.2441368947426478,0.0229876867185035,-0.7302407026290894,0.637665311495463,-1.774390459060669,1.230102022488912,2.1600963274637857
0.7,1.6886866496330048e+18,120.7070049641927,-0.1783939997355142,0.0050681432088216,-0.1091561317443847,1.6886866496330048e+18,120.7070049641927,-0.8506484429041544,-9.253045082092283,3.1764721075693765,1.6886866496330048e+18,120.7070049641927,-0.6781004667282104,-9.24060853322347,3.2229408423105874,1.688686649628678e+18,120.70267805989585,-0.0302887354046106,-0.0616464858758263,-0.0375173073261975,1.688686649628678e+18,120.70267805989585,-0.0313068442046641,-0.0571159006406863,-0.0352265629917382,,,,,,,,,,,,1.6886866496288886e+18,120.70288862304687,21.342679977416992,38.34459915161133,-21.423199462890626,1.6886866496288886e+18,120.70288862304687,-234.0033172607422,133.37039794921876,-154.1469970703125,1.6886866496330048e+18,120.7070049641927,-0.2444342672824859,0.0225477665662765,-0.7307893832524618,0.6369378566741943,-1.778166691462199,1.228415568669637,2.1637208461761475
0.75,1.6886866496762624e+18,120.75026245117188,0.1808337718248366,-0.0769982337951659,-0.1942275762557982,1.6886866496762624e+18,120.75026245117188,-0.5258227586746216,-9.330811977386476,3.096312403678894,1.6886866496762624e+18,120.75026245117188,-0.7125025689601898,-9.236309051513672,3.2278525829315186,1.688686649680588e+18,120.7545879720052,-0.0120645884890109,-0.0918334089219569,-0.0450513114531834,1.688686649680588e+18,120.7545879720052,-0.0130826973666747,-0.0873028238614399,-0.0427096610267956,,,,,,,,,,,,1.6886866496788836e+18,120.75288364257813,20.96691970825195,38.28603897094727,-21.403679656982423,1.6886866496788836e+18,120.75288364257813,-234.3790740966797,133.31183776855468,-154.12748107910156,1.6886866496762624e+18,120.75026245117188,-0.2429233193397521,0.0209232810884713,-0.7320366203784943,0.6361388862133026,-1.7880496382713318,1.2271117568016052,2.1690635681152344
0.8,1.6886866497195226e+18,120.79352262369792,0.2125135362148284,-0.0512599945068358,-0.0768179098765055,1.6886866497195226e+18,120.79352262369792,-0.5098706285158793,-9.305088996887209,3.2101709842681885,1.6886866497195226e+18,120.79352262369792,-0.7282301982243856,-9.236324310302734,3.22430149714152,1.6886866497325046e+18,120.80650463867188,0.0109446688244739,0.0079412478953599,-0.013337224178637,1.6886866497325046e+18,120.80650463867188,0.0099265603348612,0.0124718319857492,-0.011046479732613,,,,,,,,,,,,1.688686649728885e+18,120.80288496093748,21.57203941345215,38.18355865478516,-21.371959686279297,1.688686649728885e+18,120.80288496093748,-233.77395629882812,133.20935668945313,-154.09575500488282,1.6886866497195226e+18,120.79352262369792,-0.2422726849714914,0.0206827210883299,-0.7325911521911621,0.6357565720876058,-1.792931079864502,1.2271161476771038,2.1726420720418296
0.85,1.6886866497714358e+18,120.8454357096354,0.0606876214345296,0.0075391133626301,-0.0263199011484781,1.6886866497714358e+18,120.8454357096354,-0.6586244304974874,-9.247661590576172,3.2574292023976645,1.6886866497714358e+18,120.8454357096354,-0.7251580754915873,-9.237696011861166,3.2210617065429688,1.688686649775763e+18,120.84976293945314,0.0013744468451477,0.0184023156762122,0.017638734076172,1.688686649775763e+18,120.84976293945314,0.0003054326152778,0.0229838043451308,0.0199294784106313,,,,,,,,,,,,1.688686649778885e+18,120.85288505859376,21.601319885253908,38.20063934326172,-21.432959365844727,1.688686649778885e+18,120.85288505859376,-233.744677734375,133.2264373779297,-154.1567596435547,1.6886866497714358e+18,120.8454357096354,-0.2424245824416477,0.0210702133675416,-0.7324732939402262,0.6358217398325602,-1.7922395865122478,1.2275310754776,2.1727251211802163
0.9,1.688686649823348e+18,120.89734806315104,-0.1076490879058837,0.0845060348510741,0.0293636322021484,1.688686649823348e+18,120.89734806315104,-0.816750148932139,-9.171090761820476,3.3142587343851724,1.688686649823348e+18,120.89734806315104,-0.7149470845858256,-9.238092104593912,3.22220770517985,1.68868664981902e+18,120.89301977539064,-0.0052432600253571,-0.0062613685925801,0.0144062382169067,1.68868664981902e+18,120.89301977539064,-0.0063122742188473,-0.0016798790699492,0.016696983249858,,,,,,,,,,,,1.6886866498288845e+18,120.902884375,21.371959686279297,38.388520050048825,-21.17187957763672,1.6886866498288845e+18,120.902884375,-233.97403869628903,133.41431884765626,-153.8956756591797,1.688686649823348e+18,120.89734806315104,-0.242594967285792,0.0210281653950611,-0.7321190436681112,0.6361660559972128,-1.7891443967819214,1.2276514768600464,2.1698134740193686
0.95,1.688686649875257e+18,120.94925732421876,-0.0640773773193359,-0.0152912139892577,-0.0535024007161457,1.688686649875257e+18,120.94925732421876,-0.7968099514643351,-9.26640510559082,3.238884766896566,1.688686649875257e+18,120.94925732421876,-0.7385785977045695,-9.233609199523926,3.2296997706095376,1.688686649870932e+18,120.94493204752604,-0.0276925576229889,-0.1077159047126769,-0.0334448733677466,1.688686649870932e+18,120.94493204752604,-0.0287615718940893,-0.1031853208939233,-0.0311541271706421,,,,,,,,,,,,1.6886866498788849e+18,120.95288491210938,21.462239456176757,38.12743911743164,-21.454919815063477,1.6886866498788849e+18,120.95288491210938,-233.88375549316407,133.1532409667969,-154.17871704101563,1.688686649875257e+18,120.94925732421876,-0.2415162126223246,0.0195300417641798,-0.7329821983973185,0.6356294552485148,-1.7956136465072632,1.226296305656433,2.172561804453532
1.0,1.6886866499271729e+18,121.00117260742188,0.1188741525014241,-0.0967216491699218,-0.1034467220306395,1.6886866499271729e+18,121.00117260742188,-0.6432704925537109,-9.344570477803549,3.191427230834961,1.6886866499271729e+18,121.00117260742188,-0.7679906686147054,-9.23034413655599,3.2321865558624268,1.688686649922845e+18,120.99684488932292,-0.0097738440769414,-0.1293507193525631,-0.000254527044793,1.688686649922845e+18,120.99684488932292,-0.0108428584256519,-0.1248201305667559,0.0020362174448867,1.688686649927458e+18,121.0014580078125,0.0,0.4239542782306671,0.8662112951278687,6.026000022888184,0.007768684066832,0.0,40.20000076293945,-122.7531556,49.190375,1.6886866499288847e+18,121.00288457031252,21.576919555664062,38.21771926879883,-21.345119857788085,1.6886866499288847e+18,121.00288457031252,-233.76907348632812,133.24351501464844,-154.06891479492188,1.6886866499271729e+18,121.00117260742188,-0.2392697085936863,0.0171563190718491,-0.7340636849403381,0.6352995038032532,-1.8040825923283896,1.225311319033305,2.174313465754191
1.05,1.6886866499790848e+18,121.05308487955728,0.1524167656898498,0.0261383056640625,0.1416811148325601,1.6886866499790848e+18,121.05308487955728,-0.6097709735234579,-9.223334312438965,3.43190590540568,1.6886866499790848e+18,121.05308487955728,-0.768033762772878,-9.23196792602539,3.2275373935699463,1.6886866499747615e+18,121.04876131184896,0.0094175059348344,-0.0085521116852759,0.0208203233778476,1.6886866499747615e+18,121.04876131184896,0.0083484918189544,-0.0039706227059165,0.0231110683331886,,,,,,,,,,,,1.688686649978887e+18,121.05288706054688,21.679399490356445,38.04935913085937,-21.169439697265624,1.688686649978887e+18,121.05288706054688,-233.66659851074215,133.07515869140624,-153.8932373046875,1.6886866499790848e+18,121.05308487955728,-0.2380277812480926,0.0160921687881151,-0.7340897520383199,0.6357641617457072,-1.8044204711914065,1.2258000373840332,2.171267827351888
1.1,1.6886866500309967e+18,121.1049970703125,-0.2017300327618916,0.0890089670817056,0.1830296516418456,1.6886866500309967e+18,121.1049970703125,-0.93539426724116,-9.162117958068848,3.475176016489665,1.6886866500309967e+18,121.1049970703125,-0.7395102580388387,-9.233622233072916,3.229458967844645,1.688686650026672e+18,121.10067228190104,0.0066686123609542,0.110770230491956,0.0316631818811098,1.688686650026672e+18,121.10067228190104,0.0055995980898538,0.1153008143107095,0.0339539262155691,,,,,,,,,,,,1.688686650028885e+18,121.10288496093747,21.78919906616211,38.207958984375,-21.203599166870116,1.688686650028885e+18,121.10288496093747,-233.5567901611328,133.23375854492187,-153.92739562988282,1.6886866500309967e+18,121.1049970703125,-0.2397791842619577,0.0175603367388248,-0.7330650687217712,0.6362489263216654,-1.795910636583964,1.2262988487879436,2.16744335492452
1.15,1.688686650082909e+18,121.15690877278644,-0.2480533123016357,0.1119902928670247,0.1236288547515868,1.688686650082909e+18,121.15690877278644,-0.96370929479599,-9.139386177062988,3.4191441535949707,1.688686650082909e+18,121.15690877278644,-0.7215020060539246,-9.233871777852375,3.23282790184021,1.6886866500785848e+18,121.15258479817707,-0.0077885317926604,-0.0119627782454092,0.0273362196361024,1.6886866500785848e+18,121.15258479817707,-0.0088575462965915,-0.0073812892660498,0.0296269639705617,,,,,,,,,,,,1.6886866500788872e+18,121.152887109375,21.498839569091796,38.283599090576175,-21.364639663696288,1.6886866500788872e+18,121.152887109375,-233.84715270996097,133.30939636230468,-154.08843383789062,1.688686650082909e+18,121.15690877278644,-0.2404202272494633,0.0177775534490743,-0.7324333786964417,0.6367286841074625,-1.790382981300354,1.2263748248418171,2.163166761398315
1.2,1.688686650126169e+18,121.20016931152344,-0.1547088623046874,-0.0499119758605956,0.0458433628082275,1.688686650126169e+18,121.20016931152344,-0.882951557636261,-9.29791021347046,3.348157048225403,1.688686650126169e+18,121.20016931152344,-0.7340887188911438,-9.230493545532228,3.2396262884140015,1.6886866501304955e+18,121.20449552408854,-0.0258599625279505,-0.0912734493613242,-0.0270307871202627,1.6886866501304955e+18,121.20449552408854,-0.0269289761781692,-0.0866919606924056,-0.0247400418544808,,,,,,,,,,,,1.6886866501288863e+18,121.20288666992188,21.779439163208007,38.03227920532227,-21.44271965026855,1.6886866501288863e+18,121.20288666992188,-233.566552734375,133.05807800292968,-154.16651916503906,1.688686650126169e+18,121.20016931152344,-0.2397147342562675,0.0166030712425708,-0.7328984439373016,0.6364911198616028,-1.7936320304870603,1.225357174873352,2.163703203201294
1.25,1.688686650169431e+18,121.24343098958332,0.0902235706647237,-0.0028088887532552,-0.0011895497639973,1.688686650169431e+18,121.24343098958332,-0.666600505510966,-9.246464729309082,3.3068809509277344,1.688686650169431e+18,121.24343098958332,-0.76267009973526,-9.22615114847819,3.245383103688558,1.6886866501824082e+18,121.256408203125,-0.0088575459085404,-0.0357356158395608,-0.0377718334396679,1.6886866501824082e+18,121.256408203125,-0.009926560257251,-0.0312050332625706,-0.0354301842550436,,,,,,,,,,,,1.6886866501788872e+18,121.25288715820312,21.65987968444824,38.0615592956543,-21.25239944458008,1.6886866501788872e+18,121.25288715820312,-233.68611755371097,133.0873596191406,-153.9761962890625,1.688686650169431e+18,121.24343098958332,-0.2384986380736033,0.0151419012496868,-0.7339232961336771,0.6358030041058859,-1.80161186059316,1.2240517536799114,2.167815844217936
1.3,1.6886866502213417e+18,121.295341796875,0.106078565120697,-0.0277090072631835,0.0319078763326009,1.6886866502213417e+18,121.295341796875,-0.6524429718653361,-9.27059268951416,3.341776212056478,1.6886866502213417e+18,121.295341796875,-0.7643675605456034,-9.22537899017334,3.247180938720703,1.6886866502256694e+18,121.29966931152345,0.01198823004961,0.1653154045343398,0.0019089540001004,1.6886866502256694e+18,121.29966931152345,0.0109955742955207,0.1698205396533012,0.0041996985673904,1.688686650225e+18,121.299,0.0,0.4239542782306671,0.812796413898468,6.068999767303467,0.0066723800264298,0.0,40.20000076293945,-122.7531556,49.190375,1.6886866502288817e+18,121.30288159179688,21.96243896484375,38.21283874511719,-21.347560119628906,1.6886866502288817e+18,121.30288159179688,-233.3835601806641,133.23863830566407,-154.07135620117188,1.6886866502213417e+18,121.295341796875,-0.2393988420565922,0.0160616903255382,-0.7339624563852946,0.6353959043820699,-1.80198601881663,1.2238196929295857,2.1708555221557617
1.35,1.6886866502732506e+18,121.34725048828123,-0.1456476251284281,0.0941476821899414,0.1096563339233398,1.6886866502732506e+18,121.34725048828123,-0.8697910308837891,-9.150951067606607,3.4211382071177163,1.6886866502732506e+18,121.34725048828123,-0.7299894293149313,-9.227594057718912,3.2487944761912027,1.6886866502689293e+18,121.3429293619792,0.0134899408246079,0.1881464968125025,0.0080430590702841,1.6886866502689293e+18,121.3429293619792,0.0124209268639484,0.1927279829978942,0.0103338034823535,,,,,,,,,,,,1.688686650278887e+18,121.3528869140625,20.83271942138672,38.01519927978516,-21.586679458618164,1.688686650278887e+18,121.3528869140625,-234.51327819824215,133.0409942626953,-154.3104736328125,1.6886866502732506e+18,121.34725048828123,-0.2427383263905842,0.0193001640339691,-0.7326895395914713,0.6355076829592387,-1.7918249368667605,1.2244846026102705,2.170283953348795
1.4,1.6886866503251628e+18,121.39916276041669,-0.2464172442754109,0.0433031717936198,-0.0285990238189697,1.6886866503251628e+18,121.39916276041669,-0.9533404111862184,-9.200801531473797,3.2895328998565674,1.6886866503251628e+18,121.39916276041669,-0.7127691904703776,-9.22660001118978,3.2554445266723633,1.6886866503208333e+18,121.39483333333334,-0.0090102622440705,0.1239547381798426,-0.0276925573125481,1.6886866503208333e+18,121.39483333333334,-0.0100792766121836,0.1284853219985961,-0.0254018126676479,,,,,,,,,,,,1.688686650328885e+18,121.40288505859375,21.103559494018555,38.02251968383789,-21.691599655151368,1.688686650328885e+18,121.40288505859375,-234.2424346923828,133.0483184814453,-154.41539611816407,1.6886866503251628e+18,121.39916276041669,-0.2456803868214289,0.021914567798376,-0.7320170799891154,0.6350680390993754,-1.7863454818725586,1.224186380704244,2.1729400157928467
1.45,1.6886866503770808e+18,121.45108064778644,-0.009085992972056,-0.051971435546875,-0.2286160786946614,1.6886866503770808e+18,121.45108064778644,-0.7499504884084066,-9.291330337524414,3.0953155358632407,1.6886866503770808e+18,121.45108064778644,-0.7467105189959208,-9.221854209899902,3.261244217554728,1.6886866503727547e+18,121.44675455729168,-0.0182241462171077,-0.1049161081512768,-0.0675006099045276,1.6886866503727547e+18,121.44675455729168,-0.0192931611090898,-0.1003346169988314,-0.0651589594781398,,,,,,,,,,,,1.6886866503788836e+18,121.45288364257812,21.310960006713863,38.1664794921875,-21.83067970275879,1.6886866503788836e+18,121.45288364257812,-234.0350372314453,133.1922821044922,-154.55447692871093,1.6886866503770808e+18,121.45108064778644,-0.2453258434931437,0.0215409367034832,-0.7332083384195963,0.633841872215271,-1.795878767967224,1.2227647304534912,2.181456724802653
1.5,1.6886866504289871e+18,121.50298706054689,0.5053889254728953,-0.1488037109374999,-0.2470124562581379,1.6886866504289871e+18,121.50298706054689,-0.2857428987820943,-9.384650230407717,3.0749765237172446,1.6886866504289871e+18,121.50298706054689,-0.7969778577486674,-9.218341827392578,3.2593015829722085,1.688686650424666e+18,121.49866609700524,-0.0111482905534405,-0.1295543387532234,-0.0472402467081943,1.688686650424666e+18,121.49866609700524,-0.0122173049797613,-0.1250237549344698,-0.0449495011319716,,,,,,,,,,,,1.688686650428887e+18,121.50288706054688,21.596439361572266,37.97127990722656,-21.489080047607423,1.688686650428887e+18,121.50288706054688,-233.7495544433594,132.9970733642578,-154.21287841796874,1.6886866504289871e+18,121.50298706054689,-0.2426506926616032,0.0193250856051842,-0.7350156704584757,0.6328496336936951,-1.8106190760930376,1.2217160860697427,2.1890792846679688
1.55,1.688686650480899e+18,121.55489933268228,0.1750698884328206,-0.0172376632690429,-0.1844000021616617,1.688686650480899e+18,121.55489933268228,-0.60558353861173,-9.255038897196451,3.1345976988474527,1.688686650480899e+18,121.55489933268228,-0.7864994605382284,-9.220296541849772,3.256310304005941,1.688686650476578e+18,121.5505782877604,-0.0008653924645234,-0.0356338061392306,0.0722857204576333,1.688686650476578e+18,121.5505782877604,-0.0019344066580135,-0.0310523165389894,0.0745764647920926,,,,,,,,,,,,1.6886866504788823e+18,121.55288247070312,21.43051986694336,37.981039428710936,-21.569599533081053,1.6886866504788823e+18,121.55288247070312,-233.9154754638672,133.0068389892578,-154.29339599609375,1.688686650480899e+18,121.55489933268228,-0.2417414883772532,0.018359084924062,-0.7346775134404501,0.6336185336112976,-1.807794213294983,1.222298542658488,2.1834935347239175
1.6,1.688686650532815e+18,121.60681526692709,-0.0878146886825561,-0.0088834762573242,0.0124826431274413,1.688686650532815e+18,121.60681526692709,-0.8323034842809042,-9.25085163116455,3.328216870625814,1.688686650532815e+18,121.60681526692709,-0.7503348191579183,-9.22446346282959,3.2530468304951987,1.688686650528483e+18,121.60248299153646,-0.006821328618874,-0.1725694288810093,0.1323032279809315,1.688686650528483e+18,121.60248299153646,-0.007890342734754,-0.1680388450622558,0.1346957832574844,,,,,,,,,,,,1.6886866505288852e+18,121.60288505859376,21.484199142456056,38.3153190612793,-21.489079666137695,1.6886866505288852e+18,121.60288505859376,-233.8617950439453,133.34111633300782,-154.21287841796874,1.688686650532815e+18,121.60681526692709,-0.2394159932931263,0.0154205430299043,-0.7334889570871989,0.6359508633613586,-1.7974949677785237,1.2235445578893025,2.1654624144236245
1.65,1.6886866505760758e+18,121.65007568359374,0.0200237035751342,-0.0303783416748046,0.2366731166839599,1.6886866505760758e+18,121.65007568359374,-0.7067799866199493,-9.276075839996338,3.54586398601532,1.6886866505760758e+18,121.65007568359374,-0.7326497137546539,-9.228192806243896,3.246503472328186,1.688686650580403e+18,121.65440266927084,0.0298814910153547,-0.08379034884274,0.0587957805643478,1.688686650580403e+18,121.65440266927084,0.0288633823705215,-0.0793106729785601,0.0611374309907356,,,,,,,,,,,,1.688686650578887e+18,121.65288686523436,21.159679412841797,38.293359375,-21.169439697265624,1.688686650578887e+18,121.65288686523436,-234.18631591796876,133.31915893554688,-153.8932373046875,1.6886866505760758e+18,121.65007568359374,-0.2368424609303474,0.0127326385118067,-0.7329268157482147,0.6376218795776367,-1.7927615642547607,1.2246636748313904,2.1530115604400635
1.7,1.6886866506193354e+18,121.69333544921876,0.048217495282491,0.1102498372395833,0.4205218950907389,1.6886866506193354e+18,121.69333544921876,-0.6610172589619955,-9.143773078918455,3.709872086842855,1.6886866506193354e+18,121.69333544921876,-0.7150807778040568,-9.236518224080404,3.226662794748942,1.688686650632315e+18,121.70631502278646,0.0856229464213053,0.2787581731875737,-0.0164933615985015,1.688686650632315e+18,121.70631502278646,0.0845539321502049,0.2833396643400191,-0.0142026171088218,,,,,,,,,,,,1.688686650628887e+18,121.70288720703124,21.66719970703125,38.39339904785156,-21.274360275268556,1.688686650628887e+18,121.70288720703124,-233.67879638671872,133.41919860839843,-153.99815368652344,1.6886866506193354e+18,121.69333544921876,-0.2371732989947,0.0144455106928943,-0.7322823802630106,0.6382005016009012,-1.7888906399408977,1.2271753549575806,2.152043263117472
1.75,1.6886866506712453e+18,121.74524527994792,-0.0819045305252074,0.2467479705810546,0.7003296216328939,1.6886866506712453e+18,121.74524527994792,-0.7469594677289327,-9.01775074005127,3.9690945148468018,1.6886866506712453e+18,121.74524527994792,-0.6709009607632955,-9.246994018554688,3.206077496210734,1.6886866506755748e+18,121.74957470703126,0.0847575515508651,0.5393940061330795,-0.0833831056952476,1.6886866506755748e+18,121.74957470703126,0.0836885385215282,0.5439755022525787,-0.0810160040855407,,,,,,,,,,,,1.6886866506788849e+18,121.75288466796876,20.62531967163086,38.16891860961914,-21.493959426879883,1.6886866506788849e+18,121.75288466796876,-234.72067565917968,133.19471740722656,-154.21775817871094,1.6886866506712453e+18,121.74524527994792,-0.2434135079383849,0.0226033019522825,-0.7305315732955933,0.6376105745633444,-1.7770800590515137,1.230358362197876,2.161160389582316
1.8,1.68868665072316e+18,121.7971600748698,-0.3778947989145915,0.3101762135823567,0.6539618174235026,1.68868665072316e+18,121.7971600748698,-0.9956136147181192,-8.957531611124674,3.923032760620117,1.68868665072316e+18,121.7971600748698,-0.6235648393630981,-9.250203132629396,3.206383546193441,1.6886866507188357e+18,121.79283536783856,0.039553524305423,0.659632662932078,-0.1284344171484311,1.6886866507188357e+18,121.79283536783856,0.0384845118969678,0.6641123294830322,-0.1260927667220433,,,,,,,,,,,,1.688686650728887e+18,121.802887109375,20.217839813232423,38.33971939086914,-21.98195953369141,1.688686650728887e+18,121.802887109375,-235.1281524658203,133.36551818847656,-154.70575561523438,1.68868665072316e+18,121.7971600748698,-0.2544752955436706,0.0345393891135851,-0.7284085551897684,0.6351754466692606,-1.7628816763559978,1.2313398122787476,2.180604298909506
1.85,1.688686650775072e+18,121.8490721842448,-0.5934768319129944,0.2466662724812825,0.3014067808787028,1.688686650775072e+18,121.8490721842448,-1.180459181467692,-9.012566566467283,3.6005998452504477,1.688686650775072e+18,121.8490721842448,-0.592828373114268,-9.241728146870932,3.236505667368571,1.688686650770743e+18,121.84474291992188,-0.0402662015209595,0.4579962094624837,-0.0961094647645949,1.688686650770743e+18,121.84474291992188,-0.0413352145502964,0.462526798248291,-0.0938187216718991,,,,,,,,,,,,1.6886866507788828e+18,121.85288291015624,19.9713996887207,38.16403884887696,-22.474839401245116,1.6886866507788828e+18,121.85288291015624,-235.37459411621097,133.1898406982422,-155.19863586425782,1.688686650775072e+18,121.8490721842448,-0.2650041182835896,0.0437539877990881,-0.7268412113189697,0.632101039091746,-1.7519631783167522,1.2287571827570598,2.198787530263265
1.9,1.6886866508269804e+18,121.9009803059896,-0.5072387059529623,0.0936905543009439,-0.0202128092447916,1.6886866508269804e+18,121.9009803059896,-1.1006983915964763,-9.14636516571045,3.332005500793457,1.6886866508269804e+18,121.9009803059896,-0.5993057092030843,-9.222551027933756,3.2895309130350747,1.6886866508226598e+18,121.89665974934894,-0.1187623863418896,0.1530217441419759,-0.0956513161460558,1.6886866508226598e+18,121.89665974934894,-0.1198313981294631,0.1575523254772027,-0.093309665719668,,,,,,,,,,,,1.688686650828888e+18,121.9028880859375,19.934799575805663,38.2738395690918,-22.88719940185547,1.688686650828888e+18,121.9028880859375,-235.41119689941405,133.2996368408203,-155.61099548339843,1.6886866508269804e+18,121.9009803059896,-0.2710635761419931,0.0466753629346688,-0.7268879810969034,0.629267672697703,-1.7509892384211223,1.2229814132054646,2.2112748622894287
1.95,1.6886866508788997e+18,121.95289957682292,0.0080577731132507,-0.2016229629516601,-0.6181677977244059,1.6886866508788997e+18,121.95289957682292,-0.6717849671840668,-9.410772323608398,2.802792946497599,1.6886866508788997e+18,121.95289957682292,-0.6856887737909952,-9.191644668579102,3.3582733472188315,1.6886866508745687e+18,121.94856868489585,-0.165748099486033,-0.2162972042957941,-0.1623374372720718,1.6886866508745687e+18,121.94856868489585,-0.1668171236912409,-0.2117157156268755,-0.1598939796288808,,,,,,,,,,,,1.688686650878887e+18,121.95288686523438,20.525279998779297,37.69555892944336,-23.06775932312012,1.688686650878887e+18,121.95288686523438,-234.8207214355469,132.7213592529297,-155.79155883789062,1.6886866508788997e+18,121.95289957682292,-0.271532009045283,0.0432914781073728,-0.7301156322161356,0.6255564292271932,-1.7721395095189412,1.2138554652531943,2.228503386179606
2.0,1.6886866509308027e+18,122.00480265299478,0.9712894757588704,-0.5475800832112631,-1.0289504528045654,1.6886866509308027e+18,122.00480265299478,0.2045863320430119,-9.73619588216146,2.4293132623036704,1.6886866509308027e+18,122.00480265299478,-0.7725491722424825,-9.17111110687256,3.395576318105062,1.6886866509264753e+18,122.00047509765623,-0.0831285789608955,-0.130725168933471,-0.069231391729166,1.6886866509264753e+18,122.00047509765623,-0.0841975919902324,-0.1261945826311906,-0.0668897424232758,1.688686650927502e+18,122.00150219726562,0.0,0.4100545346736908,0.8208061456680298,6.067999839782715,0.0185272004455328,0.0,40.20000076293945,-122.7531558,49.1903748,1.6886866509288852e+18,122.00288510742186,20.583839416503903,37.800479125976565,-23.25075912475586,1.6886866509288852e+18,122.00288510742186,-234.762158203125,132.82627563476564,-155.97455444335938,1.6886866509308027e+18,122.00480265299478,-0.2689228852589925,0.0387715722123781,-0.7333978215853373,0.6231409509976705,-1.794503927230835,1.2079033454259236,2.2406020164489746
2.05,1.6886866509827205e+18,122.05672021484374,0.5199659367402395,-0.2809944152832031,-0.4271019299825032,1.6886866509827205e+18,122.05672021484374,-0.2149552317957083,-9.4771728515625,3.0177481969197593,1.6886866509827205e+18,122.05672021484374,-0.740767220656077,-9.17867374420166,3.3821627298990884,1.6886866509783982e+18,122.05239803059897,0.0623591604332128,0.1693623860677082,0.0300851135204235,1.6886866509783982e+18,122.05239803059897,0.0613410528749227,0.1739438821872074,0.0324267639468113,,,,,,,,,,,,1.6886866509788892e+18,122.05288901367187,20.227599716186525,37.54671859741211,-23.204399490356444,1.6886866509788892e+18,122.05288901367187,-235.11839599609377,132.57251892089843,-155.9282012939453,1.6886866509827205e+18,122.05672021484374,-0.2702956795692443,0.0409065683682759,-0.7321761051813761,0.6238451600074768,-1.7864078283309937,1.2100815375645957,2.2375879287719727
2.1,1.6886866510259827e+18,122.09998278808597,-0.0248025059700012,0.0513110160827636,0.0285549163818359,1.6886866510259827e+18,122.09998278808597,-0.7217351198196411,-9.157930850982666,3.445963740348816,1.6886866510259827e+18,122.09998278808597,-0.7027786374092102,-9.191737174987791,3.354721426963806,1.6886866510303035e+18,122.10430338541666,0.0693841092288493,0.1152499069770176,0.0236201230436562,1.6886866510303035e+18,122.10430338541666,0.0683660035332043,0.1197804932792981,0.0259617728491623,,,,,,,,,,,,1.688686651028886e+18,122.1028861328125,20.347159957885744,37.63943939208984,-23.177559661865235,1.688686651028886e+18,122.1028861328125,-234.99883728027345,132.6652404785156,-155.90135803222657,1.6886866510259827e+18,122.09998278808597,-0.2720172703266144,0.0444460846483707,-0.7306472063064575,0.6246482729911804,-1.7773057222366333,1.2138711214065552,2.236088275909424
2.15,1.6886866510692442e+18,122.1432442220052,-0.0783750414848327,0.0881423950195312,0.1205170154571532,1.6886866510692442e+18,122.1432442220052,-0.768694261709849,-9.12782096862793,3.520839055379232,1.6886866510692442e+18,122.1432442220052,-0.6961652437845866,-9.198458671569824,3.3376346429189048,1.6886866510822193e+18,122.15621915690105,0.0197513103485107,-0.1437060485283533,0.0216857163856426,1.6886866510822193e+18,122.15621915690105,0.0186822948356468,-0.1391754671931266,0.0239764607201019,,,,,,,,,,,,1.6886866510788856e+18,122.152885546875,20.36911926269531,37.934678649902345,-23.19951972961426,1.6886866510788856e+18,122.152885546875,-234.97687683105468,132.96047973632812,-155.9233154296875,1.6886866510692442e+18,122.1432442220052,-0.2713502744833628,0.0449075363576411,-0.7303882638613383,0.6252076427141825,-1.7764376401901243,1.215837478637695,2.2348344326019287
2.2,1.6886866511211502e+18,122.19515014648437,0.266261766354243,0.0293156305948893,0.0026773611704508,1.6886866511211502e+18,122.19515014648437,-0.4301098783810933,-9.190233866373696,3.391826073328654,1.6886866511211502e+18,122.19515014648437,-0.702217698097229,-9.202044804890951,3.3264613151550293,1.6886866511254828e+18,122.19948278808592,0.0113010071218013,-0.099647395312786,0.0692568495869636,1.6886866511254828e+18,122.19948278808592,0.0102319931611418,-0.095065901055932,0.0715475920587777,,,,,,,,,,,,1.688686651128884e+18,122.202883984375,20.72047996520996,37.62480010986328,-22.677359771728515,1.688686651128884e+18,122.202883984375,-234.62551879882812,132.65059814453124,-155.40115661621093,1.6886866511211502e+18,122.19515014648437,-0.2684533794720967,0.042518526315689,-0.7307424942652384,0.6262105703353882,-1.7788502772649128,1.2168906927108765,2.2294086615244546
2.25,1.688686651173066e+18,122.24706591796875,-0.1115466554959614,0.0629552205403645,0.0207328001658121,1.688686651173066e+18,122.24706591796875,-0.7740781307220459,-9.162317593892416,3.400998512903849,1.688686651173066e+18,122.24706591796875,-0.6683774987856547,-9.207768122355144,3.3175783157348633,1.6886866511687414e+18,122.24274153645833,0.0141008061667282,-0.0580321997404097,0.0947859237591425,1.6886866511687414e+18,122.24274153645833,0.0130317918956279,-0.0535525201509395,0.0970766693353652,,,,,,,,,,,,1.6886866511788872e+18,122.252887109375,20.30079917907715,38.05911865234375,-23.004319381713863,1.6886866511788872e+18,122.252887109375,-235.04519348144532,133.0849182128906,-155.72811889648438,1.688686651173066e+18,122.24706591796875,-0.2671865224838257,0.041166520367066,-0.7296390930811564,0.6281265020370483,-1.7696092128753662,1.2185781796773274,2.216240167617798
2.3,1.6886866512249797e+18,122.29897932942708,-0.0713501175244649,0.0355262756347655,0.0100964705149332,1.6886866512249797e+18,122.29897932942708,-0.7373881737391154,-9.190831820170084,3.3866416613260903,1.6886866512249797e+18,122.29897932942708,-0.6718840797742208,-9.208853403727211,3.3138577938079834,1.688686651220653e+18,122.29465307617188,-0.0102828983993579,-0.177558163801829,0.0211766626453027,1.688686651220653e+18,122.29465307617188,-0.0113519124376276,-0.1729766776164372,0.0235692173979865,,,,,,,,,,,,1.6886866512288858e+18,122.30288588867188,20.437439346313475,37.961518096923825,-22.721279525756835,1.6886866512288858e+18,122.30288588867188,-234.90855407714844,132.98731994628906,-155.44507751464843,1.6886866512249797e+18,122.29897932942708,-0.2645571629206339,0.0384674184024333,-0.7299082080523173,0.6290961702664694,-1.7708433071772258,1.2188987731933594,2.209616502126058
2.35,1.6886866512768904e+18,122.3508905436198,0.1657494703928629,-0.0151805877685546,-0.0834744771321614,1.6886866512768904e+18,122.3508905436198,-0.5296114087104797,-9.238687833150228,3.294916788736979,1.6886866512768904e+18,122.3508905436198,-0.701206902662913,-9.206002553304035,3.315703868865967,1.6886866512725658e+18,122.34656583658852,-0.0127263595350086,-0.1116865264872709,-0.0181732407460609,1.6886866512725658e+18,122.34656583658852,-0.0137444678694009,-0.1071559451520442,-0.015780685469508,,,,,,,,,,,,1.6886866512788874e+18,122.35288740234375,20.72779960632324,37.8492790222168,-22.831079483032227,1.6886866512788874e+18,122.35288740234375,-234.61819763183593,132.8750793457031,-155.55487670898438,1.6886866512768904e+18,122.3508905436198,-0.262005199988683,0.0358457763989765,-0.7310652136802673,0.6289767225583395,-1.7792166868845622,1.2180569569269817,2.210411628087362
2.4,1.6886866513287987e+18,122.40279858398436,0.0770016312599181,-0.0058565139770507,0.0679652690887451,1.6886866513287987e+18,122.40279858398436,-0.6243273019790649,-9.23131020863851,3.4396825631459556,1.6886866513287987e+18,122.40279858398436,-0.7071749567985535,-9.207949002583822,3.3090298970540366,1.6886866513244815e+18,122.39848160807291,0.0247909482568501,0.0311032232517997,-0.0059559361543505,1.6886866513244815e+18,122.39848160807291,0.0237219336753089,0.035633806604892,-0.0035633806789215,,,,,,,,,,,,1.6886866513288845e+18,122.40288447265624,20.683879089355468,37.800479125976565,-22.49679946899414,1.6886866513288845e+18,122.40288447265624,-234.6621124267578,132.82627868652344,-155.22059631347656,1.6886866513287987e+18,122.40279858398436,-0.2615761756896972,0.0359755493700503,-0.731266975402832,0.6289134820302328,-1.7813512086868286,1.2186314662297566,2.2120837370554605
2.45,1.68868665138071e+18,122.45471028645834,-0.1138486862182617,0.1173988978068033,0.1876110235850016,1.68868665138071e+18,122.45471028645834,-0.8069794376691183,-9.110472679138184,3.5543386936187744,1.68868665138071e+18,122.45471028645834,-0.6989767750104269,-9.210366884867351,3.304040273030599,1.6886866513763845e+18,122.45038427734374,0.0101810872244338,0.0890336111187934,-0.0121154940376678,1.6886866513763845e+18,122.45038427734374,0.0091120729533334,0.093615099787712,-0.0098247493927676,,,,,,,,,,,,1.688686651378885e+18,122.45288515625,20.52527961730957,37.92979888916015,-22.69931983947754,1.688686651378885e+18,122.45288515625,-234.82071533203128,132.95559997558593,-155.4231170654297,1.68868665138071e+18,122.45471028645834,-0.2627630829811095,0.0376160579423109,-0.7308985988299052,0.6287507812182108,-1.7792869408925374,1.21934707959493,2.2141497135162354
2.5,1.6886866514326295e+18,122.50662947591144,-0.3396002252896626,0.0181945164998371,-0.1160985628763834,1.6886866514326295e+18,122.50662947591144,-1.0313065648078918,-9.205188751220703,3.263411204020182,1.6886866514326295e+18,122.50662947591144,-0.6975523829460144,-9.205878575642904,3.316822369893392,1.6886866514282988e+18,122.50229874674478,-0.040266200279196,-0.0484619749089082,0.0140499007732917,1.6886866514282988e+18,122.50229874674478,-0.0412843090792496,-0.0439822959403196,0.0164424561080522,,,,,,,,,,,,1.6886866514288865e+18,122.50288627929687,20.410599517822263,37.83707885742187,-22.9359992980957,1.6886866514288865e+18,122.50288627929687,-234.9353973388672,132.86288146972657,-155.65979614257813,1.6886866514326295e+18,122.50662947591144,-0.2634848654270172,0.0374170107146103,-0.7308587034543356,0.6285066803296407,-1.778092583020528,1.218020995457967,2.2137765884399414
2.55,1.6886866514758874e+18,122.54988732910158,-0.2101849317550658,-0.0705981254577636,-0.3813223838806152,1.6886866514758874e+18,122.54988732910158,-0.9176474809646606,-9.288339138031006,3.010469913482666,1.6886866514758874e+18,122.54988732910158,-0.713308572769165,-9.200236320495604,3.3291049003601074,1.6886866514802148e+18,122.55421468098956,-0.0501418560743331,-0.3096068700154622,0.0583885349333285,1.6886866514802148e+18,122.55421468098956,-0.0512108703454335,-0.3050253838300705,0.0607301866014797,,,,,,,,,,,,1.688686651478887e+18,122.5528869140625,20.720479583740236,37.646759796142575,-22.445559692382812,1.688686651478887e+18,122.5528869140625,-234.62551574707032,132.67255859375,-155.1693603515625,1.6886866514758874e+18,122.54988732910158,-0.2608101963996887,0.0335903652012347,-0.7315931916236877,0.6289826035499573,-1.7818791270256042,1.2163598537445068,2.208067536354065
2.6,1.688686651519144e+18,122.59314396158857,0.1454592545827229,-0.1865196228027343,-0.3259470462799072,1.688686651519144e+18,122.59314396158857,-0.5882355670134226,-9.402995109558104,3.063610553741455,1.688686651519144e+18,122.59314396158857,-0.7395408550898234,-9.198970794677733,3.3268702030181885,1.6886866515321272e+18,122.60612719726562,0.0012217304126049,-0.3087923874457677,0.0581340094407398,1.6886866515321272e+18,122.60612719726562,0.0001527163791858,-0.3042617986599604,0.0604756598671276,,,,,,,,,,,,1.6886866515288852e+18,122.60288525390624,21.059639739990235,37.97371826171875,-22.365039443969728,1.6886866515288852e+18,122.60288525390624,-234.28635864257816,132.9995147705078,-155.08883666992188,1.688686651519144e+18,122.59314396158857,-0.2555835247039794,0.0281086110820372,-0.7327363689740499,0.6300622224807739,-1.789547085762024,1.2159884770711262,2.2000224590301514
2.65,1.68868665157106e+18,122.64505997721352,0.2257902820905049,-0.046176274617513,0.050803263982137,1.68868665157106e+18,122.64505997721352,-0.5154538750648499,-9.268398920694986,3.4227333863576255,1.68868665157106e+18,122.64505997721352,-0.74709020058314,-9.204717953999838,3.3092427253723145,1.688686651575387e+18,122.6493868408203,0.0300087556242942,-0.0873537305742501,0.0585667043924331,1.688686651575387e+18,122.6493868408203,0.0289397407323121,-0.0827722400426864,0.0610101651400327,,,,,,,,,,,,1.6886866515788838e+18,122.65288383789064,21.066959381103516,37.91027908325195,-22.09663963317871,1.6886866515788838e+18,122.65288383789064,-234.2790374755859,132.9360778808594,-154.8204376220703,1.68868665157106e+18,122.64505997721352,-0.25112650791804,0.0244515947997569,-0.7331321636835734,0.6315491000811259,-1.7928472757339478,1.217679142951965,2.191359837849935
2.7,1.688686651622964e+18,122.6969639485677,-0.0878616372744241,0.1031532287597655,-0.050495704015096,1.688686651622964e+18,122.6969639485677,-0.8283154567082723,-9.121639251708984,3.314458211263021,1.688686651622964e+18,122.6969639485677,-0.7462998429934183,-9.207287788391117,3.302266518274943,1.6886866516186465e+18,122.692646484375,-0.0100283712769548,-0.1734348287185033,0.0358883341153462,1.6886866516186465e+18,122.692646484375,-0.011046479679256,-0.1689551497499148,0.0381790784498055,,,,,,,,,,,,1.6886866516288914e+18,122.70289140625,20.898599243164064,37.920039367675784,-22.138119506835935,1.6886866516288914e+18,122.70289140625,-234.44739379882813,132.94583740234376,-154.8619171142578,1.688686651622964e+18,122.6969639485677,-0.2488316694895426,0.022332487006982,-0.7331713835398356,0.6324879924456278,-1.7930739323298135,1.21843687693278,2.185093402862549
2.75,1.6886866516748874e+18,122.74888769531252,0.1710229913393656,-0.055615743001302,-0.3031570116678873,1.6886866516748874e+18,122.74888769531252,-0.6033901075522105,-9.275577863057457,3.067399263381958,1.6886866516748874e+18,122.74888769531252,-0.7802591323852539,-9.202457427978516,3.3078688780466714,1.6886866516705574e+18,122.74455729166668,-0.0649553363521893,-0.4735732773939768,0.0925969891250133,1.6886866516705574e+18,122.74455729166668,-0.0660243531068165,-0.4689917862415313,0.0949386407931645,,,,,,,,,,,,1.688686651678885e+18,122.7528849609375,21.613519287109376,37.976158905029294,-22.07223892211914,1.688686651678885e+18,122.7528849609375,-233.73247680664065,133.00195922851563,-154.79603576660156,1.6886866516748874e+18,122.74888769531252,-0.2422385414441426,0.0147355059161781,-0.7345381776491801,0.6336743434270223,-1.802455464998881,1.217013160387675,2.173764149347941
2.8,1.6886866517267927e+18,122.8007928873698,0.1326030294100443,-0.2390829722086588,-0.4473931789398193,1.6886866517267927e+18,122.8007928873698,-0.6334997912247976,-9.459426244099935,2.9240293502807617,1.6886866517267927e+18,122.8007928873698,-0.7719488541285197,-9.20283857981364,3.3087351322174072,1.6886866517224686e+18,122.79646891276042,-0.033546683882984,-0.4587598045667012,0.2398155132929483,1.6886866517224686e+18,122.79646891276042,-0.0345647912132941,-0.4541782935460408,0.2421571711699167,,,,,,,,,,,,1.6886866517288842e+18,122.80288427734374,21.79407958984375,37.99323959350586,-21.489079666137695,1.6886866517288842e+18,122.80288427734374,-233.55191345214843,133.01903686523437,-154.21287536621094,1.6886866517267927e+18,122.8007928873698,-0.2336878478527068,0.0046771953348069,-0.7343843181927999,0.6372087001800537,-1.8000123500823977,1.2171255350112915,2.1441497802734375
2.85,1.6886866517787082e+18,122.85270808919272,-0.0716909766197204,-0.0612850189208984,0.0122975508371988,1.6886866517787082e+18,122.85270808919272,-0.7794619798660278,-9.295916557312012,3.356930732727051,1.6886866517787082e+18,122.85270808919272,-0.7136170268058777,-9.217126846313477,3.281945784886678,1.688686651774384e+18,122.84838370768227,0.0431678102662165,-0.3093014359474182,0.2251547475655873,1.688686651774384e+18,122.84838370768227,0.0420987947533527,-0.3047708570957183,0.2274454981088638,,,,,,,,,,,,1.6886866517788836e+18,122.85288364257812,22.02588005065918,38.39340057373047,-21.108439254760743,1.6886866517788836e+18,122.85288364257812,-233.3201171875,133.41919860839843,-153.83223571777344,1.6886866517787082e+18,122.85270808919272,-0.2263500789801279,-0.0023373209211664,-0.7323714296023051,0.6421733299891154,-1.7849084933598836,1.221356749534607,2.108013073603312
2.9,1.688686651830622e+18,122.90462174479168,0.0201066335042317,0.1508061091105142,0.3794890244801839,1.688686651830622e+18,122.90462174479168,-0.6608178615570068,-9.10209814707438,3.678167184193929,1.688686651830622e+18,122.90462174479168,-0.686770518620809,-9.23539956410726,3.2359907627105713,1.6886866518262976e+18,122.90029768880208,0.1146390462915101,-0.0002545276268695,0.0304923572887976,1.6886866518262976e+18,122.90029768880208,0.1135700270533561,0.0042760558426379,0.0327831003814935,,,,,,,,,,,,1.688686651828889e+18,122.90288930664062,21.471999740600587,38.43731918334961,-20.74975929260254,1.688686651828889e+18,122.90288930664062,-233.87399597167968,133.46311950683594,-153.4735595703125,1.688686651830622e+18,122.90462174479168,-0.2227637569109598,-0.0030973315782223,-0.7314345240592957,0.6444915135701498,-1.779942313830058,1.2268392244974773,2.096569856007894
2.95,1.688686651882533e+18,122.95653312174478,-0.0443550546964009,0.2075017293294271,0.6125791867574056,1.688686651882533e+18,122.95653312174478,-0.739980419476827,-9.05982462565104,3.8666019439697266,1.688686651882533e+18,122.95653312174478,-0.7014713883399963,-9.249821662902832,3.191335360209147,1.6886866518782052e+18,122.9522049967448,0.1163698285818099,0.2833905667066573,-0.1638136977950731,1.6886866518782052e+18,122.9522049967448,0.1153517191608746,0.2879211505254109,-0.1614720498522122,,,,,,,,,,,,1.6886866518788872e+18,122.95288720703124,21.4866397857666,38.52760009765625,-20.535039520263673,1.6886866518788872e+18,122.95288720703124,-233.8593536376953,133.55339660644532,-153.258837890625,1.688686651882533e+18,122.95653312174478,-0.2249539991219838,0.0031080538271149,-0.7319436073303223,0.6431465546290079,-1.787188212076823,1.2312236229578657,2.1159005959828696
3.0,1.6886866519257964e+18,122.99979650878906,-0.1131876409053802,0.333371639251709,0.6402997970581055,1.6886866519257964e+18,122.99979650878906,-0.846760094165802,-8.937491416931152,3.875475406646729,1.6886866519257964e+18,122.99979650878906,-0.7394184768199921,-9.253358364105225,3.172488212585449,1.688686651930121e+18,123.0041207682292,0.0495309907322127,0.3300708532333374,-0.200872853398323,1.688686651930121e+18,123.0041207682292,0.0484619761506716,0.334550529718399,-0.1985821078221003,1.688686651927488e+18,123.00148803710935,0.0,0.4026232361793518,0.8311763405799866,6.116000175476074,0.0156178241595625,0.0,40.20000076293945,-122.753156,49.1903748,1.6886866519288863e+18,123.00288637695311,21.65743980407715,38.62031936645508,-20.571639633178712,1.6886866519288863e+18,123.00288637695311,-233.6885559082031,133.6461212158203,-153.29543762207032,1.6886866519257964e+18,122.99979650878906,-0.2292602583765983,0.0099969701841472,-0.7332041263580322,0.640115886926651,-1.7997979521751404,1.232307195663452,2.1447718143463135
3.05,1.6886866519690534e+18,123.04305314127603,-0.4482207298278808,0.1606067021687825,0.285755713780721,1.6886866519690534e+18,123.04305314127603,-1.220937728881836,-9.101300239562988,3.5375888347625732,1.6886866519690534e+18,123.04305314127603,-0.7785630226135254,-9.244402249654136,3.1891457239786782,1.6886866519820257e+18,123.0560253092448,-0.088728175808986,-0.1339322105050087,-0.0455603661636511,1.6886866519820257e+18,123.0560253092448,-0.0897971913218497,-0.1293507119019826,-0.0432696230709552,,,,,,,,,,,,1.688686651978883e+18,123.05288305664062,21.471999740600587,38.237239074707034,-20.883959197998045,1.688686651978883e+18,123.05288305664062,-233.87399597167968,133.263037109375,-153.60775451660157,1.6886866519690534e+18,123.04305314127603,-0.232525626818339,0.0129420114681124,-0.7345180114110311,0.6373747785886129,-1.8102431297302248,1.22957181930542,2.164348522822062
3.1,1.6886866520209572e+18,123.0949571940104,-0.214583138624827,-0.1193393071492512,-0.0345567862192789,1.6886866520209572e+18,123.0949571940104,-1.0271191199620564,-9.364909489949545,3.2544381618499756,1.6886866520209572e+18,123.0949571940104,-0.8183820048967997,-9.228065490722656,3.2263075510660806,1.6886866520252948e+18,123.09929479980468,-0.1271363273262977,-0.6649268269538879,0.1896736621856689,1.6886866520252948e+18,123.09929479980468,-0.1282053440809249,-0.6603453159332275,0.1919644027948379,,,,,,,,,,,,1.6886866520288814e+18,123.10288134765624,21.994159698486328,38.083518981933594,-20.77171974182129,1.6886866520288814e+18,123.10288134765624,-233.35183410644532,133.10932312011718,-153.49551696777343,1.6886866520209572e+18,123.0949571940104,-0.2273711015780766,0.0045566959112572,-0.735987146695455,0.6376360058784485,-1.8192248741785688,1.2246286471684773,2.1537563800811768
3.15,1.688686652072871e+18,123.14687036132813,0.60922243197759,0.146098772684733,-0.0023626486460368,1.688686652072871e+18,123.14687036132813,-0.1932204216718673,-9.08973503112793,3.3168510595957437,1.688686652072871e+18,123.14687036132813,-0.8082889119784037,-9.218329111735024,3.256526311238607,1.6886866520685537e+18,123.14255354817708,-0.1001818999648093,-0.4073962022860845,0.1943569630384445,1.6886866520685537e+18,123.14255354817708,-0.1012509142359097,-0.4028147260348002,0.1966986109813054,,,,,,,,,,,,1.6886866520788874e+18,123.1528875,22.3235595703125,38.295799255371094,-20.403279495239257,1.6886866520788874e+18,123.1528875,-233.0224365234375,133.32159729003905,-153.1270782470703,1.688686652072871e+18,123.14687036132813,-0.2187116046746572,-0.0079389566866059,-0.735616942246755,0.6410646835962931,-1.8141078154246013,1.2217146952946982,2.117952028910319
3.2,1.688686652124789e+18,123.19878914388022,-0.0335768659909565,-0.1337057749430338,-0.2895413239796956,1.688686652124789e+18,123.19878914388022,-0.7826524178187052,-9.365707079569498,3.0532416502634683,1.688686652124789e+18,123.19878914388022,-0.754921575387319,-9.214496612548828,3.2800955772399902,1.6886866521204613e+18,123.19446126302084,-0.027641652462383,0.189775471885999,0.0475456782927115,1.6886866521204613e+18,123.19446126302084,-0.0287106658021608,0.1943569555878639,0.0498873287190992,,,,,,,,,,,,1.6886866521288863e+18,123.202886328125,21.752599716186523,38.34459915161133,-20.27396011352539,1.6886866521288863e+18,123.202886328125,-233.59339599609376,133.37039489746093,-152.9977569580078,1.688686652124789e+18,123.19878914388022,-0.2201438198486963,-0.0087895737960934,-0.7337585687637329,0.6426934599876404,-1.797028422355652,1.2205732266108196,2.101748545964559
