seconds_elapsed_rounded,accelerometer_time,accelerometer_seconds_elapsed,accelerometer_z,accelerometer_y,accelerometer_x,accelerometeruncalibrated_time,accelerometeruncalibrated_seconds_elapsed,accelerometeruncalibrated_z,accelerometeruncalibrated_y,accelerometeruncalibrated_x,gravity_time,gravity_seconds_elapsed,gravity_z,gravity_y,gravity_x,gyroscope_time,gyroscope_seconds_elapsed,gyroscope_z,gyroscope_y,gyroscope_x,gyroscopeuncalibrated_time,gyroscopeuncalibrated_seconds_elapsed,gyroscopeuncalibrated_z,gyroscopeuncalibrated_y,gyroscopeuncalibrated_x,location_time,location_seconds_elapsed,location_bearingAccuracy,location_speedAccuracy,location_verticalAccuracy,location_horizontalAccuracy,location_speed,location_bearing,location_altitude,location_longitude,location_latitude,magnetometer_time,magnetometer_seconds_elapsed,magnetometer_z,magnetometer_y,magnetometer_x,magnetometeruncalibrated_time,magnetometeruncalibrated_seconds_elapsed,magnetometeruncalibrated_z,magnetometeruncalibrated_y,magnetometeruncalibrated_x,orientation_time,orientation_seconds_elapsed,orientation_qz,orientation_qy,orientation_qx,orientation_qw,orientation_roll,orientation_pitch,orientation_yaw
0.0,1.6886862625273713e+18,60.00337150065104,0.0137863159179687,0.0262384414672851,-0.2358592351277668,1.6886862625187174e+18,59.99471736653646,-0.9302097956339518,-9.717851003011068,-1.058824062347412,1.6886862625273713e+18,60.00337150065104,-0.9881272713343302,-9.717013676961264,-0.9161606629689536,1.6886862625230456e+18,59.99904565429688,-0.0049378271214663,0.1046106740832328,-0.0208203233778476,1.6886862625230456e+18,59.99904565429688,-0.0060068413925667,0.1091921627521514,-0.018376862630248,,,,,,,,,,,,1.6886862625238492e+18,59.999849121093746,-12.160959815979004,42.98303909301758,1.629919958114624,1.6886862625238492e+18,59.999849121093746,-267.5069580078125,138.008837890625,-131.09388122558593,1.6886862625273713e+18,60.00337150065104,-0.6666331887245178,0.7417898376782736,-0.010483139194548,0.0723695332805315,2.393962860107422,1.4330034255981443,0.63011234998703
0.05,1.6886862625792847e+18,60.05528466796875,-0.0035516023635864,0.0162913004557291,-0.2487552762031555,1.6886862625706284e+18,60.04662858072916,-1.038485010464986,-9.677571932474772,-1.1326027313868203,1.6886862625792847e+18,60.05528466796875,-1.005285898844401,-9.714643478393556,-0.922606607278188,1.68868626257496e+18,60.05095979817708,0.0192422550171613,0.0197513094171881,-0.0295760581890741,1.68868626257496e+18,60.05095979817708,0.0182241465275485,0.0242818929255008,-0.0270816919704277,,,,,,,,,,,,1.688686262573846e+18,60.049845996093744,-12.077999687194824,42.93667907714844,1.793399953842163,1.688686262573846e+18,60.049845996093744,-267.4239990234375,137.9624786376953,-130.9303985595703,1.6886862625792847e+18,60.05528466796875,-0.6660797397295634,0.742398738861084,-0.0090063639606038,0.0714196984966595,2.399055322011312,1.4312565724054973,0.6284593939781189
0.1,1.6886862626311946e+18,60.107194742838544,0.2199665109316507,-0.1304925282796223,0.2159442901611327,1.6886862626225472e+18,60.09854711914062,-0.8157531023025513,-9.851051648457846,-0.7489534815152487,1.6886862626311946e+18,60.107194742838544,-1.019830862681071,-9.711628595987955,-0.938253124554952,1.688686262626874e+18,60.102873860677086,0.0332412502417961,0.019394970498979,-0.0273871244862675,1.688686262626874e+18,60.102873860677086,0.0322231414417425,0.0239764619618653,-0.024841853417456,,,,,,,,,,,,1.6886862626238533e+18,60.099853369140625,-12.504999732971193,42.99767913818359,2.0495999097824096,1.6886862626238533e+18,60.099853369140625,-267.8509948730469,138.02347412109376,-130.6741943359375,1.6886862626311946e+18,60.107194742838544,-0.6654525597890218,0.7429027160008749,-0.0085990127796927,0.0720723023017246,2.3978360493977866,1.4290635585784912,0.6293217738469442
0.15,1.6886862626744627e+18,60.15046264648437,0.1729526817798614,-0.0342121124267578,0.5219499468803406,1.6886862626744586e+18,60.15045874023438,-0.8350951075553894,-9.759526252746582,-0.3764707644780476,1.6886862626744627e+18,60.15046264648437,-1.023764193058014,-9.711597919464111,-0.9342885613441468,1.68868626267879e+18,60.15478987630208,-0.0127772639195123,0.1887573599815368,0.0069740449544041,1.68868626267879e+18,60.15478987630208,-0.0137444675589601,0.1933388511339823,0.0094175057796139,,,,,,,,,,,,1.688686262673847e+18,60.149847070312504,-12.21951961517334,43.07575912475586,2.0105600118637086,1.688686262673847e+18,60.149847070312504,-267.5655212402344,138.10155639648437,-130.7132354736328,1.6886862626744627e+18,60.15046264648437,-0.6655235588550568,0.7430582046508789,-0.0065939710475504,0.0699902400374412,2.4018672704696655,1.4290392398834229,0.6310932040214539
0.2,1.6886862627177236e+18,60.19372355143229,-0.0583097338676452,0.0697841644287109,0.2152630289395649,1.6886862627263762e+18,60.2023759765625,-1.1355937719345093,-9.665607770284018,-0.709870715936025,1.6886862627177236e+18,60.19372355143229,-1.02789572874705,-9.71369997660319,-0.9074621796607972,1.688686262730703e+18,60.206703125,-0.056963184227546,0.0335466812054316,0.0131845080322818,1.688686262730703e+18,60.206703125,-0.0579303863147893,0.038128172357877,0.0156279694444189,,,,,,,,,,,,1.6886862627238477e+18,60.19984760742187,-12.334199714660643,43.002559661865234,1.9837199926376343,1.6886862627238477e+18,60.19984760742187,-267.68018798828126,138.02835693359376,-130.74007568359374,1.6886862627177236e+18,60.19372355143229,-0.6656971971193949,0.7432122230529785,-0.0050554419867693,0.0667595416307448,2.418370246887207,1.4305665493011477,0.6213675141334534
0.25,1.6886862627696346e+18,60.245634684244784,-0.1317497094472249,-0.042096455891927,-0.1991936167081197,1.6886862627782868e+18,60.25428694661459,-1.0953145623207092,-9.802197774251304,-1.0504491527875264,1.6886862627696346e+18,60.245634684244784,-1.015871485074361,-9.717272758483888,-0.8824374079704285,1.6886862627739674e+18,60.24996728515625,-0.0470366235822439,-0.1559233516454696,0.0289397407323121,1.6886862627739674e+18,60.24996728515625,-0.0479529220610856,-0.1514182165265083,0.0313832024112343,,,,,,,,,,,,1.6886862627738514e+18,60.249851318359376,-11.724199867248537,42.93423843383789,2.1057199001312257,1.6886862627738514e+18,60.249851318359376,-267.0701965332031,137.9600372314453,-130.61807556152343,1.6886862627696346e+18,60.245634684244784,-0.6661508083343506,0.7427831689516703,-0.0069996480209131,0.0668279578288395,2.42637046178182,1.4331965446472168,0.6105194091796875
0.3,1.688686262821552e+18,60.2975517578125,0.030869980653127,-0.0122817357381184,-0.2158478697141011,1.6886862628302042e+18,60.30620442708334,-1.0131610035896303,-9.731011390686035,-0.9954142173131308,1.688686262821552e+18,60.2975517578125,-1.0066067775090537,-9.718573252360024,-0.8787443041801453,1.688686262817228e+18,60.293227945963544,-0.0059559360767404,-0.0018325949204153,0.0040724348121632,1.688686262817228e+18,60.293227945963544,-0.006974044876794,0.0027488939619312,0.0065668015546785,,,,,,,,,,,,1.6886862628238495e+18,60.29984931640625,-12.15607967376709,43.000119018554685,1.6494399547576903,1.6886862628238495e+18,60.29984931640625,-267.5020690917969,138.02591552734376,-131.07435607910156,1.688686262821552e+18,60.2975517578125,-0.6663804848988851,0.7424487670262655,-0.0086213508620857,0.0680618633826573,2.4239141941070557,1.4341654777526855,0.6089257995287577
0.35,1.688686262873464e+18,60.34946427408854,-0.266931931177775,0.1168877283732096,0.0201915105183918,1.688686262873469e+18,60.34946875,-1.2864412665367126,-9.577571392059326,-0.7845467329025269,1.688686262873464e+18,60.34946427408854,-1.0097022851308186,-9.717732429504396,-0.8844744761784872,1.6886862628691397e+18,60.34513932291667,0.0331394392997025,0.1436551461617151,0.0063631798451145,1.6886862628691397e+18,60.34513932291667,0.0321722365915774,0.14823662986358,0.0088575460637609,,,,,,,,,,,,1.688686262873851e+18,60.34985092773437,-12.07067985534668,42.78051910400391,1.8861199140548703,1.688686262873851e+18,60.34985092773437,-267.4166687011719,137.80631408691406,-130.83768005371093,1.688686262873464e+18,60.34946427408854,-0.6664644281069437,0.7425807118415833,-0.0059551383989552,0.0660512298345565,2.422213633855184,1.4335379997889202,0.6172629396120707
0.4,1.6886862629253788e+18,60.401378906249995,-0.0229270656903584,-0.0025901794433593,-0.0839737852414448,1.6886862629167278e+18,60.39272786458333,-1.1312069098154705,-9.73599656422933,-0.8797611196835836,1.6886862629253788e+18,60.401378906249995,-1.0375555356343586,-9.714306513468426,-0.8897808790206909,1.6886862629210514e+18,60.39705143229167,-0.0001018110197037,-0.0200567419330278,-0.0773253589868544,1.6886862629210514e+18,60.39705143229167,-0.0010690141158799,-0.0155261574933925,-0.0747291818261145,1.688686262922873e+18,60.398873046875,0.0,0.4620337188243866,0.982702910900116,9.586000442504885,0.0355848893523216,0.0,40.20000076293945,-122.7531726,49.1902083,1.6886862629238449e+18,60.399844775390626,-11.982839965820313,42.96107864379883,1.9617599248886108,1.6886862629238449e+18,60.399844775390626,-267.3288330078125,137.98687744140625,-130.7620361328125,1.6886862629253788e+18,60.401378906249995,-0.6654485464096069,0.743542472521464,-0.0050909818770984,0.0655475383003552,2.4326812426249185,1.4310123523076377,0.6087281902631124
0.45,1.6886862629772964e+18,60.453296386718755,0.17155522108078,0.0090751647949219,-0.1960884531339009,1.6886862629686405e+18,60.444640625,-0.8666005929311117,-9.718448956807457,-1.023330489794413,1.6886862629772964e+18,60.453296386718755,-1.0583587884902954,-9.711614926656088,-0.8947150905927023,1.688686262972972e+18,60.44897192382812,0.0093666001533468,-0.0616973886887232,-0.0114537221379578,1.688686262972972e+18,60.44897192382812,0.0084503026058276,-0.0571159000198046,-0.0089593559193113,,,,,,,,,,,,1.6886862629738511e+18,60.4498513671875,-12.00723991394043,43.06599807739258,2.113039994239807,1.6886862629738511e+18,60.4498513671875,-267.3532348632813,138.091796875,-130.6107604980469,1.6886862629772964e+18,60.453296386718755,-0.6645244359970093,0.7442468007405599,-0.0062162343723078,0.0668222457170486,2.439786990483602,1.429052710533142,0.5982083280881246
0.5,1.6886862630292065e+18,60.50520654296875,0.0378835598627726,-0.0140873591105143,-0.0495474338531494,1.6886862630205586e+18,60.49655875651041,-0.9718848069508872,-9.740981419881184,-0.9443673690160116,1.6886862630292065e+18,60.50520654296875,-1.0427330334981282,-9.711183865865072,-0.9174275199572244,1.688686263024886e+18,60.50088614908855,0.0488183138271172,-0.0392989975710709,0.0163406453405817,1.688686263024886e+18,60.50088614908855,0.0478511104981103,-0.0347175082812706,0.0188350119472791,,,,,,,,,,,,1.6886862630238505e+18,60.499850488281254,-11.81935977935791,42.93179931640625,1.9593199491500857,1.6886862630238505e+18,60.499850488281254,-267.1653564453125,137.9575988769531,-130.7644775390625,1.6886862630292065e+18,60.50520654296875,-0.6649617552757263,0.7437120079994202,-0.006192346724371,0.0684090529878933,2.4200544357299805,1.428742448488871,0.615720291932424
0.55,1.6886862630811228e+18,60.557122884114584,-0.0440730651219685,-0.0131266911824544,0.1820453008015949,1.6886862630724687e+18,60.548468587239576,-1.0843474467595418,-9.721439997355144,-0.7274180849393209,1.6886862630811228e+18,60.557122884114584,-1.0413347880045574,-9.708356221516928,-0.9484219749768577,1.6886862630768008e+18,60.552800944010414,0.0608319975435733,-0.0171042270958423,0.0020362174642893,1.6886862630768008e+18,60.552800944010414,0.0598138893644014,-0.0125227371851602,0.0045305837799483,,,,,,,,,,,,1.6886862630738511e+18,60.549851220703125,-11.851079750061036,43.14407958984375,2.3033599138259886,1.6886862630738511e+18,60.549851220703125,-267.1970703125,138.1698791503906,-130.42043762207032,1.6886862630811228e+18,60.557122884114584,-0.6648616194725037,0.7436699072519938,-0.0054659533003965,0.0698869153857231,2.402876138687134,1.4267213344573977,0.6318245132764181
0.6,1.6886862631243878e+18,60.60038781738281,0.1462112963199615,-0.0116400718688964,0.2545461654663085,1.6886862631243876e+18,60.60038753255208,-0.9060821731885276,-9.737990697224935,-0.6673981149991354,1.6886862631243878e+18,60.60038781738281,-1.046374797821045,-9.706054210662842,-0.966286689043045,1.6886862631287089e+18,60.60470874023438,0.0338521158943573,-0.0024434610580404,-0.0229074470698833,1.6886862631287089e+18,60.60470874023438,0.032884911323587,0.0021380284645905,-0.0203112689778208,,,,,,,,,,,,1.68868626312385e+18,60.59985014648438,-11.541199874877927,42.807360076904295,2.322879934310913,1.68868626312385e+18,60.59985014648438,-266.8872009277344,137.83315734863282,-130.40091857910156,1.6886862631243878e+18,60.60038781738281,-0.6645858287811279,0.7438459396362305,-0.004991166293621,0.0706681869924067,2.3959717750549316,1.425095558166504,0.6382867693901062
0.65,1.6886862631676485e+18,60.6436483561198,0.0332950552304585,-0.0315322875976562,0.0626080830891927,1.6886862631762988e+18,60.65229890950521,-1.0562318166097004,-9.749157269795736,-0.8921240369478861,1.6886862631676485e+18,60.6436483561198,-1.0447247823079426,-9.705304781595864,-0.9755451281865438,1.6886862631806308e+18,60.65663053385416,0.0259108679989973,0.0121663993534942,0.049021936332186,1.6886862631806308e+18,60.65663053385416,0.0249945695201555,0.0167478889343328,0.0515163037925958,,,,,,,,,,,,1.6886862631738504e+18,60.649850390625,-12.07555980682373,42.8903190612793,2.127679944038391,1.6886862631738504e+18,60.649850390625,-267.4215576171875,137.9161163330078,-130.59612121582032,1.6886862631676485e+18,60.6436483561198,-0.6646347840627035,0.7437930504480997,-0.0044243743953604,0.0708014567693074,2.390425523122152,1.424569567044576,0.6444467902183533
0.7,1.6886862632195643e+18,60.69556469726563,-0.1281803448994954,0.0013637542724609,-0.0387091437975565,1.6886862632282135e+18,60.70421354166666,-1.1471590598424275,-9.72602653503418,-0.9672985474268596,1.6886862632195643e+18,60.69556469726563,-1.0214349428812664,-9.70649560292562,-0.988285799821218,1.6886862632238922e+18,60.69989221191406,0.0191658968105911,-0.0393244512379169,0.0268780710175633,1.6886862632238922e+18,60.69989221191406,0.0180968828499316,-0.0347429597750305,0.0293978890404104,,,,,,,,,,,,1.6886862632238513e+18,60.69985122070312,-12.375679779052737,42.65851974487305,2.2789599180221556,1.6886862632238513e+18,60.69985122070312,-267.7216735839844,137.68431396484374,-130.44483947753906,1.6886862632195643e+18,60.69556469726563,-0.665465235710144,0.7429971496264139,-0.0040044382524986,0.0713802749911943,2.37269393603007,1.4254048665364585,0.6619559129079183
0.75,1.6886862632714714e+18,60.74747151692708,-0.1084104379018147,0.0876382191975911,-0.0003331303596496,1.6886862632801324e+18,60.756132568359384,-1.0985049804051716,-9.61137040456136,-0.9361918369928997,1.6886862632714714e+18,60.74747151692708,-1.013487974802653,-9.705432256062826,-1.0067216157913208,1.6886862632671498e+18,60.74314990234375,0.0427605677396058,-0.0295760594308375,0.0159843070044491,1.6886862632671498e+18,60.74314990234375,0.041793364410599,-0.0249945699082066,0.0185295793538291,,,,,,,,,,,,1.688686263273849e+18,60.749849316406255,-12.243919944763183,42.80003890991211,2.120359945297241,1.688686263273849e+18,60.749849316406255,-267.58991088867185,137.82583618164062,-130.6034362792969,1.6886862632714714e+18,60.74747151692708,-0.6656280358632406,0.7427243987719218,-0.0040218723782648,0.0726880729198455,2.3595613638559976,1.4246590534845989,0.6732041041056315
0.8,1.6886862633233948e+18,60.799394938151046,-0.1858195861180623,0.0345757802327473,0.0258793234825134,1.6886862633233935e+18,60.7993935546875,-1.1775678396224976,-9.68704319000244,-0.9379864931106568,1.6886862633233948e+18,60.799394938151046,-1.008860468864441,-9.70341650644938,-1.030541261037191,1.68868626331907e+18,60.79507006835937,0.0435750546554723,0.0195985928488273,0.0010181088970663,1.68868626331907e+18,60.79507006835937,0.0426078513264655,0.0241800816729663,0.0035633806449671,,,,,,,,,,,,1.6886862633238492e+18,60.79984907226562,-11.926719856262206,42.91471939086914,2.296039915084839,1.6886862633238492e+18,60.79984907226562,-267.27271728515626,137.94051513671874,-130.4277587890625,1.6886862633233948e+18,60.799394938151046,-0.6657376686731974,0.7425707578659058,-0.0028705360212673,0.0733064164717991,2.3455731868743896,1.4232555230458577,0.6879441340764364
0.85,1.688686263375308e+18,60.85130826822917,-0.0830399990081786,-0.0516487757364908,-0.0215669473012288,1.6886862633666568e+18,60.84265673828125,-1.1672986348470051,-9.768698374430338,-1.0093723734219868,1.688686263375308e+18,60.85130826822917,-1.0169241825739543,-9.701339721679688,-1.042117953300476,1.68868626337098e+18,60.846979899088545,0.0062104632767537,-0.0917315954963365,-0.0167478887985149,1.68868626337098e+18,60.846979899088545,0.005294165535209,-0.0871501068274179,-0.0143044278956949,,,,,,,,,,,,1.6886862633738486e+18,60.849848535156255,-11.987720108032226,42.91959915161133,2.691319990158081,1.6886862633738486e+18,60.849848535156255,-267.3337158203125,137.94540100097657,-130.03247680664063,1.688686263375308e+18,60.85130826822917,-0.6652830839157104,0.7428446412086487,-0.003478746007507,0.0746165588498115,2.3439637819925943,1.421821157137553,0.6868222157160441
0.9,1.6886862634272225e+18,60.903222086588535,0.2027408083279927,0.0178352991739909,0.1696711381276448,1.688686263418567e+18,60.89456697591146,-0.7844470342000326,-9.721240679423014,-0.8550352851549784,1.6886862634272225e+18,60.903222086588535,-1.012375831604004,-9.701232274373371,-1.047513445218404,1.6886862634228984e+18,60.89889851888021,0.0179187138564884,0.0607810914516448,0.0189877278947581,1.6886862634228984e+18,60.89889851888021,0.0169006052116552,0.0653625826040903,0.0215329999385478,,,,,,,,,,,,1.688686263423849e+18,60.899849121093744,-12.124359703063964,42.84639892578125,2.727919912338257,1.688686263423849e+18,60.899849121093744,-267.47035522460936,137.87219848632813,-129.99588012695312,1.6886862634272225e+18,60.903222086588535,-0.6654087702433268,0.7426882783571879,-0.0035286586886892,0.0750476668278376,2.3391401767730713,1.4217480421066284,0.6909617185592651
0.95,1.6886862634791383e+18,60.95513826497396,-0.1127033829689025,0.0326366424560546,0.1521048148473103,1.6886862634704847e+18,60.94648494466146,-1.0668001174926758,-9.66520881652832,-0.7892326712608337,1.6886862634791383e+18,60.95513826497396,-0.988457222779592,-9.70387045542399,-1.0458992719650269,1.688686263474813e+18,60.95081290690104,0.0074830991216003,0.1216130877534548,0.0738128845890362,1.688686263474813e+18,60.95081290690104,0.0064140851609408,0.1261945764223734,0.0763072495659192,,,,,,,,,,,,1.6886862634738478e+18,60.94984770507813,-12.156079864501953,42.70487823486328,2.674239921569824,1.6886862634738478e+18,60.94984770507813,-267.5020690917969,137.73067626953124,-130.0495574951172,1.6886862634791383e+18,60.95513826497396,-0.6665868163108826,0.7418750325838724,-0.0009157392875446,0.0726766685644785,2.327954133351644,1.4235708713531494,0.7092331846555074
1.0,1.6886862635310502e+18,61.00705029296875,-0.0488375822703043,-0.0492992401123046,-0.1343370676040649,1.6886862635223995e+18,60.99839965820312,-1.0508479475975037,-9.760522842407228,-1.0853444735209148,1.6886862635310502e+18,61.00705029296875,-0.9647855758666992,-9.706480662027994,-1.0438044865926106,1.688686263526727e+18,61.00272713216145,0.0006617708131671,0.0034615698580941,0.042506040384372,1.688686263526727e+18,61.00272713216145,-0.0003054327486703,0.0080430590702841,0.0450004053612549,,,,,,,,,,,,1.6886862635238446e+18,60.999844580078125,-12.28051986694336,42.66339950561523,2.3838799953460694,1.6886862635238446e+18,60.999844580078125,-267.62651977539065,137.68919677734374,-130.3399169921875,1.6886862635310502e+18,61.00705029296875,-0.6675644914309183,0.7410621444384257,-0.0002381505231217,0.0720036178827285,2.3168715635935464,1.4253947734832764,0.7222412824630737
1.05,1.6886862635743145e+18,61.050314331054686,0.2205907404422759,0.0013608932495117,-0.1554204821586608,1.688686263574311e+18,61.05031070963542,-0.7641080419222513,-9.72881825764974,-1.1455638408660889,1.6886862635743145e+18,61.050314331054686,-0.9541539549827576,-9.70649290084839,-1.0534289479255676,1.6886862635786353e+18,61.054635335286456,0.0507018156349658,0.1677334159612655,0.0087048296506206,1.6886862635786353e+18,61.054635335286456,0.0497855165352423,0.1723149046301841,0.0111482913295427,,,,,,,,,,,,1.6886862635738514e+18,61.0498513671875,-12.160959815979004,42.6951187133789,2.7181599617004393,1.6886862635738514e+18,61.0498513671875,-267.5069519042969,137.72091979980468,-130.0056396484375,1.6886862635743145e+18,61.050314331054686,-0.6680310666561127,0.7406952679157257,0.0011657289142021,0.0714355632662772,2.3067904710769653,1.425402820110321,0.7351213097572327
1.1,1.6886862636175762e+18,61.09357641601563,0.1092825134595234,-0.0244900385538736,-0.0950593948364257,1.6886862636262264e+18,61.10222648111979,-0.8679964145024618,-9.741978645324709,-1.0807582139968872,1.6886862636175762e+18,61.09357641601563,-0.9669734040896096,-9.702974955240885,-1.0739096800486247,1.68868626363055e+18,61.10654996744791,0.081703225771586,0.2713768829902013,0.0046833003871142,1.68868626363055e+18,61.10654996744791,0.0806342115004856,0.2759583691755931,0.0071267612899342,,,,,,,,,,,,1.6886862636238492e+18,61.09984907226563,-12.365919685363773,42.778079223632815,2.9548399448394775,1.6886862636238492e+18,61.09984907226563,-267.7119140625,137.8038757324219,-129.76895751953126,1.6886862636175762e+18,61.09357641601563,-0.667856494585673,0.7411109209060669,0.006027589784935,0.0684233506520588,2.303858439127604,1.4229516983032229,0.7492243051528931
1.15,1.6886862636694828e+18,61.14548299153646,0.2708107034365336,-0.0622358322143554,0.260743757088979,1.6886862636781445e+18,61.154144287109375,-0.6394818623860677,-9.799206733703612,-0.7060820659001669,1.6886862636694828e+18,61.14548299153646,-0.9703758955001832,-9.699725468953451,-1.0999021132787068,1.688686263673818e+18,61.14981787109375,0.0710894428193568,0.2268600836396217,0.0317649934440851,1.688686263673818e+18,61.14981787109375,0.0701731443405151,0.2314415723085403,0.034361170604825,,,,,,,,,,,,1.6886862636738504e+18,61.14985029296874,-12.097519683837891,42.63899917602539,3.469679927825928,1.6886862636738504e+18,61.14985029296874,-267.4435119628906,137.664794921875,-129.25411987304688,1.6886862636694828e+18,61.14548299153646,-0.6680758992830912,0.7411580085754395,0.0118815908208489,0.064927116036415,2.2937256495157876,1.4207175970077517,0.7726213932037354
1.2,1.6886862637214052e+18,61.19740511067709,0.2403181791305541,-0.0788590113321939,0.3585706551869709,1.688686263730052e+18,61.20605216471355,-0.784247616926829,-9.777472178141275,-0.76430743932724,1.6886862637214052e+18,61.19740511067709,-0.9480588436126708,-9.699652989705404,-1.1197628577550252,1.688686263717081e+18,61.19308154296875,0.0826195230086644,0.3553708593050639,0.1030835099518298,1.688686263717081e+18,61.19308154296875,0.0815505112210909,0.3599523504575093,0.1055269713203111,,,,,,,,,,,,1.6886862637238492e+18,61.19984931640626,-12.47815990447998,42.516999053955075,4.069919919967651,1.6886862637238492e+18,61.19984931640626,-267.82415771484375,137.5427978515625,-128.65387573242188,1.6886862637214052e+18,61.19740511067709,-0.6693549156188965,0.7402512629826864,0.0185424058387676,0.0603281495471795,2.2733394304911294,1.4206674496332805,0.8089842398961385
1.25,1.6886862637733164e+18,61.249316650390625,-0.223060389359792,0.1090049743652343,-0.0960677464803059,1.6886862637733202e+18,61.249320068359374,-1.13688987493515,-9.5802640914917,-1.1787642240524292,1.6886862637733164e+18,61.249316650390625,-0.9076116681098938,-9.701275189717611,-1.1391027371088664,1.6886862637689946e+18,61.24499462890625,0.0589994012067715,0.2994257857402165,0.1076650023460388,1.6886862637689946e+18,61.24499462890625,0.058032199119528,0.3039563645919164,0.1102102721730868,,,,,,,,,,,,1.6886862637738516e+18,61.2498515625,-12.373239707946777,42.46575927734375,4.128479957580566,1.6886862637738516e+18,61.2498515625,-267.71923828125,137.49156188964844,-128.59531860351564,1.6886862637733164e+18,61.249316650390625,-0.6713747382164001,0.7386253873507181,0.0262644123286008,0.0547274574637412,2.2435696919759116,1.4217770497004192,0.8576558430989584
1.3,1.6886862638252308e+18,61.30123079427083,0.0361012617746989,-0.0610755284627278,-0.2698473930358886,1.688686263816582e+18,61.29258178710938,-0.952542801698049,-9.758927663167318,-1.3848460912704468,1.6886862638252308e+18,61.30123079427083,-0.8975807825724283,-9.70168368021647,-1.1435883442560832,1.6886862638209093e+18,61.29690901692709,-0.0060577473292748,0.0246382327750325,0.0054468816767136,1.6886862638209093e+18,61.29690901692709,-0.0070758555084466,0.0291688162833451,0.0078903424631183,,,,,,,,,,,,1.6886862638238492e+18,61.299849267578125,-12.807559585571289,42.28764038085937,4.323679780960083,1.6886862638238492e+18,61.299849267578125,-268.15354614257814,137.31343688964844,-128.4001220703125,1.6886862638252308e+18,61.30123079427083,-0.6718834241231283,0.7382032871246338,0.0283586091051498,0.0531454868614673,2.2362597783406577,1.4220582246780396,0.8701808055241903
1.35,1.6886862638771497e+18,61.35314973958333,-0.0224469900131225,0.1023120880126953,0.1953139503796895,1.6886862638684946e+18,61.344494710286455,-0.7908278703689575,-9.660024325052897,-0.9361918767293296,1.6886862638771497e+18,61.35314973958333,-0.8894812067349752,-9.703555742899576,-1.133973836898804,1.6886862638728246e+18,61.34882462565105,0.0010181088776638,0.2409354398647944,0.059559363250931,1.6886862638728246e+18,61.34882462565105,5.0905315826366614e-05,0.2454660236835479,0.0620028202732403,,,,,,,,,,,,1.6886862638738478e+18,61.34984790039063,-13.075959587097168,42.170519256591795,4.235839939117431,1.6886862638738478e+18,61.34984790039063,-268.4219543457031,137.19632263183593,-128.4879577636719,1.6886862638771497e+18,61.35314973958333,-0.6724133888880411,0.7378225723902384,0.0308459332833687,0.0502203367650508,2.2359522183736167,1.4233525196711223,0.8781659603118896
1.4,1.6886862639290532e+18,61.405053059895835,-0.5089912017186483,0.0657815933227538,0.3023290038108825,1.6886862639204114e+18,61.39641129557291,-1.3475579420725503,-9.642476717631022,-0.7509475151697794,1.6886862639290532e+18,61.405053059895835,-0.867942214012146,-9.708301226298014,-1.1097824573516846,1.6886862639247337e+18,61.400733723958325,-0.0296778697520494,0.1971058472990989,0.0698422590891519,1.6886862639247337e+18,61.400733723958325,-0.030695978552103,0.201687345902125,0.0722857216993967,1.688686263922798e+18,61.39879809570313,0.0,0.4941950440406799,0.9930872321128844,9.586000442504885,0.0270198173820972,0.0,40.20000076293945,-122.7531725,49.1902084,1.6886862639238492e+18,61.399849121093744,-13.09303970336914,42.124159240722655,4.526199913024902,1.6886862639238492e+18,61.399849121093744,-268.4390380859375,137.14995422363282,-128.19759979248047,1.6886862639290532e+18,61.405053059895835,-0.6736051241556803,0.736901601155599,0.0348295557002225,0.0449193951984246,2.2345288594563804,1.4266836245854695,0.8927581310272217
1.45,1.6886862639809792e+18,61.45697908528646,-0.2616737683614095,-0.0095548629760741,0.1829919417699177,1.6886862639723277e+18,61.448327880859374,-1.193619728088379,-9.722237904866535,-0.8159525195757548,1.6886862639809792e+18,61.45697908528646,-0.861421008904775,-9.711130460103352,-1.089946945508321,1.6886862639766556e+18,61.452655436197915,-0.0218893379593888,0.0749837085604667,0.0248927591989437,1.6886862639766556e+18,61.452655436197915,-0.0229074470698833,0.0795651997129121,0.0273871247967083,,,,,,,,,,,,1.6886862639738465e+18,61.44984658203125,-13.032039642333984,42.09731903076172,4.775079917907715,1.6886862639738465e+18,61.44984658203125,-268.37803955078124,137.12311401367188,-127.94871673583984,1.6886862639809792e+18,61.45697908528646,-0.6740003228187561,0.7366287310918173,0.0358118725319703,0.0426463671028613,2.2396186987559,1.428705096244812,0.8922843933105469
1.5,1.6886862640242404e+18,61.50024035644532,-0.0496060252189636,0.0381474494934081,-0.0469633340835571,1.688686264024238e+18,61.50023819986979,-0.9304092129071554,-9.695517857869469,-1.0711869597434998,1.6886862640242404e+18,61.50024035644532,-0.8634189069271088,-9.712172508239746,-1.0790346264839172,1.6886862640285645e+18,61.5045645345052,0.0044796785029272,0.2737694332997004,0.0070249504157497,1.6886862640285645e+18,61.5045645345052,0.003461569858094,0.2783000220855077,0.009570222115144,,,,,,,,,,,,1.6886862640238513e+18,61.49985122070312,-12.573319816589356,42.19247970581055,4.675039863586425,1.6886862640238513e+18,61.49985122070312,-267.9193176269531,137.21828002929686,-128.04875946044922,1.6886862640242404e+18,61.50024035644532,-0.6741193234920502,0.7365626990795135,0.0384819973260163,0.039445811882615,2.245644450187683,1.4294558763504028,0.8945817351341248
1.55,1.688686264067502e+18,61.54350219726563,-0.1390765905380248,0.0538132985432942,-0.3862467606862386,1.688686264076155e+18,61.55215470377604,-0.9655039310455322,-9.69631576538086,-1.445464293162028,1.688686264067502e+18,61.54350219726563,-0.8725525538126627,-9.712085723876951,-1.072453260421753,1.688686264080481e+18,61.55648087565104,-0.0102319930059213,0.1758782863616943,0.025961773470044,1.688686264080481e+18,61.55648087565104,-0.0111991960244873,0.1804597750306129,0.0284052335967619,,,,,,,,,,,,1.6886862640738504e+18,61.549850390625,-12.892959594726562,42.09975814819336,5.006879806518555,1.6886862640738504e+18,61.549850390625,-268.23895874023435,137.12555541992188,-127.71691589355468,1.688686264067502e+18,61.54350219726563,-0.6740020712216696,0.7366587917009989,0.0424807220697402,0.0353325530886649,2.253779093424479,1.4293937683105469,0.8979491392771403
1.6,1.688686264119417e+18,61.59541715494792,0.0308091640472411,0.0921640396118164,-0.4915986855824788,1.6886862641280689e+18,61.60406884765624,-0.8370891213417053,-9.605388323465982,-1.4791631698608398,1.688686264119417e+18,61.59541715494792,-0.8621789813041687,-9.713348070780436,-1.0693945089975994,1.6886862641237453e+18,61.599745239257814,0.0093920535873622,0.0944550409913062,0.0541379339992999,1.6886862641237453e+18,61.599745239257814,0.008323039044626,0.0990365296602249,0.0566577501595019,,,,,,,,,,,,1.6886862641238536e+18,61.599853710937495,-12.997879600524902,42.0631591796875,4.919039916992188,1.6886862641238536e+18,61.599853710937495,-268.3438720703125,137.08895874023438,-127.80475769042968,1.688686264119417e+18,61.59541715494792,-0.6745203137397766,0.7361535231272379,0.0449511297047137,0.0328513880570729,2.2493158976236978,1.4303094546000164,0.9094319144884744
1.65,1.6886862641713285e+18,61.6473282063802,0.0249366362889608,-0.015697161356608,-0.2355810801188151,1.6886862641799844e+18,61.65598429361979,-0.7110671202341715,-9.797212600708008,-1.2063814401626587,1.6886862641713285e+18,61.6473282063802,-0.8327770431836446,-9.712565422058104,-1.099290370941162,1.688686264167005e+18,61.64300504557292,0.0880664053062597,0.0781398465236027,0.0628173102935154,1.688686264167005e+18,61.64300504557292,0.0871501093109448,0.0827213351925214,0.0653116771330435,,,,,,,,,,,,1.6886862641738511e+18,61.649851074218745,-13.200399780273438,41.98263931274414,5.416799926757813,1.6886862641738511e+18,61.649851074218745,-268.54639892578126,137.00844116210936,-127.30699615478515,1.6886862641713285e+18,61.6473282063802,-0.6756519476572672,0.7349627812703451,0.0476788766682147,0.032401153196891,2.219166914621989,1.4297428131103516,0.9440861741701762
1.7,1.6886862642232394e+18,61.69923933919271,0.5355440378189087,-0.1630757649739583,0.3227820992469787,1.688686264223246e+18,61.699246093750006,-0.2479562535881995,-9.891629695892334,-0.749252587556839,1.6886862642232394e+18,61.69923933919271,-0.8426863352457682,-9.705366134643556,-1.1539644002914429,1.6886862642189228e+18,61.69492260742188,0.1382082601388295,0.2966768791278203,-0.0223474869659791,1.6886862642189228e+18,61.69492260742188,0.1372410555680592,0.3012074629465739,-0.019802214577794,,,,,,,,,,,,1.6886862642238546e+18,61.699854541015625,-12.783159828186037,42.12171936035156,5.69739990234375,1.6886862642238546e+18,61.699854541015625,-268.1291442871094,137.14751586914062,-127.02639770507812,1.6886862642232394e+18,61.69923933919271,-0.6753573417663574,0.7348876198132833,0.0537113534907499,0.0306726855536301,2.201564073562622,1.4246208270390828,0.9727006355921428
1.75,1.6886862642751593e+18,61.75115934244792,0.0873344540596008,0.0483881632486978,0.3498046994209289,1.688686264266501e+18,61.742500976562496,-0.6338985860347748,-9.67956574757894,-0.7054838538169861,1.6886862642751593e+18,61.75115934244792,-0.822592576344808,-9.7034699122111,-1.183978001276652,1.688686264270834e+18,61.74683390299479,0.0678569469600915,0.2944879531860351,0.1304197336236635,1.688686264270834e+18,61.74683390299479,0.0669406509647766,0.2990185419718423,0.1328631912668545,,,,,,,,,,,,1.688686264273847e+18,61.7498470703125,-13.26139965057373,41.870399475097656,6.056079864501953,1.688686264273847e+18,61.7498470703125,-268.6073852539063,136.8961944580078,-126.66771697998048,1.6886862642751593e+18,61.75115934244792,-0.6763221224149069,0.7335937817891439,0.0613504027326901,0.0256954537083704,2.1779517332712808,1.4232935508092244,1.0142081379890442
1.8,1.688686264327073e+18,61.80307299804687,-0.1174865961074829,0.0227607091267903,-0.0563896497090657,1.688686264318419e+18,61.79441886393229,-0.9156534671783448,-9.715856870015465,-1.130409280459086,1.688686264327073e+18,61.80307299804687,-0.7673229177792867,-9.708351453145346,-1.1811736822128296,1.688686264322746e+18,61.79874593098958,-0.0170024154552568,0.019954932310308,0.089339043945074,1.688686264322746e+18,61.79874593098958,-0.0179696191723147,0.0245364218329389,0.0918334101637203,,,,,,,,,,,,1.6886862643238513e+18,61.799851220703125,-13.710359573364258,41.565399169921875,6.334239959716797,1.6886862643238513e+18,61.799851220703125,-269.0563598632813,136.59119567871093,-126.38955841064453,1.688686264327073e+18,61.80307299804687,-0.6784792542457581,0.7315076986948649,0.0632880876461664,0.0235977936536073,2.146894693374634,1.4267185926437378,1.0509827931722004
1.85,1.6886862643789908e+18,61.85499088541667,0.0014964342117309,0.0262896219889322,-0.2060835758845011,1.6886862643703337e+18,61.846333902994786,-0.7353941599527994,-9.688139915466309,-1.3032907247543335,1.6886862643789908e+18,61.85499088541667,-0.7582899530728658,-9.709686915079752,-1.1760461330413818,1.6886862643746644e+18,61.850664550781254,0.0021380285422006,0.0809396430850028,0.0132354141775673,1.6886862643746644e+18,61.850664550781254,0.0012217302185793,0.0854193220535913,0.0156788745274145,,,,,,,,,,,,1.6886862643738476e+18,61.849847753906246,-13.834799766540527,41.731319427490234,6.219559860229492,1.6886862643738476e+18,61.849847753906246,-269.1807922363281,136.75711669921876,-126.50423736572266,1.6886862643789908e+18,61.85499088541667,-0.678847074508667,0.7311493357022604,0.0637870505452155,0.0227566721538702,2.1434969107309976,1.4276683727900188,1.056278904279073
1.9,1.6886862644309046e+18,61.906904622395835,-0.0534608960151672,0.0492486953735351,-0.1101455688476562,1.6886862644222513e+18,61.89825122070312,-0.783250610033671,-9.691529909769692,-1.265204985936483,1.6886862644309046e+18,61.906904622395835,-0.7452070116996765,-9.709116299947103,-1.1890329122543335,1.6886862644265782e+18,61.90257828776041,0.0442877300083637,0.1537344207366307,0.0495309891800085,1.6886862644265782e+18,61.90257828776041,0.0433205266793568,0.1583159118890761,0.0520253566404183,1.688686264405e+18,61.881,0.0,0.4941950440406799,0.9427126049995422,9.758000373840332,0.0265569649636745,0.0,40.20000076293945,-122.7531726,49.1902085,1.6886862644238515e+18,61.89985170898437,-13.451720046997073,41.83379898071289,6.304959869384765,1.6886862644238515e+18,61.89985170898437,-268.79771118164064,136.8595977783203,-126.41883697509766,1.6886862644309046e+18,61.906904622395835,-0.6794062455495199,0.7304019729296366,0.0670351013541221,0.0206157844513654,2.130654573440552,1.4272612730662029,1.0767665306727092
1.95,1.6886862644741668e+18,61.950166748046875,-0.148197203874588,0.1407608985900878,0.0631856322288512,1.6886862644741673e+18,61.95016715494791,-0.867398202419281,-9.596614519755043,-1.0815558433532717,1.6886862644741668e+18,61.950166748046875,-0.7417967915534973,-9.707108974456789,-1.2074288725852966,1.6886862644784906e+18,61.95449072265625,0.0525853174428144,0.1366301923990249,0.0238746497780084,1.6886862644784906e+18,61.95449072265625,0.0515672080218791,0.1412116785844166,0.0263181111464897,,,,,,,,,,,,1.688686264473849e+18,61.94984907226562,-13.544439697265624,41.66055908203125,6.65143985748291,1.688686264473849e+18,61.94984907226562,-268.89044189453125,136.6863555908203,-126.07235870361328,1.6886862644741668e+18,61.950166748046875,-0.6795795261859894,0.7299985885620117,0.0700687393546104,0.019071826711297,2.121715545654297,1.425837516784668,1.0922038555145264
2.0,1.688686264517429e+18,61.99342895507812,-0.0243807236353555,-0.0268437067667642,0.044838269551595,1.6886862645260777e+18,62.00207771809895,-0.7290133039156595,-9.765906969706217,-1.1330015261967976,1.688686264517429e+18,61.99342895507812,-0.744177520275116,-9.705606460571287,-1.217994769414266,1.6886862645304095e+18,62.00640934244792,0.0069231395609676,0.1022690211733181,-0.022958352715553,1.6886862645304095e+18,62.00640934244792,0.0059559362319608,0.1068505123257636,-0.0205148912500589,,,,,,,,,,,,1.688686264523849e+18,61.999849023437505,-13.310199737548828,41.57027969360352,6.875919914245605,1.688686264523849e+18,61.999849023437505,-268.65619506835935,136.59607849121093,-125.8478790283203,1.688686264517429e+18,61.99342895507812,-0.6795295476913452,0.7298500537872314,0.0724422434965769,0.0176087220509846,2.119255304336548,1.4247812430063884,1.1001114050547285
2.05,1.6886862645693432e+18,62.04534334309896,0.1218528548876444,0.0516090393066406,-0.1384841203689575,1.688686264577996e+18,62.05399593098958,-0.6370890339215597,-9.63569704691569,-1.311865011850993,1.6886862645693432e+18,62.04534334309896,-0.7596034407615662,-9.704896291097006,-1.2141340970993042,1.6886862645736763e+18,62.04967626953125,-0.0080176065675913,0.0625373311340808,-0.0014508049935102,1.6886862645736763e+18,62.04967626953125,-0.0090102623216807,0.0671188198029994,0.0010690139606594,,,,,,,,,,,,1.6886862645738496e+18,62.04984975585937,-13.300439643859864,41.68983917236328,6.758799839019775,1.6886862645738496e+18,62.04984975585937,-268.646435546875,136.71563720703125,-125.96499786376953,1.6886862645693432e+18,62.04534334309896,-0.6789904634157816,0.7302398085594177,0.073929543296496,0.0160002335906028,2.129859526952108,1.4242833058039348,1.0939010381698608
2.1,1.6886862646212488e+18,62.09724886067708,-0.0008453329404195,0.0823017756144205,-0.2394390503565469,1.6886862646299095e+18,62.10590934244792,-0.7322037220001221,-9.66680431365967,-1.381256898244222,1.6886862646212488e+18,62.09724886067708,-0.7547518014907837,-9.706077893575031,-1.207695682843526,1.6886862646169326e+18,62.0929326171875,-0.021329378709197,-0.0316122776518265,0.0074830989663799,1.6886862646169326e+18,62.0929326171875,-0.0223474862674871,-0.0270307889829079,0.0099265601796408,,,,,,,,,,,,1.6886862646238482e+18,62.0998482421875,-13.703039932250975,41.35067977905273,6.968639945983886,1.6886862646238482e+18,62.0998482421875,-269.0490356445313,136.37647705078126,-125.75515747070312,1.6886862646212488e+18,62.09724886067708,-0.6791828870773315,0.7300730546315511,0.0739033371210098,0.0155593125770489,2.1293689409891763,1.4251112937927246,1.0949784914652507
2.15,1.6886862646731725e+18,62.14917252604167,0.1309118072191873,0.2057450612386067,-0.1318301359812418,1.6886862646731674e+18,62.149167236328125,-0.6382854282855988,-9.485148906707764,-1.2329018712043762,1.6886862646731725e+18,62.14917252604167,-0.7602875431378683,-9.7078857421875,-1.1894819736480713,1.6886862646688517e+18,62.144851399739586,-0.0763581531743208,-0.1032871305942535,-0.0360919553786515,1.6886862646688517e+18,62.144851399739586,-0.0772744541366894,-0.0987565492590268,-0.0334957782179116,,,,,,,,,,,,1.6886862646738468e+18,62.14984697265625,-13.358999633789065,41.4238784790039,6.597759819030761,1.6886862646738468e+18,62.14984697265625,-268.7049987792969,136.44967651367188,-126.12603759765624,1.6886862646731725e+18,62.14917252604167,-0.6789519985516866,0.730505088965098,0.0714971348643302,0.016538876419266,2.1395753224690757,1.426389217376709,1.079963644345601
2.2,1.6886862647250834e+18,62.20108357747396,0.0208474000295002,0.0109001795450846,-0.7066704432169596,1.6886862647164306e+18,62.19243090820313,-0.6815556486447653,-9.693922678629557,-1.6703896125157671,1.6886862647250834e+18,62.20108357747396,-0.7742511034011841,-9.71363925933838,-1.132089575131734,1.688686264720758e+18,62.19675797526042,-0.1513927727937697,-0.298102244734764,-0.0637845123807588,1.688686264720758e+18,62.19675797526042,-0.1523599723974863,-0.2935716559489568,-0.061290144920349,,,,,,,,,,,,1.6886862647238487e+18,62.19984877929687,-13.490759658813475,41.5312385559082,6.124399852752686,1.6886862647238487e+18,62.19984877929687,-268.8367553710938,136.55703430175782,-126.59939727783204,1.6886862647250834e+18,62.20108357747396,-0.6783734758694967,0.7315948009490967,0.0650097106893857,0.0185870360583066,2.1707122325897217,1.4305246671040852,1.036706765492757
2.25,1.688686264777001e+18,62.253000732421874,-0.0553319851557414,0.0944217046101887,-0.6872851451237997,1.688686264768348e+18,62.244347737630214,-0.8929216464360555,-9.629914919535318,-1.8293129205703735,1.688686264777001e+18,62.253000732421874,-0.7720498045285543,-9.715804735819498,-1.1149843136469524,1.688686264772678e+18,62.248677897135416,-0.0529416538774967,-0.5154175559679667,-0.0446440670639275,1.688686264772678e+18,62.248677897135416,-0.0539088584482669,-0.5108360548814138,-0.0422006081789731,,,,,,,,,,,,1.688686264773855e+18,62.24985507812501,-13.31507987976074,41.82647933959961,5.7217999458312985,1.688686264773855e+18,62.24985507812501,-268.66107177734375,136.85227661132814,-127.0019989013672,1.688686264777001e+18,62.253000732421874,-0.678200344244639,0.732300857702891,0.0554876811802386,0.0262127940853436,2.176435947418213,1.432108203570048,1.0066618124643962
2.3,1.688686264828921e+18,62.30492114257813,0.0552549958229064,-0.0658782323201497,0.1266667246818542,1.6886862648202609e+18,62.29626090494792,-0.724427064259847,-9.788638750712076,-1.06759770711263,1.688686264828921e+18,62.30492114257813,-0.8016796112060547,-9.710639635721842,-1.1387065251668294,1.6886862648245914e+18,62.30059138997396,0.0447458792477845,-0.2103412722547849,-0.1154026240110396,1.6886862648245914e+18,62.30059138997396,0.0437786765396594,-0.2057597736517588,-0.1129082565506299,,,,,,,,,,,,1.688686264823847e+18,62.29984692382813,-13.166239738464355,41.911878967285155,5.37043981552124,1.688686264823847e+18,62.29984692382813,-268.5122314453125,136.93768005371095,-127.35335998535156,1.688686264828921e+18,62.30492114257813,-0.6767897009849548,0.7337373296419779,0.0498962240914503,0.033073391765356,2.1841856638590493,1.4283583561579387,0.9812601606051128
2.35,1.6886862648808271e+18,62.3568272298177,0.0414478778839111,-0.1093304951985676,0.6445082624753317,1.6886862648721784e+18,62.34817838541667,-0.791027287642161,-9.841480255126951,-0.50907301902771,1.6886862648808271e+18,62.3568272298177,-0.8484906752904257,-9.703877131144203,-1.1622308095296223,1.688686264876505e+18,62.35250553385416,0.052738033235073,-0.0036651914318402,-0.0910189226269721,1.688686264876505e+18,62.35250553385416,0.0517199250559011,0.0009162980131805,-0.0885754625002542,,,,,,,,,,,,1.688686264873849e+18,62.3498490234375,-13.005199813842774,41.94847946166992,5.18499984741211,1.688686264873849e+18,62.3498490234375,-268.3511962890625,136.97427978515626,-127.53879852294922,1.6886862648808271e+18,62.3568272298177,-0.6749405860900879,0.7353620926539103,0.0498876733084519,0.0347651702662308,2.2013829549153647,1.4235782623291016,0.9616555571556092
2.4,1.688686264924093e+18,62.40009313964844,-0.1330923736095428,-0.0244784355163574,0.6611282825469971,1.6886862649240876e+18,62.40008780924479,-0.9910273750623068,-9.750353495279947,-0.4636093874772389,1.688686264924093e+18,62.40009313964844,-0.8702616095542908,-9.701590538024902,-1.1652914881706238,1.6886862649284155e+18,62.404415690104166,-0.0262672062963247,-0.1251764719684918,-0.011555534787476,1.6886862649284155e+18,62.404415690104166,-0.0272853141650557,-0.1205949808160463,-0.0090611685688296,1.688686264922824e+18,62.39882397460938,0.0,0.4424331188201904,0.9482789039611816,9.633000373840332,0.0143103990703821,0.0,40.20000076293945,-122.7531724,49.1902082,1.688686264923851e+18,62.399850976562504,-13.041799545288086,41.85087890625,5.6168797492980955,1.688686264923851e+18,62.399850976562504,-268.38779296875,136.87667846679688,-127.10691833496094,1.688686264924093e+18,62.40009313964844,-0.6740736663341522,0.7361617386341095,0.0492107812315225,0.0356178805232047,2.212269186973572,1.4219932556152344,0.9486009478569032
2.45,1.6886862649673551e+18,62.44335514322916,-0.1691240270932515,-0.0333321889241536,0.3064293265342712,1.6886862649760064e+18,62.45200634765624,-0.9613164861996968,-9.73719278971354,-0.8131608963012695,1.6886862649673551e+18,62.44335514322916,-0.8520763913790385,-9.705498695373535,-1.1459864775339763,1.6886862649803318e+18,62.45633178710938,-0.0462221385290224,-0.1784235586722691,0.0188350115592281,1.6886862649803318e+18,62.45633178710938,-0.0471893393745024,-0.1738420650362968,0.0213293783987561,,,,,,,,,,,,1.688686264973847e+18,62.449846875000006,-12.995439720153808,42.12903900146485,5.382639789581299,1.688686264973847e+18,62.449846875000006,-268.3414367675781,137.15484008789062,-127.34115753173828,1.6886862649673551e+18,62.44335514322916,-0.6746444503466288,0.7357756098111471,0.0454033302764097,0.0377528940637905,2.2101406256357827,1.424708644549052,0.9423020680745444
2.5,1.6886862650192653e+18,62.49526529947917,0.0448372960090637,-0.0571279525756835,0.1350217858950296,1.6886862650279227e+18,62.50392277018229,-0.8009973764419556,-9.801799138387045,-0.9625129103660583,1.6886862650192653e+18,62.49526529947917,-0.8520794908205668,-9.706827481587728,-1.1346986691157024,1.6886862650235976e+18,62.499597412109374,0.0013744467869401,0.061239241156727,-0.0502436663955449,1.6886862650235976e+18,62.499597412109374,0.0003054325934499,0.0658207302913069,-0.0478002056479453,,,,,,,,,,,,1.688686265023847e+18,62.49984682617187,-12.861239624023437,42.16319885253906,5.199639797210693,1.688686265023847e+18,62.49984682617187,-268.2072326660156,137.18899841308593,-127.52415618896484,1.6886862650192653e+18,62.49526529947917,-0.6745810310045878,0.73590221007665,0.0433208098014195,0.0388771494229634,2.214883248011271,1.425638755162557,0.9330117702484132
2.55,1.6886862650711816e+18,62.54718155924479,0.0823009014129638,-0.0756212870279947,-0.0328971147537231,1.688686265079833e+18,62.55583308919271,-0.7878368695576986,-9.783254941304524,-1.1363913615544636,1.6886862650711816e+18,62.54718155924479,-0.874388575553894,-9.7046848932902,-1.1360719601313274,1.6886862650668585e+18,62.542858642578125,0.0247400430962442,0.1472694277763366,-0.0119627779349684,1.6886862650668585e+18,62.542858642578125,0.0236710278938213,0.1518509189287821,-0.0094684110954403,,,,,,,,,,,,1.6886862650738506e+18,62.54985063476563,-13.124759674072266,41.960679626464845,5.2899199485778805,1.6886862650738506e+18,62.54985063476563,-268.470751953125,136.98648071289062,-127.43387756347656,1.6886862650711816e+18,62.54718155924479,-0.6738566557566324,0.7365267674128214,0.0457573123276233,0.0367524983982244,2.226767142613729,1.4241358439127605,0.9275951782862344
2.6,1.6886862651230986e+18,62.599098714192706,-0.014671524365743,-0.021834373474121,-0.067115306854248,1.688686265123099e+18,62.59909887695312,-0.8754739761352539,-9.74596643447876,-1.1688938736915588,1.6886862651230986e+18,62.599098714192706,-0.8633583585421244,-9.703636487325031,-1.1532994508743286,1.6886862651187753e+18,62.59477522786458,0.042709662268559,0.051770830914999,0.0466293804347514,1.6886862651187753e+18,62.59477522786458,0.0417424589395522,0.0563523198167482,0.0491237478951612,,,,,,,,,,,,1.6886862651238515e+18,62.59985146484375,-12.597719764709472,42.04851913452149,5.292359828948975,1.6886862651238515e+18,62.59985146484375,-267.9437194824219,137.0743194580078,-127.43143920898436,1.6886862651230986e+18,62.599098714192706,-0.6743298768997192,0.7359898686408997,0.0481967491408188,0.0357077357669671,2.213409503300985,1.4234065214792888,0.9458948969841005
2.65,1.688686265175014e+18,62.65101391601562,-0.1440458099047342,0.0742772420247395,0.1340633630752563,1.6886862651663578e+18,62.642357747395835,-0.9533404310544332,-9.659226735432943,-0.9818548957506816,1.688686265175014e+18,62.65101391601562,-0.8326879938443502,-9.705032666524252,-1.1640493472417195,1.688686265170685e+18,62.646685058593754,0.0091629784243802,-0.021431189108019,0.0671951758364836,1.688686265170685e+18,62.646685058593754,0.0082466810320814,-0.0168496995853881,0.0696895420551299,,,,,,,,,,,,1.6886862651738468e+18,62.649846875,-12.983239936828614,41.97287979125976,5.5021998405456545,1.6886862651738468e+18,62.649846875,-268.3292297363281,136.9986785888672,-127.22159576416016,1.688686265175014e+18,62.65101391601562,-0.6754626433054606,0.7349093357721964,0.0484656132757663,0.0361845319469769,2.19172732035319,1.4243789116541543,0.9672802090644836
2.7,1.6886862652269263e+18,62.70292651367187,-0.2935480078061421,0.141525904337565,-0.0124885241190592,1.688686265218272e+18,62.69427205403645,-1.091924746831258,-9.584849993387856,-1.071585734685262,1.6886862652269263e+18,62.70292651367187,-0.8183802564938863,-9.707276026407875,-1.1554834842681885,1.6886862652226004e+18,62.69860026041667,-0.0290160992493231,-0.012929980798314,0.0019344064639881,1.6886862652226004e+18,62.69860026041667,-0.030034207428495,-0.0083484918577597,0.0044287733423213,,,,,,,,,,,,1.688686265223846e+18,62.6998458984375,-13.149159622192382,41.897239685058594,5.55831995010376,1.688686265223846e+18,62.6998458984375,-268.4951599121094,136.92303771972655,-127.165478515625,1.6886862652269263e+18,62.70292651367187,-0.6760160724322001,0.7344380815823873,0.0480853257079918,0.0359267480671405,2.187053600947062,1.4259546995162964,0.9717801610628763
2.75,1.688686265278842e+18,62.75484204101562,0.0699538588523864,-0.0364472071329752,-0.0398246049880981,1.6886862652701908e+18,62.74619067382813,-0.8644071618715922,-9.725428263346354,-1.1447662115097046,1.688686265278842e+18,62.75484204101562,-0.8432977596918741,-9.70716921488444,-1.1383169492085774,1.6886862652745175e+18,62.750517333984384,-0.038637226447463,-0.0715221396336952,-0.0670424612859884,1.6886862652745175e+18,62.750517333984384,-0.0396044291555881,-0.0669406509647766,-0.0645480938255786,,,,,,,,,,,,1.688686265273849e+18,62.749849121093746,-12.961279678344727,41.95091934204102,5.331399822235108,1.688686265273849e+18,62.749849121093746,-268.307275390625,136.97671813964843,-127.39239807128908,1.688686265278842e+18,62.75484204101562,-0.6750409603118896,0.735429584980011,0.0460914994279543,0.0365822948515415,2.2083986600240073,1.4258795181910198,0.9466786583264668
2.8,1.6886862653307569e+18,62.806756998697914,0.2174602349599202,-0.0069669087727864,0.0198580423990885,1.6886862653221028e+18,62.79810294596354,-0.559122900168101,-9.74477005004883,-1.0101699829101562,1.6886862653307569e+18,62.806756998697914,-0.858999490737915,-9.707138061523438,-1.1268131335576377,1.6886862653264292e+18,62.80242919921875,-0.0087557349664468,0.1246165111660956,-0.0024943660828284,1.6886862653264292e+18,62.80242919921875,-0.0097229384506741,0.1291470900177954,2.3283063440201107e-10,,,,,,,,,,,,1.6886862653238444e+18,62.799844482421875,-13.161359786987305,42.01191864013672,5.189879894256592,1.6886862653238444e+18,62.799844482421875,-268.5073547363281,137.0377166748047,-127.53391876220704,1.6886862653307569e+18,62.806756998697914,-0.674525260925293,0.7359269261360168,0.0468304182092348,0.0351160789529481,2.2221481005350747,1.4258567889531453,0.9360557993253072
2.85,1.688686265374018e+18,62.85001782226563,-0.2274311780929565,-0.0164995193481445,-0.1794843077659606,1.6886862653740186e+18,62.850018473307294,-1.0123633742332458,-9.734201749165852,-1.2205389738082886,1.688686265374018e+18,62.85001782226563,-0.8471092581748962,-9.708971500396729,-1.119993269443512,1.688686265378343e+18,62.85434309895833,-0.0214820951223373,-0.1091921584059794,0.0352774672210216,1.688686265378343e+18,62.85434309895833,-0.0225002026806274,-0.1046615770707527,0.0377718340605497,,,,,,,,,,,,1.6886862653738511e+18,62.84985102539063,-12.990559577941896,42.09975891113281,5.065439987182617,1.6886862653738511e+18,62.84985102539063,-268.3365539550781,137.1255615234375,-127.65835723876953,1.688686265374018e+18,62.85001782226563,-0.6750152707099915,0.7354939579963684,0.0471605919301509,0.0343301594257354,2.21834945678711,1.4271569848060608,0.9414356350898744
2.9,1.6886862654172795e+18,62.89327962239583,0.191394547621409,-0.0098864237467448,-0.0495457251866658,1.688686265425931e+18,62.90193090820312,-0.5908277829488119,-9.752148310343424,-1.0807582537333171,1.6886862654172795e+18,62.89327962239583,-0.8357254068056742,-9.710001309712728,-1.1196227471033733,1.6886862654302618e+18,62.90626163736979,0.0061595579609274,-0.0665843139092127,-0.0221947704752285,1.6886862654302618e+18,62.90626163736979,0.0052432602581878,-0.0620028215150038,-0.0197513094171881,,,,,,,,,,,,1.6886862654238508e+18,62.89985083007813,-12.958839797973631,41.926519775390624,5.102039909362793,1.6886862654238508e+18,62.89985083007813,-268.304833984375,136.9523193359375,-127.62175750732422,1.6886862654172795e+18,62.89327962239583,-0.6753169695536295,0.7352664669354757,0.0444778067370255,0.0367595056692758,2.2120153109232583,1.427892764409383,0.9405214587847393
2.95,1.6886862654691963e+18,62.94519661458333,0.0828209320704142,-0.0196987787882486,0.0538165171941121,1.6886862654778514e+18,62.953851481119784,-0.7852446238199869,-9.739386558532717,-1.0117652018864949,1.6886862654691963e+18,62.94519661458333,-0.8390162388483683,-9.708763122558594,-1.1278703212738037,1.6886862654735237e+18,62.94952368164063,0.0224492978304624,0.0718530230224132,0.0173333012498914,1.6886862654735237e+18,62.94952368164063,0.021456642076373,0.0764345135539769,0.0198531202040612,,,,,,,,,,,,1.688686265473851e+18,62.94985112304687,-12.990559768676755,41.99483871459961,5.0215198516845705,1.688686265473851e+18,62.94985112304687,-268.3365539550781,137.02063903808593,-127.70227661132812,1.6886862654691963e+18,62.94519661458333,-0.6751834750175476,0.7353540460268656,0.0449169948697089,0.0369316016634304,2.2103851636250815,1.4270087083180745,0.9425309499104818
3.0,1.6886862655211067e+18,62.99710660807292,0.0396487116813659,-0.0280682245890299,0.1475188533465067,1.688686265529763e+18,63.005763020833335,-0.7667002479235331,-9.74038314819336,-0.8885348041852316,1.6886862655211067e+18,62.99710660807292,-0.8263525168100992,-9.708568890889486,-1.1388208468755086,1.6886862655167846e+18,62.99278458658855,0.029372436304887,-0.0107919524307361,0.0333430611838896,1.6886862655167846e+18,62.99278458658855,0.0283543293674786,-0.0062613687478005,0.035837427402536,,,,,,,,,,,,1.6886862655238464e+18,62.99984633789062,-12.870999717712404,41.98019866943359,4.894639873504639,1.6886862655238464e+18,62.99984633789062,-268.2169921875,137.00599975585936,-127.82915802001952,1.6886862655211067e+18,62.99710660807292,-0.6756565173467001,0.7348703344662985,0.0456452307601769,0.0370170660316943,2.1985179583231607,1.4268696308135986,0.9553083380063376
3.05,1.688686265573024e+18,63.049024251302086,-0.0177696545918782,-0.0398801167805989,0.3281359871228536,1.6886862655816773e+18,63.05767732747396,-0.852841873963674,-9.759725252787272,-0.7772685488065084,1.688686265573024e+18,63.049024251302086,-0.8060229221979777,-9.70892079671224,-1.1503451665242512,1.688686265568698e+18,63.04469799804687,0.0341066432495911,0.1217658047874768,0.0447967847188313,1.688686265568698e+18,63.04469799804687,0.0331394392997025,0.1263472984234491,0.0472402442246675,,,,,,,,,,,,1.688686265573848e+18,63.049848046875,-12.529399871826172,42.01679916381836,5.143519878387451,1.688686265573848e+18,63.049848046875,-267.8754028320312,137.0425994873047,-127.5802764892578,1.688686265573024e+18,63.049024251302086,-0.6764688889185587,0.7340511878331503,0.047436154137055,0.0361573646465936,2.1819872856140137,1.427120327949524,0.9755984942118326
3.1,1.6886862656249372e+18,63.10093693033854,-0.0914464394251505,0.0243571599324543,0.0174675583839416,1.6886862656249354e+18,63.10093542480469,-0.8976075947284698,-9.706186294555664,-1.0845468640327454,1.6886862656249372e+18,63.10093693033854,-0.8065236409505209,-9.708950360616049,-1.1497466961542766,1.688686265620618e+18,63.09661767578125,0.0015271631224702,0.1033380379279454,0.0085012082320947,1.688686265620618e+18,63.09661767578125,0.0005599597158531,0.1079195290803909,0.0109446691349148,,,,,,,,,,,,1.6886862656238513e+18,63.09985122070312,-13.71035976409912,41.98507919311523,5.585159969329834,1.6886862656238513e+18,63.09985122070312,-269.0563537597656,137.01087646484376,-127.13863677978516,1.6886862656249372e+18,63.10093693033854,-0.676571249961853,0.7339035669962565,0.0499293133616446,0.0338183778027693,2.182523012161255,1.4271413087844849,0.9819139440854392
3.15,1.6886862656768504e+18,63.152850423177085,0.0133070349693298,0.0813728968302408,-0.1285232305526733,1.6886862656682035e+18,63.14420353190104,-0.7770691514015198,-9.659825007120768,-1.2283156712849934,1.6886862656768504e+18,63.152850423177085,-0.7996120452880859,-9.709336280822754,-1.1513132651646931,1.688686265672529e+18,63.14852888997396,0.011351912592848,0.0545197216173012,0.0298305867860713,1.688686265672529e+18,63.14852888997396,0.0103847091086208,0.0591012115279833,0.0322740469127892,,,,,,,,,,,,1.6886862656738511e+18,63.14985112304687,-13.405359840393066,42.02656021118164,5.460719871520996,1.6886862656738511e+18,63.14985112304687,-268.7513488769531,137.05235595703124,-127.26307830810546,1.6886862656768504e+18,63.152850423177085,-0.6768798033396403,0.7335827946662903,0.0511017901202042,0.032839011400938,2.17784317334493,1.42741596698761,0.9896448055903116
3.2,1.688686265728766e+18,63.204766031901045,-0.0481893022855122,0.0056063334147135,0.009076436360677,1.6886862657201124e+18,63.196112630208326,-0.8331010937690735,-9.706883748372396,-1.091525912284851,1.688686265728766e+18,63.204766031901045,-0.7937488357226054,-9.709342320760092,-1.1553136905034382,1.6886862657244447e+18,63.200444580078134,0.0110464797665674,0.0868446752429008,0.00687223377948,1.6886862657244447e+18,63.200444580078134,0.0101301820638278,0.0914261639118194,0.0093666004637877,,,,,,,,,,,,1.6886862657238492e+18,63.19984907226562,-13.50051975250244,41.96067886352539,5.6485998153686525,1.6886862657238492e+18,63.19984907226562,-268.8465209960938,136.986474609375,-127.07519836425782,1.688686265728766e+18,63.204766031901045,-0.6771611968676249,0.7332602341969808,0.0527792746822038,0.0315629492203394,2.1727795600891113,1.4274214108784993,0.9988971749941508
3.25,1.688686265780683e+18,63.256683024088545,-0.0609980026880899,0.0450722376505533,0.0459197362263997,1.6886862657720312e+18,63.24803133138021,-0.8570292989412943,-9.686145782470703,-1.0596216122309368,1.688686265780683e+18,63.256683024088545,-0.8004815181096395,-9.70912742614746,-1.1524760325749714,1.6886862657763607e+18,63.25236100260417,-0.0061595577863044,0.0350738447159528,0.0017307844245806,1.6886862657763607e+18,63.25236100260417,-0.0072285719991971,0.0396553358683982,0.0042760570844014,,,,,,,,,,,,1.688686265773849e+18,63.24984897460938,-13.5127197265625,41.99239883422852,5.50463981628418,1.688686265773849e+18,63.24984897460938,-268.85870361328125,137.01819763183593,-127.21915740966796,1.688686265780683e+18,63.256683024088545,-0.6769593159357706,0.7334209680557251,0.0537869843343893,0.0304431567589441,2.1778781414031982,1.4272677501042683,0.9968152046203612
