seconds_elapsed_rounded,accelerometer_time,accelerometer_seconds_elapsed,accelerometer_z,accelerometer_y,accelerometer_x,accelerometeruncalibrated_time,accelerometeruncalibrated_seconds_elapsed,accelerometeruncalibrated_z,accelerometeruncalibrated_y,accelerometeruncalibrated_x,gravity_time,gravity_seconds_elapsed,gravity_z,gravity_y,gravity_x,gyroscope_time,gyroscope_seconds_elapsed,gyroscope_z,gyroscope_y,gyroscope_x,gyroscopeuncalibrated_time,gyroscopeuncalibrated_seconds_elapsed,gyroscopeuncalibrated_z,gyroscopeuncalibrated_y,gyroscopeuncalibrated_x,location_time,location_seconds_elapsed,location_bearingAccuracy,location_speedAccuracy,location_verticalAccuracy,location_horizontalAccuracy,location_speed,location_bearing,location_altitude,location_longitude,location_latitude,magnetometer_time,magnetometer_seconds_elapsed,magnetometer_z,magnetometer_y,magnetometer_x,magnetometeruncalibrated_time,magnetometeruncalibrated_seconds_elapsed,magnetometeruncalibrated_z,magnetometeruncalibrated_y,magnetometeruncalibrated_x,orientation_time,orientation_seconds_elapsed,orientation_qz,orientation_qy,orientation_qx,orientation_qw,orientation_roll,orientation_pitch,orientation_yaw
0.0,1.6886866189268833e+18,90.00088342285156,-0.0585779547691344,-0.0203795433044432,-0.0250424146652221,1.6886866189268833e+18,90.00088342285156,-0.6750750839710236,-9.267102718353271,3.304188966751098,1.6886866189268833e+18,90.00088342285156,-0.6223431527614594,-9.229218482971191,3.266543984413147,1.6886866189312105e+18,90.00521053059896,-0.001781690288529,-0.0792088607947031,0.0656680141886075,1.6886866189312105e+18,90.00521053059896,-0.0028507044771685,-0.0746273721257845,0.0680096646149953,1.688686618927091e+18,90.00109106445312,0.0,0.4598303437232971,0.8732473254203796,6.60699987411499,0.0087203318253159,0.0,40.30000305175781,-122.7531521,49.1903768,1.6886866189288837e+18,90.00288374023437,20.23979949951172,38.237239074707034,-21.864839553833008,1.6886866189288837e+18,90.00288374023437,-235.10619506835937,133.263037109375,-154.58863525390626,1.6886866189268833e+18,90.00088342285156,-0.253372699022293,0.0285137919709086,-0.7286340594291687,0.6356740295886993,-1.7590652704238892,1.224973440170288,2.1665611267089844
0.05,1.6886866189701455e+18,90.0441454264323,0.0426814357439676,-0.0453109741210937,0.0209771792093912,1.6886866189701455e+18,90.0441454264323,-0.5706882079442342,-9.29332415262858,3.3471601009368896,1.6886866189701455e+18,90.0441454264323,-0.6192156672477722,-9.23050848642985,3.2634955247243247,1.6886866189831242e+18,90.05712426757812,0.0088575462189812,-0.0743728429079055,0.0024434605923792,1.6886866189831242e+18,90.05712426757812,0.0077885317150502,-0.0697913542389869,0.0047851112904027,,,,,,,,,,,,1.6886866189788849e+18,90.05288491210936,20.034839248657228,38.071319580078125,-22.038079071044923,1.6886866189788849e+18,90.05288491210936,-235.3111541748047,133.09711608886718,-154.76187438964843,1.6886866189701455e+18,90.0441454264323,-0.2519405086835225,0.0270653615395227,-0.7285799582799276,0.6363681356112162,-1.7583132982254028,1.2253612677256267,2.1615734100341797
0.1,1.6886866190220562e+18,90.09605607096354,0.05204572280248,-0.0557702382405598,-0.0952883561452229,1.6886866190220562e+18,90.09605607096354,-0.5684947768847147,-9.306883494059244,3.2207392851511636,1.6886866190220562e+18,90.09605607096354,-0.6263865232467651,-9.233608563741049,3.253340244293213,1.688686619026384e+18,90.10038391113282,0.0279470849782228,-0.0324522163718938,0.0168751525925472,1.688686619026384e+18,90.10038391113282,0.0268780710175632,-0.0278707267716526,0.0192422561813144,,,,,,,,,,,,1.6886866190288886e+18,90.10288852539064,20.737559509277343,38.38852005004883,-21.91851959228516,1.6886866190288886e+18,90.10288852539064,-234.60843200683593,133.41431579589843,-154.64231872558594,1.6886866190220562e+18,90.09605607096354,-0.2506394386291503,0.026486987248063,-0.7288521329561869,0.6365947524706522,-1.761011242866516,1.226296106974284,2.1614847977956138
0.15,1.688686619073973e+18,90.14797290039064,-0.0302788416544596,-0.0216293334960937,0.0769115289052327,1.688686619073973e+18,90.14797290039064,-0.6380860408147176,-9.28195858001709,3.3690943717956543,1.688686619073973e+18,90.14797290039064,-0.6136532227198283,-9.24282455444336,3.2294954458872476,1.6886866190696417e+18,90.14364143880208,0.055436020096143,-0.0899499046305815,0.0620537263651688,1.6886866190696417e+18,90.14364143880208,0.0543670083085695,-0.0854702281455198,0.064344473183155,,,,,,,,,,,,1.688686619078887e+18,90.15288686523436,20.861999893188475,38.53979949951171,-21.598879623413087,1.688686619078887e+18,90.15288686523436,-234.48399353027344,133.5656005859375,-154.3226776123047,1.688686619073973e+18,90.14797290039064,-0.248726725578308,0.025988026211659,-0.7284246484438578,0.6378528475761414,-1.7585776249567668,1.2290897369384766,2.155422369639078
0.2,1.6886866191258816e+18,90.19988159179688,0.2119793693224589,0.2127714157104492,0.2567684650421142,1.6886866191258816e+18,90.19988159179688,-0.3866402606169383,-9.05862840016683,3.5188450813293457,1.6886866191258816e+18,90.19988159179688,-0.6044656833012899,-9.253895123799644,3.1993892192840576,1.6886866191215567e+18,90.19555688476562,0.058439441025257,-0.0236201249063015,0.0333939666549364,1.6886866191215567e+18,90.19555688476562,0.0573704292376835,-0.0190386331329743,0.0357356170813242,,,,,,,,,,,,1.6886866191288847e+18,90.20288486328124,20.574079513549805,38.57151870727539,-21.323159790039064,1.6886866191288847e+18,90.20288486328124,-234.77191467285155,133.59732055664062,-154.0469543457031,1.6886866191258816e+18,90.19988159179688,-0.2464184463024139,0.0255877133458852,-0.7281173268953959,0.6391151746114095,-1.7575300931930542,1.2324726184209187,2.150294860204061
0.25,1.6886866191777935e+18,90.25179370117188,-0.208148698012034,0.0754025777180989,0.1256092389424641,1.6886866191777935e+18,90.25179370117188,-0.760917603969574,-9.200403213500977,3.3832518259684243,1.6886866191777935e+18,90.25179370117188,-0.5586149295171102,-9.25830109914144,3.1949551900227866,1.6886866191734618e+18,90.24746166992186,0.0050905436898271,0.156941458582878,0.061391957104206,1.6886866191734618e+18,90.24746166992186,0.0040724345793326,0.1614211400349934,0.0636827014386653,,,,,,,,,,,,1.6886866191788864e+18,90.25288647460935,20.264199829101564,38.449519348144534,-21.772119522094727,1.6886866191788864e+18,90.25288647460935,-235.08179321289063,133.4753173828125,-154.49591369628905,1.6886866191777935e+18,90.25179370117188,-0.2485207170248031,0.0276377486685911,-0.7264353632926941,0.6401281754175822,-1.7438944975535076,1.2338275512059529,2.1426886717478433
0.3,1.6886866192296983e+18,90.30369840494792,-0.31862074136734,0.0566024780273436,0.0320362250010171,1.6886866192296983e+18,90.30369840494792,-0.8498508532842001,-9.218748092651367,3.2947173913319907,1.6886866192296983e+18,90.30369840494792,-0.5370761354764303,-9.257845878601074,3.1999937693277993,1.6886866192253816e+18,90.29938142903649,-0.0082975860374668,-0.0408770653108755,0.0263690169279773,1.6886866192253816e+18,90.29938142903649,-0.0093156953031817,-0.0363464814921219,0.0287106661126017,,,,,,,,,,,,1.6886866192288852e+18,90.30288520507813,19.89087905883789,38.630079650878905,-21.50371971130371,1.6886866192288852e+18,90.30288520507813,-235.45511474609376,133.65587768554687,-154.2275146484375,1.6886866192296983e+18,90.30369840494792,-0.249291107058525,0.027790809671084,-0.7256734569867452,0.6406866510709127,-1.737086256345113,1.2336877187093098,2.1372366746266684
0.35,1.688686619281618e+18,90.35561800130208,-0.0033873518308003,0.062183380126953,-0.0052900314331054,1.688686619281618e+18,90.35561800130208,-0.5599204997221628,-9.211370468139648,3.2582267920176187,1.688686619281618e+18,90.35561800130208,-0.5623791813850403,-9.256049156188968,3.2008294264475503,1.6886866192772936e+18,90.35129361979166,-0.0063631797481017,-0.1289434731006622,-0.0255545289255678,1.6886866192772936e+18,90.35129361979166,-0.0074321937669688,-0.1244128867983818,-0.0232128789648413,,,,,,,,,,,,1.6886866192788864e+18,90.352886328125,20.36180000305176,38.78867874145508,-21.496399307250975,1.6886866192788864e+18,90.352886328125,-234.98419799804688,133.8144775390625,-154.2201934814453,1.688686619281618e+18,90.35561800130208,-0.2471701502799987,0.02570116892457,-0.7266381581624349,0.6405018170674642,-1.7447200218836467,1.2331343094507854,2.138728062311808
0.4,1.6886866193335276e+18,90.4075275065104,0.271961897611618,-0.0741281509399413,-0.0553702513376871,1.6886866193335276e+18,90.4075275065104,-0.3104687333106994,-9.348957379659018,3.1998020807902017,1.6886866193335276e+18,90.4075275065104,-0.5882766842842102,-9.25732453664144,3.1924849351247153,1.6886866193292106e+18,90.40321069335936,0.0259108673781156,0.0245873276144266,-0.0426587555557489,1.6886866193292106e+18,90.40321069335936,0.0248418537278969,0.0291179108122984,-0.0402662009000778,,,,,,,,,,,,1.6886866193288806e+18,90.40288076171876,20.266639709472656,38.508079528808594,-21.45247917175293,1.6886866193288806e+18,90.40288076171876,-235.07935791015623,133.53387756347655,-154.17627563476563,1.6886866193335276e+18,90.4075275065104,-0.2461595286925633,0.0255950453380743,-0.7275498509407043,0.6398603320121765,-1.7530256509780884,1.2335271835327148,2.1453866958618164
0.45,1.68868661937679e+18,90.45078991699218,0.2132762819528579,0.0677194595336914,0.1615217924118041,1.68868661937679e+18,90.45078991699218,-0.3702893108129501,-9.21117067337036,3.404687523841858,1.68868661937679e+18,90.45078991699218,-0.5894116461277008,-9.261385440826416,3.18047833442688,1.688686619381114e+18,90.45511442057293,0.0314595599969227,0.1216639926036198,-0.0609338072439034,1.688686619381114e+18,90.45511442057293,0.0303905454153815,0.1262454862395922,-0.0586430641512075,,,,,,,,,,,,1.688686619378884e+18,90.4528842285156,20.04947891235351,38.50075912475586,-21.493959808349608,1.688686619378884e+18,90.4528842285156,-235.29651489257813,133.52655639648438,-154.21775817871094,1.68868661937679e+18,90.45078991699218,-0.247376725077629,0.0279399557039141,-0.7275035679340363,0.6393452882766724,-1.7540448307991028,1.23477965593338,2.1515743732452393
0.5,1.6886866194200522e+18,90.49405208333332,-0.0649270216623942,0.0166803995768228,0.0337572892506917,1.6886866194200522e+18,90.49405208333332,-0.6725825667381287,-9.2608216603597,3.27637243270874,1.6886866194200522e+18,90.49405208333332,-0.6135015686353048,-9.259997367858888,3.1799277464548745,1.688686619433027e+18,90.5070271809896,-0.0183768623198071,-0.1184060476953163,-0.0914261639118194,1.688686619433027e+18,90.5070271809896,-0.0194458769013483,-0.1138245562712351,-0.0891354208191235,,,,,,,,,,,,1.6886866194288842e+18,90.502884375,20.427679443359377,38.54467849731445,-21.46955986022949,1.6886866194288842e+18,90.502884375,-234.9183135986328,133.5704772949219,-154.193359375,1.6886866194200522e+18,90.49405208333332,-0.2480952541033426,0.0291659651945034,-0.7282986442248026,0.6381053924560547,-1.7613814274470012,1.2343509991963704,2.1617714564005532
0.55,1.688686619471964e+18,90.5459639485677,-0.0099344452222188,0.0705254872639974,-0.0573628743489582,1.688686619471964e+18,90.5459639485677,-0.6711867451667786,-9.202596346537272,3.1872398058573403,1.688686619471964e+18,90.5459639485677,-0.66709832350413,-9.255617141723633,3.181915283203125,1.688686619476291e+18,90.550291015625,-0.0120645889546721,-0.2020436748862266,0.0608574482612312,1.688686619476291e+18,90.550291015625,-0.013133602682501,-0.1974621899425983,0.0632245517335832,,,,,,,,,,,,1.6886866194788849e+18,90.55288466796875,20.993759536743163,38.42999954223633,-21.249959564208982,1.6886866194788849e+18,90.55288466796875,-234.35223693847655,133.45579528808594,-153.9737548828125,1.688686619471964e+18,90.5459639485677,-0.2448205798864363,0.0260693952441215,-0.7302881479263306,0.6372284690539042,-1.7774587869644165,1.233000675837199,2.1685734589894614
0.6,1.6886866195238766e+18,90.59787662760418,-0.1351503729820251,0.0474363962809244,-0.0550829569498697,1.6886866195238766e+18,90.59787662760418,-0.7459624608357748,-9.226325352986654,3.197808027267456,1.6886866195238766e+18,90.59787662760418,-0.6166581114133199,-9.25625705718994,3.190203587214152,1.6886866195195505e+18,90.59355053710938,-0.0262672050545612,0.0309505062177776,0.1125010189910729,1.6886866195195505e+18,90.59355053710938,-0.0273362199465433,0.0355319951971371,0.1148426632086435,,,,,,,,,,,,1.6886866195288911e+18,90.60289130859374,20.8839599609375,38.376319122314456,-21.12795944213867,1.6886866195288911e+18,90.60289130859374,-234.4620361328125,133.40211791992186,-153.8517578125,1.6886866195238766e+18,90.59787662760418,-0.2445346315701801,0.0243440512567758,-0.7285863359769186,0.6393526395161947,-1.7617448170979817,1.2331977287928264,2.149911403656006
0.65,1.6886866195757878e+18,90.64978784179686,-0.1259411374727884,-0.075444221496582,-0.0092999935150146,1.6886866195757878e+18,90.64978784179686,-0.7645068168640137,-9.347960472106934,3.241676410039266,1.6886866195757878e+18,90.64978784179686,-0.6444117029507955,-9.255011558532717,3.188289006551107,1.68868661957146e+18,90.6454599609375,0.021329378709197,-0.0588975921273231,-0.1066468904415766,1.68868661957146e+18,90.6454599609375,0.0202603639724354,-0.0543161003539959,-0.1043052412569522,,,,,,,,,,,,1.6886866195788887e+18,90.652888671875,20.96935958862305,38.70572052001953,-21.227999877929687,1.6886866195788887e+18,90.652888671875,-234.37663879394532,133.7315185546875,-153.95179748535156,1.6886866195757878e+18,90.64978784179686,-0.2439032594362894,0.0241816192865371,-0.7295615077018738,0.6384867628415426,-1.770233194033305,1.2328144709269206,2.157252073287964
0.7,1.688686619627696e+18,90.70169612630208,-0.0225102504094441,0.0786034266153971,0.1078776518503824,1.688686619627696e+18,90.70169612630208,-0.7337989409764608,-9.192227363586426,3.348157008488973,1.688686619627696e+18,90.70169612630208,-0.7171347141265869,-9.253326098124186,3.1775919596354165,1.6886866196233756e+18,90.69737548828124,0.0033597589548056,-0.0992656013307471,-0.1368338167667388,1.6886866196233756e+18,90.69737548828124,0.0022907443005048,-0.0946841149125248,-0.134492166340351,,,,,,,,,,,,1.6886866196288865e+18,90.702886328125,21.07672004699707,38.25431900024414,-21.198719787597657,1.6886866196288865e+18,90.702886328125,-234.26927490234377,133.28011779785157,-153.92251586914062,1.688686619627696e+18,90.70169612630208,-0.2423105090856552,0.0242628672470648,-0.7320942282676697,0.6361860831578573,-1.7927505175272624,1.2322972218195598,2.177577177683512
0.75,1.688686619679613e+18,90.75361246744792,0.221686025460561,-0.0573498407999673,-0.2044723033905028,1.688686619679613e+18,90.75361246744792,-0.5599205096562704,-9.321440060933432,3.03888471921285,1.688686619679613e+18,90.75361246744792,-0.7874525586764017,-9.246585528055826,3.180669625600179,1.688686619675291e+18,90.74929077148435,-0.0293724369257687,-0.2083050509293874,-0.0222456759462753,1.688686619675291e+18,90.74929077148435,-0.0303905463467041,-0.2037235597769419,-0.0199040255198876,,,,,,,,,,,,1.6886866196788844e+18,90.75288432617188,21.698919677734377,38.45195999145508,-20.99863929748535,1.6886866196788844e+18,90.75288432617188,-233.64707641601564,133.47775573730468,-153.7224365234375,1.688686619679613e+18,90.75361246744792,-0.2388855566581089,0.0210815351456403,-0.7346363266309103,0.6346626877784729,-1.8134942452112832,1.2302331924438477,2.188736518224081
0.8,1.6886866197315213e+18,90.80552115885416,0.3007912039756774,-0.0842189788818358,-0.0198433399200439,1.6886866197315213e+18,90.80552115885416,-0.4713860650857289,-9.348758061726889,3.224527915318807,1.6886866197315213e+18,90.80552115885416,-0.7780233224232992,-9.247034390767416,3.1816838582356772,1.6886866197271954e+18,90.80119547526044,-0.0100283708889037,-0.1333722422520319,0.0862338095903396,1.6886866197271954e+18,90.80119547526044,-0.0110973852764194,-0.1288416634003321,0.0885245551665623,,,,,,,,,,,,1.6886866197288812e+18,90.8028810546875,21.630599594116212,38.48855972290039,-20.957159805297852,1.6886866197288812e+18,90.8028810546875,-233.71539611816405,133.5143585205078,-153.68095703125,1.6886866197315213e+18,90.80552115885416,-0.2360796779394149,0.0176258360346158,-0.7344010670979818,0.6360895037651062,-1.810628096262614,1.2303698857625325,2.176724116007487
0.85,1.6886866197834376e+18,90.8574376627604,0.1186441580454508,0.0433390935262043,0.0962728659311929,1.6886866197834376e+18,90.8574376627604,-0.6207380692164103,-9.224331219991049,3.339383363723755,1.6886866197834376e+18,90.8574376627604,-0.7452282508214315,-9.250165621439615,3.180423100789388,1.6886866197791132e+18,90.85311328125,0.0085521132374802,0.0900517168144384,0.041284310321013,1.6886866197791132e+18,90.85311328125,0.0074830992768207,0.094531395783027,0.0435750552763541,,,,,,,,,,,,1.688686619778887e+18,90.85288666992189,21.491519165039065,38.293359375,-20.96691970825195,1.688686619778887e+18,90.85288666992189,-233.85447692871097,133.31916198730468,-153.6907165527344,1.6886866197834376e+18,90.8574376627604,-0.2363928854465484,0.0176307248572508,-0.7332621812820435,0.6372859080632528,-1.800967772801717,1.2313268582026164,2.1674975554148355
0.9,1.6886866198266977e+18,90.90069750976562,-0.1333089470863342,0.041001796722412,-0.0013736486434936,1.6886866198266977e+18,90.90069750976562,-0.849452018737793,-9.227920532226562,3.243471145629883,1.6886866198266977e+18,90.90069750976562,-0.721989095211029,-9.251417636871338,3.182157397270202,1.6886866198310213e+18,90.90502115885418,-0.0004581489095774,0.0655152971545854,0.029525153338909,1.6886866198310213e+18,90.90502115885418,-0.0015271632000803,0.0699949755022922,0.0319177086154619,,,,,,,,,,,,1.688686619828884e+18,90.90288393554688,21.608639907836913,38.46903915405274,-21.062079620361327,1.688686619828884e+18,90.90288393554688,-233.7373565673828,133.49483947753907,-153.78587951660157,1.6886866198266977e+18,90.90069750976562,-0.2380094826221465,0.0190278012305497,-0.7324191927909851,0.6376139223575592,-1.7939124703407288,1.2317100763320925,2.164828419685364
0.95,1.688686619869954e+18,90.94395402018228,-0.1658929189046223,-0.017337163289388,-0.0265140533447265,1.688686619869954e+18,90.94395402018228,-0.865005373954773,-9.286743799845375,3.2207392851511636,1.688686619869954e+18,90.94395402018228,-0.7049584786097208,-9.251901944478352,3.1845659414927163,1.688686619882937e+18,90.95693701171876,-0.0115555344770351,-0.0941750574856996,0.0366010097786783,1.688686619882937e+18,90.95693701171876,-0.0125736429666478,-0.0896953834841648,0.0389426595841844,,,,,,,,,,,,1.6886866198788887e+18,90.95288862304687,21.820919799804688,38.48124008178711,-20.76927947998047,1.6886866198788887e+18,90.95288862304687,-233.52507934570312,133.5070373535156,-153.49307556152343,1.688686619869954e+18,90.94395402018228,-0.2381111731131871,0.018714999159177,-0.7318342328071594,0.6382563511530558,-1.7886561552683513,1.2318586508433025,2.15925923983256
1.0,1.688686619921868e+18,90.9958682454427,0.0701769391695657,0.0038509368896483,-0.0002488295237223,1.688686619921868e+18,90.9958682454427,-0.6376872261365255,-9.26520856221517,3.246063311894735,1.688686619921868e+18,90.9958682454427,-0.7137101888656616,-9.251554807027182,3.183624744415283,1.688686619926197e+18,91.00019702148438,0.0054977872641757,-0.0935387425124645,0.0058032197703141,1.688686619926197e+18,91.00019702148438,0.0045051309280097,-0.0890336111187934,0.0081703225150703,1.688686619927086e+18,91.00108618164064,0.0,0.4580408930778503,0.8836280703544617,6.501999855041504,0.0047216904349625,0.0,40.30000305175781,-122.753152,49.1903767,1.6886866199288883e+18,91.00288828125,21.58423957824707,38.4202392578125,-20.708279418945313,1.6886866199288883e+18,91.00288828125,-233.76175537109376,133.44603576660157,-153.43207397460938,1.688686619921868e+18,90.9958682454427,-0.236108640829722,0.0166149735450743,-0.73218967517217,0.6386505762736002,-1.7913385232289631,1.2317522764205933,2.1559578577677407
1.05,1.6886866199737836e+18,91.04778377278645,0.1762783130009968,0.0513439178466796,0.0048900445302327,1.6886866199737836e+18,91.04778377278645,-0.5533402363459269,-9.219147046407064,3.242075284322103,1.6886866199737836e+18,91.04778377278645,-0.7354645729064941,-9.252986272176107,3.1744978427886963,1.688686619969454e+18,91.04345410156252,0.0179696191723147,-0.0197004042565822,-0.0433205266793568,1.688686619969454e+18,91.04345410156252,0.0169006052116552,-0.0151189155876636,-0.0410297823448975,,,,,,,,,,,,1.688686619978887e+18,91.05288657226563,21.44271965026855,38.41535949707031,-20.76927986145019,1.688686619978887e+18,91.05288657226563,-233.9032775878906,133.441162109375,-153.49307556152343,1.6886866199737836e+18,91.04778377278645,-0.2348621835311253,0.0162064787000417,-0.732955813407898,0.6382419665654501,-1.7984668413798015,1.23219100634257,2.160658121109009
1.1,1.688686620025691e+18,91.09969083658854,0.1443020701408385,0.0250562032063801,0.1894648075103759,1.688686620025691e+18,91.09969083658854,-0.5792624751726786,-9.247461954752604,3.4221351941426597,1.688686620025691e+18,91.09969083658854,-0.7294105688730875,-9.255013465881348,3.16998298962911,1.68868662002137e+18,91.09536979166668,0.0199040258303284,0.1451823040843009,-0.0235692172621686,1.68868662002137e+18,91.09536979166668,0.018835011559228,0.1497128928701082,-0.0212784721516072,,,,,,,,,,,,1.688686620028889e+18,91.10288935546876,21.44271926879883,38.22503890991211,-20.78147964477539,1.688686620028889e+18,91.10288935546876,-233.9032745361328,133.25083618164064,-153.50527648925782,1.688686620025691e+18,91.09969083658854,-0.2364277392625808,0.0182783386359611,-0.7326960961023966,0.6379050811131796,-1.796966592470805,1.232813835144043,2.164445161819458
1.15,1.688686620077607e+18,91.1516065266927,0.1317563851674397,0.0252005259195963,0.1454877853393554,1.688686620077607e+18,91.1516065266927,-0.5902295907338461,-9.247063318888346,3.3792637983957925,1.688686620077607e+18,91.1516065266927,-0.7278319994608561,-9.254759152730308,3.171088616053263,1.6886866200732782e+18,91.14727832031248,0.0202603641276557,0.1916080663601557,-0.0748309940099716,1.6886866200732782e+18,91.14727832031248,0.0192422549395511,0.1961386501789092,-0.072540245950222,1.688686620091e+18,91.165,0.0,0.4580408930778503,0.8338725566864014,7.058000087738037,0.0043947338126599,0.0,40.20000076293945,-122.753152,49.1903767,1.688686620078884e+18,91.1528841796875,21.75747947692871,38.300679779052736,-20.98643989562988,1.688686620078884e+18,91.1528841796875,-233.58851318359376,133.32648010253905,-153.71023559570312,1.688686620077607e+18,91.1516065266927,-0.2396597464879354,0.0218843643863995,-0.7325421571731567,0.6367606123288473,-1.7964194615681963,1.2327358722686768,2.1738834381103516
1.2,1.6886866201295155e+18,91.20351546223958,0.0561203559239704,0.0271673202514648,0.0017199516296387,1.6886866201295155e+18,91.20351546223958,-0.6390830477078756,-9.246265411376951,3.238087256749471,1.6886866201295155e+18,91.20351546223958,-0.7010494271914164,-9.25592803955078,3.1736799081166587,1.6886866201251912e+18,91.19919124348958,0.0143553335219621,0.3272710541884103,-0.0210748511211325,1.6886866201251912e+18,91.19919124348958,0.0132863189404209,0.3318525453408558,-0.0186822951460878,,,,,,,,,,,,1.688686620128882e+18,91.20288178710936,21.83311958312988,38.38363876342773,-21.064519500732423,1.688686620128882e+18,91.20288178710936,-233.51287841796875,133.40943603515626,-153.78831787109374,1.6886866201295155e+18,91.20351546223958,-0.2447132716576258,0.0270992722362279,-0.7314342260360718,0.6359081069628397,-1.7882088422775269,1.2330950101216631,2.1806704998016357
1.25,1.6886866201814277e+18,91.255427734375,-0.0112706621487935,0.0413688023885091,0.0679983297983805,1.6886866201814277e+18,91.255427734375,-0.6570292313893636,-9.23529847462972,3.3054850101470947,1.6886866201814277e+18,91.255427734375,-0.6516045928001404,-9.259162584940592,3.1747992833455405,1.6886866201771028e+18,91.25110294596352,0.0292706272254387,0.3471750815709432,-0.033190343917037,1.6886866201771028e+18,91.25110294596352,0.0282016117125749,0.3517565727233886,-0.0308996007467309,,,,,,,,,,,,1.6886866201788874e+18,91.25288740234376,20.84735984802246,38.48855895996094,-21.498839569091796,1.6886866201788874e+18,91.25288740234376,-234.49863891601564,133.51435546875,-154.2226348876953,1.6886866201814277e+18,91.255427734375,-0.250953510403633,0.0334274905423322,-0.729446530342102,0.6354579329490662,-1.7732349236806233,1.2340919176737468,2.1840619246164956
1.3,1.6886866202333435e+18,91.3073435872396,-0.0530703465143839,0.1092653274536132,0.0477405389149983,1.6886866202333435e+18,91.3073435872396,-0.6749753753344218,-9.169695218404136,3.283351421356201,1.6886866202333435e+18,91.3073435872396,-0.6277510523796082,-9.261455853780111,3.172923485438029,1.688686620229019e+18,91.30301896158852,0.0328849119444687,0.4266893664995829,-0.0979929665724436,1.688686620229019e+18,91.30301896158852,0.0318158976733684,0.4312708675861358,-0.0957022209962208,,,,,,,,,,,,1.6886866202288865e+18,91.30288642578124,20.222719573974608,38.3543586730957,-22.00391960144043,1.6886866202288865e+18,91.30288642578124,-235.12327270507816,133.38015747070312,-154.72771606445312,1.6886866202333435e+18,91.3073435872396,-0.2577729026476542,0.0410253442823886,-0.7282226085662842,0.6336809396743774,-1.76612651348114,1.234800100326538,2.1980775197347007
1.35,1.6886866202765962e+18,91.35059631347656,-0.2984865605831146,-0.0198092460632323,-0.0736786127090453,1.6886866202765962e+18,91.35059631347656,-0.901196837425232,-9.29701328277588,3.170789122581482,1.6886866202765962e+18,91.35059631347656,-0.6085563004016876,-9.25969934463501,3.1817803382873535,1.6886866202809272e+18,91.35492732747396,-0.0124718324708131,0.3791436950365702,-0.0893899475534756,1.6886866202809272e+18,91.35492732747396,-0.0134899404171542,0.3836742838223775,-0.0870992019772529,,,,,,,,,,,,1.6886866202788844e+18,91.35288442382812,20.071439361572267,38.29091873168945,-22.32111930847168,1.6886866202788844e+18,91.35288442382812,-235.27455444335936,133.31671752929688,-155.0449188232422,1.6886866202765962e+18,91.35059631347656,-0.2644094675779342,0.0476391166448592,-0.7271502315998077,0.6317181289196014,-1.7597832083702087,1.2342575788497925,2.2112334966659546
1.4,1.688686620319864e+18,91.3938640950521,-0.2316764990488688,-0.0208113988240559,-0.1806883811950683,1.688686620319864e+18,91.3938640950521,-0.8358927170435587,-9.293922424316406,3.0753753185272217,1.688686620319864e+18,91.3938640950521,-0.6100622415542603,-9.255606333414711,3.193376302719116,1.6886866203328433e+18,91.40684342447916,-0.0142026173416524,0.1806124945481618,-0.107766809562842,1.6886866203328433e+18,91.40684342447916,-0.0152716310694812,0.1851430733998616,-0.105425161619981,,,,,,,,,,,,1.6886866203288883e+18,91.4028884765625,19.90063934326172,38.24456024169922,-22.721279525756835,1.6886866203288883e+18,91.4028884765625,-235.4453552246094,133.27035827636718,-155.44507751464843,1.688686620319864e+18,91.3938640950521,-0.2686797082424164,0.0516777771214643,-0.7269275188446045,0.6298530697822571,-1.759566108385722,1.232996900876363,2.223304510116577
1.45,1.6886866203717755e+18,91.44577530924478,-0.0368236700693765,-0.0689436594645181,-0.0759639739990234,1.6886866203717755e+18,91.44577530924478,-0.6687939167022705,-9.337990442911783,3.1864420572916665,1.6886866203717755e+18,91.44577530924478,-0.6378162701924642,-9.251542091369627,3.199718634287516,1.6886866203761034e+18,91.45010339355468,0.0127518121153115,0.2086868435144424,-0.1411862298846244,1.6886866203761034e+18,91.45010339355468,0.0116827976889907,0.2131919711828231,-0.1388954855501651,,,,,,,,,,,,1.6886866203788864e+18,91.45288642578126,19.488279342651367,38.23235931396484,-22.892079162597657,1.6886866203788864e+18,91.45288642578126,-235.85771789550785,133.2581573486328,-155.61587524414062,1.6886866203717755e+18,91.44577530924478,-0.2720413704713185,0.0555681598683197,-0.727612833182017,0.6272814671198527,-1.7675589720408122,1.2317487001419067,2.242046038309733
1.5,1.6886866204236849e+18,91.49768481445312,0.0660585165023803,-0.0083500544230143,-0.0203389326731363,1.6886866204236849e+18,91.49768481445312,-0.6055835286776224,-9.27477995554606,3.241477092107137,1.6886866204236849e+18,91.49768481445312,-0.6774880687395731,-9.24892520904541,3.1991286277770996,1.6886866204193636e+18,91.49336368815102,0.0157806851590672,0.2409863372643788,-0.1629483054081598,1.6886866204193636e+18,91.49336368815102,0.0147116715088486,0.2454660187164942,-0.1606575598319371,,,,,,,,,,,,1.6886866204288865e+18,91.50288637695311,19.84695930480957,38.100598907470705,-22.87255973815918,1.6886866204288865e+18,91.50288637695311,-235.4990356445313,133.12639465332032,-155.5963562011719,1.6886866204236849e+18,91.49768481445312,-0.275728573401769,0.0606382004916667,-0.7285964687665304,0.6240507562955221,-1.7794932921727498,1.2309476137161257,2.266951958338419
1.55,1.688686620475601e+18,91.54960083007812,0.0582336584726969,-0.0237061182657877,0.0003437995910644,1.688686620475601e+18,91.54960083007812,-0.6468597253163656,-9.285946210225424,3.2670005162556968,1.688686620475601e+18,91.54960083007812,-0.7109394073486328,-9.244735399881998,3.2039693196614585,1.6886866204712763e+18,91.54527620442708,0.0033088532897333,0.2210314025481541,-0.1561269760131835,1.6886866204712763e+18,91.54527620442708,0.0022398391738533,0.2256128937005996,-0.1536835183699925,,,,,,,,,,,,1.6886866204788823e+18,91.55288242187498,19.798159408569337,37.90783843994141,-22.88719940185547,1.6886866204788823e+18,91.55288242187498,-235.5478393554687,132.933642578125,-155.61099548339843,1.688686620475601e+18,91.54960083007812,-0.2799688975016276,0.0658592730760573,-0.7293135523796082,0.6207886536916097,-1.789157152175903,1.2296688954035442,2.2906734943389893
1.6,1.6886866205275128e+18,91.60151310221352,0.2660531302293141,0.1220664978027343,-0.0401519139607747,1.6886866205275128e+18,91.60151310221352,-0.4839483797550201,-9.133005142211914,3.2368908723195395,1.6886866205275128e+18,91.60151310221352,-0.7558475534121195,-9.237566947937012,3.21435538927714,1.688686620523182e+18,91.59718221028648,-0.0081957752699963,0.2049961959322293,-0.1310815004010995,1.688686620523182e+18,91.59718221028648,-0.009213884283478,0.2094758724172909,-0.1287398512164751,,,,,,,,,,,,1.6886866205288873e+18,91.60288754882812,20.51307945251465,37.60771865844727,-23.221479415893555,1.6886866205288873e+18,91.60288754882812,-234.83291320800785,132.63351745605468,-155.94527587890624,1.6886866205275128e+18,91.60151310221352,-0.2830722729365031,0.0695739984512328,-0.7305367191632589,0.6175283789634705,-1.8017582893371584,1.227490743001302,2.3134802182515464
1.65,1.6886866205794253e+18,91.65342537434896,-0.3687073985735575,-0.0403213500976562,-0.0490744113922119,1.6886866205794253e+18,91.65342537434896,-1.0243274768193562,-9.291529973347982,3.259622653325399,1.6886866205794253e+18,91.65342537434896,-0.661466101805369,-9.23370393117269,3.246009667714437,1.688686620575101e+18,91.6491007486979,-0.0412843084583679,0.5042692522207896,0.0674497041230399,1.688686620575101e+18,91.6491007486979,-0.04235332335035,0.5087998410065969,0.0698422606413562,,,,,,,,,,,,1.6886866205788823e+18,91.65288237304688,19.34188003540039,37.84439926147461,-23.475239181518553,1.6886866205788823e+18,91.65288237304688,-236.00411376953124,132.8701965332031,-156.19903564453125,1.6886866205794253e+18,91.65342537434896,-0.2925737500190735,0.0763760258754094,-0.7265528043111166,0.6169917583465576,-1.77184263865153,1.2263229688008626,2.3078485329945884
1.7,1.6886866206313393e+18,91.70533935546877,-0.170645793279012,0.1655209859212239,0.3576233386993408,1.6886866206313393e+18,91.70533935546877,-0.7836494048436483,-9.08415158589681,3.679164171218872,1.6886866206313393e+18,91.70533935546877,-0.6188496351242065,-9.232167879740397,3.2588534355163574,1.6886866206270136e+18,91.7010135091146,0.0177659979090094,0.2401718497276306,-0.0212275671122672,1.6886866206270136e+18,91.7010135091146,0.0166969827065865,0.2447533458471298,-0.018936822656542,,,,,,,,,,,,1.6886866206288852e+18,91.70288530273436,19.54439926147461,37.841959381103514,-24.016919708251955,1.6886866206288852e+18,91.70288530273436,-235.80159606933591,132.86776123046874,-156.74071655273437,1.6886866206313393e+18,91.70533935546877,-0.2978442112604776,0.0806772857904433,-0.7245914141337076,0.6162334481875101,-1.7584679921468098,1.225860555966695,2.3087573846181235
1.75,1.6886866206832466e+18,91.75724658203126,-0.3459184964497884,0.1706244150797525,0.3467359542846679,1.6886866206832466e+18,91.75724658203126,-0.9555338621139526,-9.075776735941568,3.678167184193929,1.6886866206832466e+18,91.75724658203126,-0.6154613892237345,-9.228896458943684,3.2687438329060874,1.6886866206789253e+18,91.75292529296875,-0.0036142865816752,0.3952298164367676,-0.1714495122432708,1.6886866206789253e+18,91.75292529296875,-0.0046833005423347,0.399811307589213,-0.169056956966718,,,,,,,,,,,,1.688686620678882e+18,91.75288212890624,19.415079498291018,37.69799880981445,-24.02911949157715,1.688686620678882e+18,91.75288212890624,-235.93091430664063,132.72379455566406,-156.75291748046874,1.6886866206832466e+18,91.75724658203126,-0.3042956093947093,0.0874321485559145,-0.7236861983935038,0.6132115920384725,-1.7569053967793782,1.2248768011728923,2.3269736766815186
1.8,1.68868662072651e+18,91.80051013183596,-0.3832415342330932,-0.1084270477294921,-0.1936396360397338,1.68868662072651e+18,91.80051013183596,-1.0417751669883728,-9.344271183013916,3.157927632331848,1.68868662072651e+18,91.80051013183596,-0.6643796563148499,-9.218339443206789,3.288879871368408,1.688686620730834e+18,91.80483398437498,-0.0433714327712853,0.1000291832412282,-0.1902845253547032,1.688686620730834e+18,91.80483398437498,-0.0444404458006222,0.1046106747041145,-0.1879937748114267,,,,,,,,,,,,1.6886866207288845e+18,91.802884375,18.775799560546876,37.70287857055664,-24.48540000915527,1.6886866207288845e+18,91.802884375,-236.57019653320313,132.72867736816406,-157.20919494628907,1.68868662072651e+18,91.80051013183596,-0.3081893026828766,0.0915551856160163,-0.7249003350734711,0.6092255413532257,-1.770119607448578,1.2217169404029846,2.3523547649383545
1.85,1.6886866207697728e+18,91.84377294921876,0.1950883567333221,-0.032660166422526,-0.1903241475423176,1.6886866207697728e+18,91.84377294921876,-0.5244269768397013,-9.257232666015623,3.179861863454183,1.6886866207697728e+18,91.84377294921876,-0.7253613670667013,-9.207067807515465,3.3074986139933267,1.6886866207827464e+18,91.85674641927083,-0.0381790778289238,0.1738929773370424,-0.1943569630384445,1.6886866207827464e+18,91.85674641927083,-0.0391971860080957,0.1784235561887423,-0.1919644077618916,,,,,,,,,,,,1.6886866207788846e+18,91.85288471679686,19.097879409790036,37.41007995605469,-24.734280014038085,1.6886866207788846e+18,91.85288471679686,-236.24811401367188,132.43587646484374,-157.45807495117188,1.6886866207697728e+18,91.84377294921876,-0.309378057718277,0.0928959300120671,-0.726870616277059,0.6060629685719808,-1.7866777578989663,1.2183736562728882,2.372885306676229
1.9,1.6886866208216822e+18,91.89568229166666,0.2860289812088012,-0.1370970408121744,-0.18198029200236,1.6886866208216822e+18,91.89568229166666,-0.4903292457262675,-9.351549784342446,3.2033913135528564,1.6886866208216822e+18,91.89568229166666,-0.782204270362854,-9.196948051452637,3.3226842085520425,1.68868662082601e+18,91.90001000976562,0.0242818938568234,0.4070653319358825,-0.2632065564393997,1.68868662082601e+18,91.90001000976562,0.0232892371714114,0.4116468131542206,-0.2608394622802734,,,,,,,,,,,,1.6886866208288855e+18,91.90288540039062,19.28087959289551,37.026998901367186,-25.110039520263673,1.6886866208288855e+18,91.90288540039062,-236.0651123046875,132.05279846191405,-157.833837890625,1.6886866208216822e+18,91.89568229166666,-0.3141944209734599,0.0988231748342513,-0.7280772924423218,0.6011718114217123,-1.8020002047220869,1.2153950929641724,2.4045161406199136
1.95,1.6886866208735916e+18,91.9475916341146,0.0902564326922098,-0.1241861979166666,-0.3326272964477539,1.6886866208735916e+18,91.9475916341146,-0.7304091056187948,-9.33559767405192,3.050450086593628,1.6886866208735916e+18,91.9475916341146,-0.826511561870575,-9.193906784057615,3.320389986038208,1.6886866208692705e+18,91.94327034505208,0.0348193192233641,0.3734931846459706,-0.2155845214923222,1.6886866208692705e+18,91.94327034505208,0.0337503049522637,0.3780237734317779,-0.2132428834835688,,,,,,,,,,,,1.6886866208788785e+18,91.95287856445312,19.40531997680664,37.239279174804686,-25.205199813842775,1.6886866208788785e+18,91.95287856445312,-235.940673828125,132.26507568359375,-157.9289978027344,1.6886866208735916e+18,91.9475916341146,-0.3205005923906962,0.1077418575684229,-0.7283644080162048,0.5959433913230896,-1.8147649765014648,1.2145047585169475,2.440280278523763
2.0,1.6886866209255096e+18,91.99950944010418,0.0913695891698201,-0.1564299265543619,-0.3391315937042236,1.6886866209255096e+18,91.99950944010418,-0.7300103108088175,-9.367302576700846,3.0452656745910645,1.6886866209255096e+18,91.99950944010418,-0.827225923538208,-9.193367958068846,3.3217098712921143,1.688686620921182e+18,91.99518196614584,0.0025452718837187,0.2379320114850997,-0.0522289797663688,1.688686620921182e+18,91.99518196614584,0.0014762575738132,0.2424625903367996,-0.0499382335692643,1.688686620927135e+18,92.00113500976562,0.0,0.4523038268089294,0.8476192951202393,7.072999954223633,0.0051115411333739,0.0,40.20000076293945,-122.7531519,49.1903765,1.6886866209288868e+18,92.00288671875,18.85143966674805,37.029439544677736,-25.344279861450197,1.6886866209288868e+18,92.00288671875,-236.4945526123047,132.05523681640625,-158.06807861328124,1.6886866209255096e+18,91.99950944010418,-0.3250982165336609,0.1132798021038373,-0.7275511423746744,0.5934186776479086,-1.8148764371871948,1.214346210161845,2.4557257493336997
2.05,1.68868662097742e+18,92.0514200032552,0.1912193695704141,-0.0267575581868489,-0.135645310084025,1.68868662097742e+18,92.0514200032552,-0.5948158303896586,-9.23968505859375,3.2516465187072754,1.68868662097742e+18,92.0514200032552,-0.7918812235196432,-9.195422808329264,3.3246044317881265,1.688686620973095e+18,92.0470946451823,0.02020945904466,0.2478076666593551,0.0043269624002277,1.688686620973095e+18,92.0470946451823,0.0191404440750677,0.2523382504781087,0.0066177068899075,,,,,,,,,,,,1.6886866209788836e+18,92.05288364257812,18.65135955810547,36.983080291748045,-25.4052791595459,1.6886866209788836e+18,92.05288364257812,-236.6946350097656,132.00888061523438,-158.12908020019532,1.68868662097742e+18,92.0514200032552,-0.3290350933869679,0.1169726202885309,-0.7257258892059326,0.5927656491597494,-1.8046317100524905,1.214946707089742,2.4570074876149497
2.1,1.688686621029332e+18,92.10333194986976,-0.0570414861043294,0.1043437321980793,0.1737557252248127,1.688686621029332e+18,92.10333194986976,-0.7718846996625265,-9.116853713989258,3.5543386141459146,1.688686621029332e+18,92.10333194986976,-0.7206892371177673,-9.2036927541097,3.317895491917928,1.688686621025008e+18,92.09900805664064,0.0577267656723657,0.4894557694594065,-0.0231619738042354,1.688686621025008e+18,92.09900805664064,0.0566577514012654,0.4939863681793213,-0.0208203236882885,,,,,,,,,,,,1.6886866210288865e+18,92.10288642578124,18.119439697265623,36.94403915405273,-25.84691963195801,1.6886866210288865e+18,92.10288642578124,-237.2265594482422,131.96983337402344,-158.57071533203126,1.688686621029332e+18,92.10333194986976,-0.3361434439818064,0.1243286331494649,-0.7219898502031962,0.5918336709340414,-1.7846888701121013,1.217374046643575,2.458897511164347
2.15,1.6886866210812398e+18,92.15523982747396,-0.3253876566886902,0.1707909901936848,0.193617820739746,1.6886866210812398e+18,92.15523982747396,-1.0031908949216206,-9.052646319071451,3.575874090194702,1.6886866210812398e+18,92.15523982747396,-0.6836492617925009,-9.2059326171875,3.3195688724517822,1.6886866210769196e+18,92.15091951497396,0.0261653951990107,0.4881831506888072,-0.1398881450295447,1.6886866210769196e+18,92.15091951497396,0.0251472854676345,0.4927137196063995,-0.1375464871525764,,,,,,,,,,,,1.6886866210788838e+18,92.15288383789064,17.707080078125,37.03187942504883,-25.88351974487305,1.6886866210788838e+18,92.15288383789064,-237.638916015625,132.05768127441405,-158.60731506347656,1.6886866210812398e+18,92.15523982747396,-0.3447967767715454,0.133766159415245,-0.7189903855323792,0.5884411533673605,-1.773910442988078,1.218035141626994,2.475682497024536
2.2,1.688686621133157e+18,92.2071571451823,-0.2779836654663085,0.0742963155110676,0.0263725121815999,1.688686621133157e+18,92.2071571451823,-0.9828519225120544,-9.142775853474935,3.420539935429891,1.688686621133157e+18,92.2071571451823,-0.7107142806053162,-9.199567476908364,3.331480026245117,1.6886866211288282e+18,92.20282828776044,-0.0026470826123841,0.2745330284039179,-0.180917923649152,1.6886866211288282e+18,92.20282828776044,-0.0037160969998997,0.2790127048889795,-0.1784744610389073,,,,,,,,,,,,1.6886866211288863e+18,92.20288637695312,17.624119567871094,36.84887924194336,-26.271479415893555,1.6886866211288863e+18,92.20288637695312,-237.7218780517578,131.8746795654297,-158.99527587890626,1.688686621133157e+18,92.2071571451823,-0.3505497276782989,0.1406501630942026,-0.7186383008956909,0.5838553508122762,-1.7809794346491497,1.2161627213160198,2.5022401809692383
2.25,1.6886866211764111e+18,92.2504112548828,-0.0634605586528777,-0.0042018890380858,-0.0797216892242431,1.6886866211764111e+18,92.2504112548828,-0.8261220157146454,-9.211769104003906,3.3278181552886963,1.6886866211764111e+18,92.2504112548828,-0.7685074806213379,-9.190062522888184,3.3448524475097656,1.6886866211807396e+18,92.25473974609372,-0.0343611699839432,0.0931060463190078,-0.2149736583232879,1.6886866211807396e+18,92.25473974609372,-0.0354301836341619,0.0975857252875963,-0.2126320103804269,,,,,,,,,,,,1.6886866211788828e+18,92.25288276367188,17.93887939453125,36.736639404296874,-26.425199508666992,1.6886866211788828e+18,92.25288276367188,-237.40711669921876,131.76243591308594,-159.14899597167968,1.6886866211764111e+18,92.2504112548828,-0.3527332991361618,0.1439590454101562,-0.7200322449207306,0.58000648021698,-1.7966343760490415,1.2133827805519104,2.526525616645813
2.3,1.6886866212196754e+18,92.29367529296876,0.2312297125657399,-0.1399043401082356,-0.1299749215443928,1.6886866212196754e+18,92.29367529296876,-0.6085745493570963,-9.335796991984052,3.290928840637207,1.6886866212196754e+18,92.29367529296876,-0.845650295416514,-9.178387959798178,3.3582163651784263,1.6886866212326566e+18,92.30665665690104,-0.0218893382698296,0.0229074472251037,-0.1816815038522084,1.6886866212326566e+18,92.30665665690104,-0.0229074467594424,0.0274889363596835,-0.1793907582759856,,,,,,,,,,,,1.688686621228886e+18,92.30288608398438,17.846159362792967,36.57803955078125,-27.101079559326173,1.688686621228886e+18,92.30288608398438,-237.4998352050781,131.6038360595703,-159.8248748779297,1.6886866212196754e+18,92.29367529296876,-0.3530125916004181,0.1454976250727971,-0.7224492033322653,0.5764356255531311,-1.8174742062886555,1.209996501604716,2.550398349761963
2.35,1.6886866212715886e+18,92.34558862304688,0.4595895111560821,-0.0618263880411783,-0.1671258608500162,1.6886866212715886e+18,92.34558862304688,-0.4323032995065053,-9.249854723612469,3.2618160247802734,1.6886866212715886e+18,92.34558862304688,-0.8977388540903727,-9.170523643493652,3.3662544886271157,1.6886866212759168e+18,92.34991674804688,-0.0005345071040209,0.2110539376735687,-0.0984256640076636,1.6886866212759168e+18,92.34991674804688,-0.001527163083665,0.2155590653419494,-0.0961349196732043,,,,,,,,,,,,1.6886866212788846e+18,92.35288471679686,17.87787971496582,36.42676010131836,-26.900999450683592,1.6886866212788846e+18,92.35288471679686,-237.468115234375,131.45255432128906,-159.62479553222656,1.6886866212715886e+18,92.34558862304688,-0.3542765776316325,0.1479815195004145,-0.7237807114919027,0.5733483632405599,-1.8314272165298464,1.2077301740646362,2.570287068684896
2.4,1.6886866213235057e+18,92.39750561523437,0.1516226927439371,-0.0113108952840169,0.0704574584960937,1.6886866213235057e+18,92.39750561523437,-0.715254565080007,-9.19980494181315,3.504687547683716,1.6886866213235057e+18,92.39750561523437,-0.8727232813835144,-9.170989354451498,3.371542692184448,1.6886866213191703e+18,92.39317041015624,0.0176132808749873,0.2761619885762532,-0.0252490959440667,1.6886866213191703e+18,92.39317041015624,0.0165442669143278,0.280692587296168,-0.0228565412883956,,,,,,,,,,,,1.6886866213288837e+18,92.40288359375,17.76807975769043,36.47555999755859,-27.001039505004883,1.6886866213288837e+18,92.40288359375,-237.57791137695312,131.50135498046876,-159.72483825683594,1.6886866213235057e+18,92.39750561523437,-0.3588289817174275,0.1525655090808868,-0.7219455440839132,0.5716261863708496,-1.8240948120752971,1.2078630924224854,2.5770517190297446
2.45,1.6886866213754135e+18,92.44941365559896,-0.0843541423479716,0.0669921239217121,0.0512097676595051,1.6886866213754135e+18,92.44941365559896,-0.9022935231526692,-9.12084166208903,3.4995030562082925,1.6886866213754135e+18,92.44941365559896,-0.823785404364268,-9.170329093933104,3.3856058915456138,1.6886866213710892e+18,92.44508919270834,-0.010384709186231,0.283085137605667,0.0076867208845214,1.6886866213710892e+18,92.44508919270834,-0.0114028180638948,0.2876157164573669,0.0100283708889036,,,,,,,,,,,,1.688686621378887e+18,92.45288686523438,17.448439407348634,36.12664031982422,-27.249919128417968,1.688686621378887e+18,92.45288686523438,-237.89755554199215,131.15243835449218,-159.97371520996094,1.6886866213754135e+18,92.44941365559896,-0.3641357123851775,0.156671846906344,-0.7193342049916586,0.5704502662022909,-1.8094903230667112,1.2076728741327922,2.5770363012949624
2.5,1.6886866214273262e+18,92.501326171875,-0.2150619427363077,0.0322856903076171,0.1663428942362467,1.6886866214273262e+18,92.501326171875,-0.9932207663853964,-9.15354347229004,3.6295131842295327,1.6886866214273262e+18,92.501326171875,-0.7840048472086588,-9.16832447052002,3.4004828929901123,1.6886866214229985e+18,92.496998046875,-0.002138028483993,0.2198605785767237,-0.0336993988603353,1.6886866214229985e+18,92.496998046875,-0.0032070426095742,0.2244420697291692,-0.0314086557676394,,,,,,,,,,,,1.688686621428885e+18,92.50288505859376,16.89211959838867,36.316958618164065,-27.325559616088867,1.688686621428885e+18,92.50288505859376,-238.45387573242184,131.34275817871094,-160.04935607910156,1.6886866214273262e+18,92.501326171875,-0.368925005197525,0.1603163878122965,-0.7171188394228617,0.569149891535441,-1.7974029382069905,1.207097848256429,2.5780869325002036
2.55,1.6886866214792346e+18,92.55323453776045,-0.0928446849187215,0.0727119445800781,0.0228734811147054,1.6886866214792346e+18,92.55323453776045,-0.915055255095164,-9.103693008422852,3.5008989175160727,1.6886866214792346e+18,92.55323453776045,-0.8280565937360128,-9.158900260925291,3.415338039398194,1.6886866214749135e+18,92.54891365559897,-0.0377718343709905,0.0214820932596921,-0.1452332139015197,1.6886866214749135e+18,92.54891365559897,-0.0387899428606033,0.0259617722282807,-0.142891560991605,,,,,,,,,,,,1.688686621478884e+18,92.55288427734374,17.39231948852539,36.343798828125,-27.618359375,1.688686621478884e+18,92.55288427734374,-237.95367431640625,131.36959838867188,-160.34215698242187,1.6886866214792346e+18,92.55323453776045,-0.370320051908493,0.1622949043909708,-0.7182385722796122,0.5662645300229391,-1.8086512486139936,1.204408884048462,2.5947887102762857
2.6,1.6886866215311473e+18,92.6051473795573,0.1821105082829792,-0.1084734598795572,-0.1534820397694905,1.6886866215311473e+18,92.6051473795573,-0.6951149702072144,-9.27218755086263,3.3447672526041665,1.6886866215311473e+18,92.6051473795573,-0.883071502049764,-9.146209398905436,3.4355618953704834,1.6886866215268255e+18,92.60082568359375,-0.045204027245442,-0.0528907490273316,-0.0661770676573117,1.6886866215268255e+18,92.60082568359375,-0.0462730427583058,-0.0483601639668146,-0.0638354172309239,,,,,,,,,,,,1.688686621528882e+18,92.60288188476562,17.304479598999023,36.07783889770508,-27.801359558105467,1.688686621528882e+18,92.60288188476562,-238.04151306152343,131.1036376953125,-160.52515869140626,1.6886866215311473e+18,92.6051473795573,-0.3697669903437297,0.1617331057786941,-0.7203145821889242,0.5641466577847799,-1.8223938941955569,1.2008129358291626,2.607072591781616
2.65,1.688686621583063e+18,92.65706298828124,0.373439759016037,-0.0121905008951822,-0.0577533245086669,1.688686621583063e+18,92.65706298828124,-0.5337988634904226,-9.171091079711914,3.4454652468363443,1.688686621583063e+18,92.65706298828124,-0.9130846659342448,-9.141395886739096,3.4405311743418374,1.6886866215787346e+18,92.65273470052084,-0.0009162978579601,0.0268780713280041,-0.0732529237866401,1.6886866215787346e+18,92.65273470052084,-0.0019853121096579,0.0314086551467577,-0.0709621794521808,,,,,,,,,,,,1.6886866215788846e+18,92.65288481445312,18.043799591064452,36.03147888183594,-27.72083969116211,1.6886866215788846e+18,92.65288481445312,-237.3021942138672,131.05727844238282,-160.44463806152345,1.688686621583063e+18,92.65706298828124,-0.3694316148757934,0.1618588566780089,-0.7213475505510966,0.5630090832710266,-1.8302153746287029,1.1994571685791016,2.614673058191935
2.7,1.6886866216263232e+18,92.7003232421875,0.0166286826133728,-0.0699586868286132,-0.0928403139114379,1.6886866216263232e+18,92.7003232421875,-0.8766703903675079,-9.229116916656494,3.4133615493774414,1.6886866216263232e+18,92.7003232421875,-0.899145096540451,-9.141653537750244,3.4435144662857056,1.6886866216306473e+18,92.70464721679689,0.0003054326031512,0.0970257644852001,0.0465784748084842,1.6886866216306473e+18,92.70464721679689,-0.0007635815030274,0.1015563483039538,0.0489710314820209,,,,,,,,,,,,1.688686621628881e+18,92.70288095703124,17.76075973510742,36.03635940551758,-27.884319686889647,1.688686621628881e+18,92.70288095703124,-237.58523559570312,131.062158203125,-160.60811767578124,1.6886866216263232e+18,92.7003232421875,-0.3711371570825577,0.1633668020367622,-0.7205148935317993,0.5625180304050446,-1.8262154459953308,1.1995288729667664,2.6156740188598633
2.75,1.688686621669583e+18,92.74358325195313,-0.0584368507067362,0.0911846160888671,0.0902904669443765,1.688686621669583e+18,92.74358325195313,-0.920439104239146,-9.068997065226236,3.601796309153239,1.688686621669583e+18,92.74358325195313,-0.86784827709198,-9.142676989237469,3.4488184452056885,1.6886866216825623e+18,92.7565624186198,-0.0262672056754429,-0.0162897394620812,0.0441350129743416,1.6886866216825623e+18,92.7565624186198,-0.0273362193256616,-0.0117082504245142,0.0464257588610052,,,,,,,,,,,,1.6886866216788844e+18,92.75288422851564,17.348400115966797,36.06807861328125,-27.530519485473633,1.6886866216788844e+18,92.75288422851564,-237.99759826660156,131.09388122558593,-160.2543151855469,1.688686621669583e+18,92.74358325195313,-0.3720113635063171,0.1630741407473881,-0.7194735805193583,0.5633578499158224,-1.8173263470331829,1.199817379315694,2.60766863822937
2.8,1.6886866217214922e+18,92.79549194335937,-0.133955975373586,-0.0018033981323242,-0.0998828411102294,1.6886866217214922e+18,92.79549194335937,-0.9954142371813456,-9.156933148701986,3.425126234690348,1.6886866217214922e+18,92.79549194335937,-0.86730428536733,-9.137625058492024,3.462321678797404,1.688686621725823e+18,92.79982287597656,-0.0363464821130037,-0.0954476930201053,-0.0057268617674707,1.688686621725823e+18,92.79982287597656,-0.0374154951423406,-0.0908662043511867,-0.0034361169673501,,,,,,,,,,,,1.6886866217288842e+18,92.80288447265625,17.489919662475586,36.1559196472168,-27.56467933654785,1.6886866217288842e+18,92.80288447265625,-237.8560760498047,131.1817169189453,-160.2884735107422,1.6886866217214922e+18,92.79549194335937,-0.3716968496640523,0.1615918080012003,-0.719788392384847,0.5635899504025778,-1.816252072652181,1.198399305343628,2.6039050420125327
2.85,1.688686621773404e+18,92.84740388997396,0.2224118014176686,0.1782735188802083,0.0896776517232259,1.688686621773404e+18,92.84740388997396,-0.6727819641431173,-8.974081993103027,3.613361597061157,1.688686621773404e+18,92.84740388997396,-0.9010397990544636,-9.1348508199056,3.4609965483347573,1.6886866217690831e+18,92.84308325195312,0.0126754539087414,-0.1120937714974085,-0.0569122784460583,1.6886866217690831e+18,92.84308325195312,0.0116064402585228,-0.1075122853120168,-0.0545706278644501,,,,,,,,,,,,1.688686621778884e+18,92.85288432617187,17.72903938293457,36.12663879394531,-27.674479293823243,1.688686621778884e+18,92.85288432617187,-237.61695251464843,131.15243835449218,-160.39827575683594,1.688686621773404e+18,92.84740388997396,-0.3695560296376546,0.1600227753321329,-0.7213318347930908,0.5634719332059225,-1.8254950841267903,1.1976228555043538,2.607430378595988
2.9,1.688686621825317e+18,92.89931722005208,0.6180675427118937,-0.0986989339192708,0.6087179183959961,1.688686621825317e+18,92.89931722005208,-0.3764707644780476,-9.246066093444824,4.118047714233398,1.688686621825317e+18,92.89931722005208,-1.0003843903541565,-9.129862467447916,3.4466423988342285,1.6886866218209925e+18,92.89499194335936,0.0475965837637583,0.1067996112008888,-0.3278310050566991,1.6886866218209925e+18,92.89499194335936,0.0465784755845864,0.1113301925361155,-0.3255402743816376,,,,,,,,,,,,1.6886866218288852e+18,92.9028853515625,18.190199661254884,35.93143920898437,-27.667159271240234,1.6886866218288852e+18,92.9028853515625,-237.15579223632812,130.95723876953124,-160.39096069335938,1.688686621825317e+18,92.89931722005208,-0.3686794837315877,0.1631750762462615,-0.7241272727648417,0.5595363179842631,-1.8532659610112507,1.196231444676717,2.6388553778330484
2.95,1.6886866218772283e+18,92.95122827148435,0.4219534993171692,-0.3143370946248372,-0.3679970900217692,1.6886866218772283e+18,92.95122827148435,-0.7252246737480164,-9.438488960266112,3.1551360289255777,1.6886866218772283e+18,92.95122827148435,-1.153024196624756,-9.10664717356364,3.4604457219441733,1.6886866218729075e+18,92.94690755208336,-0.053603426242868,0.0339030226071675,-0.308283324042956,1.6886866218729075e+18,92.94690755208336,-0.0546724392722049,0.0384336064259211,-0.3059925809502601,,,,,,,,,,,,1.688686621878883e+18,92.952883203125,18.753839874267577,35.65083999633789,-27.8086799621582,1.688686621878883e+18,92.952883203125,-236.59215393066407,130.6766357421875,-160.53247680664063,1.6886866218772283e+18,92.95122827148435,-0.3693900903065999,0.1678980539242426,-0.7284089724222819,0.5520677367846171,-1.8924063841501872,1.1898170312245686,2.6869823932647705
3.0,1.6886866219291446e+18,93.00314477539062,0.0663647651672363,-0.0427694320678711,-1.144429047902425,1.6886866219291446e+18,93.00314477539062,-1.0618150234222412,-9.161320368448893,2.3996023337046304,1.6886866219291446e+18,93.00314477539062,-1.134025812149048,-9.101046244303385,3.481343984603882,1.6886866219248202e+18,92.9988203125,-0.143095185359319,-0.5523748894532522,0.4091269920269648,1.6886866219248202e+18,92.9988203125,-0.1441641946633656,-0.5477934082349142,0.4114177525043487,1.688686621927121e+18,93.00112084960938,0.0,0.4376335144042969,0.857227623462677,7.059000015258789,0.005293424706906,0.0,40.20000076293945,-122.753152,49.1903764,1.6886866219288873e+18,93.00288735351562,18.47324028015137,35.697198486328126,-27.70131950378418,1.6886866219288873e+18,93.00288735351562,-236.8727569580078,130.7230010986328,-160.42511901855468,1.6886866219291446e+18,93.00314477539062,-0.3647344013055165,0.1595081786314646,-0.7296147545178732,0.5560137232144674,-1.8857041994730632,1.1882792711257937,2.6600801944732666
3.05,1.6886866219810537e+18,93.05505362955728,0.1981429457664489,-0.2764949798583984,-0.5157732963562012,1.6886866219810537e+18,93.05505362955728,-0.7742775479952494,-9.407382329305014,3.04307222366333,1.6886866219810537e+18,93.05505362955728,-0.9782665173212688,-9.113382657368978,3.4961581230163574,1.6886866219767278e+18,93.05072786458334,-0.1077668083210785,-0.8076147635777792,0.6623815496762594,1.6886866219767278e+18,93.05072786458334,-0.1088358263174692,-0.8030841747919718,0.6646722753842672,,,,,,,,,,,,1.6886866219788826e+18,93.05288271484376,18.67575912475586,35.56788024902344,-27.520759963989256,1.6886866219788826e+18,93.05288271484376,-236.67023620605468,130.5936767578125,-160.24455871582032,1.6886866219810537e+18,93.05505362955728,-0.3540585140387217,0.1397794733444849,-0.728216807047526,0.5698708097139994,-1.8435954252878823,1.1916645367940266,2.5706515312194824
3.1,1.6886866220329697e+18,93.10696948242187,0.0238612294197082,-0.0818182627360025,-0.0707594553629557,1.6886866220329697e+18,93.10696948242187,-0.7483552694320679,-9.236096382141112,3.47717014948527,1.6886866220329697e+18,93.10696948242187,-0.7780625224113464,-9.136773427327476,3.485242207845052,1.6886866220286446e+18,93.1026446940104,0.0091120731085539,-0.147676675270001,0.4952081044514974,1.6886866220286446e+18,93.1026446940104,0.0080939648517718,-0.1431969900925954,0.4974988301595052,,,,,,,,,,,,1.6886866220288865e+18,93.102886328125,18.19995994567871,36.0924789428711,-26.696039581298827,1.6886866220288865e+18,93.102886328125,-237.1460388183594,131.11827697753907,-159.41983642578126,1.6886866220329697e+18,93.10696948242187,-0.3489653368790944,0.1284914463758468,-0.7232885559399923,0.581856350104014,-1.790391484896342,1.1981603701909382,2.49180006980896
3.15,1.6886866220762296e+18,93.1502294921875,-0.6128394901752472,-0.0145564079284667,-0.0443222522735595,1.6886866220762296e+18,93.1502294921875,-1.249352514743805,-9.189934253692629,3.4761730432510376,1.6886866220762296e+18,93.1502294921875,-0.642359048128128,-9.157873153686523,3.4578078985214233,1.688686622080554e+18,93.15455395507811,0.0923933684825897,0.0115046283851067,0.2634356319904327,1.688686622080554e+18,93.15455395507811,0.0913243542114893,0.016086117674907,0.2657772898674011,,,,,,,,,,,,1.6886866220788844e+18,93.15288432617189,17.6216796875,36.61464004516601,-26.617959594726564,1.6886866220788844e+18,93.15288432617189,-237.72431640625,131.64043579101562,-159.34175720214844,1.6886866220762296e+18,93.1502294921875,-0.3493937849998474,0.1274189129471778,-0.7186848521232605,0.5875196158885956,-1.7544754147529602,1.2041118144989014,2.454490065574646
3.2,1.6886866221194898e+18,93.19348990885418,-0.7195163369178772,0.0672299067179362,0.1289523442586262,1.6886866221194898e+18,93.19348990885418,-1.283151149749756,-9.127023061116535,3.6119657357533774,1.6886866221194898e+18,93.19348990885418,-0.569480836391449,-9.176748275756836,3.420325994491577,1.6886866221324685e+18,93.2064685872396,0.0894408524036407,-0.2076941827932993,0.183615912993749,1.6886866221324685e+18,93.2064685872396,0.0884227429827054,-0.2031636014580726,0.1859575609366098,,,,,,,,,,,,1.688686622128885e+18,93.20288510742186,17.624119567871094,36.95623931884766,-26.3251594543457,1.688686622128885e+18,93.20288510742186,-237.721875,131.9820343017578,-159.0489532470703,1.6886866221194898e+18,93.19348990885418,-0.3475229044755299,0.1260804931322733,-0.7163323760032654,0.5917733709017435,-1.7357803583145142,1.2095197439193726,2.4305241107940674
3.25,1.6886866221713994e+18,93.24539957682292,-0.5556772152582804,0.233493169148763,0.3400235970815022,1.6886866221713994e+18,93.24539957682292,-1.11286195119222,-8.977073033650717,3.780061642328898,1.6886866221713994e+18,93.24539957682292,-0.5630307594935099,-9.193061510721842,3.377350648244222,1.6886866221757302e+18,93.24972998046874,0.0597884356975555,-0.3882812261581421,0.0642935652285814,1.6886866221757302e+18,93.24972998046874,0.0587957818061113,-0.3836997449398041,0.0667370278388261,,,,,,,,,,,,1.6886866221788805e+18,93.25288051757812,17.20931968688965,36.96111907958984,-26.11775932312012,1.6886866221788805e+18,93.25288051757812,-238.1366729736328,131.9869171142578,-158.8415557861328,1.6886866221713994e+18,93.24539957682292,-0.3413978318373362,0.1218641052643457,-0.7168304920196533,0.5956028699874878,-1.736006736755371,1.2142527103424072,2.4146602948506675
