seconds_elapsed_rounded,accelerometer_time,accelerometer_seconds_elapsed,accelerometer_z,accelerometer_y,accelerometer_x,accelerometeruncalibrated_time,accelerometeruncalibrated_seconds_elapsed,accelerometeruncalibrated_z,accelerometeruncalibrated_y,accelerometeruncalibrated_x,gravity_time,gravity_seconds_elapsed,gravity_z,gravity_y,gravity_x,gyroscope_time,gyroscope_seconds_elapsed,gyroscope_z,gyroscope_y,gyroscope_x,gyroscopeuncalibrated_time,gyroscopeuncalibrated_seconds_elapsed,gyroscopeuncalibrated_z,gyroscopeuncalibrated_y,gyroscopeuncalibrated_x,location_time,location_seconds_elapsed,location_bearingAccuracy,location_speedAccuracy,location_verticalAccuracy,location_horizontalAccuracy,location_speed,location_bearing,location_altitude,location_longitude,location_latitude,magnetometer_time,magnetometer_seconds_elapsed,magnetometer_z,magnetometer_y,magnetometer_x,magnetometeruncalibrated_time,magnetometeruncalibrated_seconds_elapsed,magnetometeruncalibrated_z,magnetometeruncalibrated_y,magnetometeruncalibrated_x,orientation_time,orientation_seconds_elapsed,orientation_qz,orientation_qy,orientation_qx,orientation_qw,orientation_roll,orientation_pitch,orientation_yaw
0.0,1.6886866339208868e+18,104.9948868815104,0.0291285316149393,-0.0159422556559244,-0.0312503973642984,1.6886866339208868e+18,104.9948868815104,-0.7459624608357748,-9.25105126698812,3.2967113653818765,1.6886866339208868e+18,104.9948868815104,-0.7809370160102844,-9.217604319254557,3.2652743657430015,1.6886866339252183e+18,104.99921826171877,-0.0116064394824206,0.0100029185414313,-0.0010690141934901,1.6886866339252183e+18,104.99921826171877,-0.0126754539087414,0.0145844076760112,0.0012217306066304,1.688686633927286e+18,105.0012861328125,0.0,0.4494810700416565,0.864668071269989,5.718999862670898,0.0129208853468298,0.0,40.20000076293945,-122.7531534,49.1903755,1.6886866339288824e+18,105.00288247070311,21.46711959838867,37.827318572998045,-21.535439682006835,1.6886866339288824e+18,105.00288247070311,-233.87887573242188,132.85311889648438,-154.25923767089844,1.6886866339208868e+18,104.9948868815104,-0.2422228902578354,0.0181228524694839,-0.7344905336697897,0.6336586872736613,-1.805559237798055,1.221495230992635,2.181643803914388
0.05,1.6886866339728023e+18,105.04680208333332,-0.0155059496561685,0.0154666900634765,-0.0229016145070393,1.6886866339728023e+18,105.04680208333332,-0.7846464117368063,-9.219146728515623,3.307877858479818,1.6886866339728023e+18,105.04680208333332,-0.7749864856402079,-9.217108726501465,3.268092075983683,1.6886866339684774e+18,105.04247729492188,-0.0035124750186999,-0.0018835011093566,0.0159843067328134,1.6886866339684774e+18,105.04247729492188,-0.0045814892898002,0.0026979882968589,0.0182750519985953,,,,,,,,,,,,1.688686633978886e+18,105.05288588867188,21.29387969970703,38.115238189697266,-21.645239639282227,1.688686633978886e+18,105.05288588867188,-234.05211486816407,133.1410369873047,-154.3690399169922,1.6886866339728023e+18,105.04680208333332,-0.2423803309599558,0.0179958933343489,-0.7342871427536011,0.6338378389676412,-1.803640921910604,1.2213477691014607,2.1797749996185303
0.1,1.688686634024711e+18,105.0987108561198,0.0162935455640157,0.013258934020996,0.0641237099965413,1.688686634024711e+18,105.0987108561198,-0.7515457073847452,-9.22114086151123,3.3958141803741455,1.688686634024711e+18,105.0987108561198,-0.7736852765083313,-9.21689510345459,3.26900307337443,1.6886866340203889e+18,105.0943887532552,0.0008144870128792,0.0176641867340852,-0.0096211278966317,1.6886866340203889e+18,105.0943887532552,-0.000254527258221,0.0222456755970293,-0.0072794777030746,,,,,,,,,,,,1.6886866340288868e+18,105.10288676757814,21.281679534912108,38.06155853271484,-21.708679580688475,1.6886866340288868e+18,105.10288676757814,-234.06431579589844,133.0873596191406,-154.43247985839844,1.688686634024711e+18,105.0987108561198,-0.2425152212381362,0.0180609244853257,-0.734240194161733,0.6338386734326681,-1.803200085957845,1.221284031867981,2.179628531138102
0.15,1.6886866340766267e+18,105.15062662760418,-0.0619276165962218,0.0459365844726562,0.0381939411163329,1.6886866340766267e+18,105.15062662760418,-0.8342974980672201,-9.1874418258667,3.3716864585876465,1.6886866340766267e+18,105.15062662760418,-0.7782159050305685,-9.215873718261715,3.2708051204681396,1.6886866340723028e+18,105.14630305989584,-0.0004581488901749,0.0574213328460852,-0.0332921550919611,1.6886866340723028e+18,105.14630305989584,-0.0014762577629881,0.0619519166648387,-0.0309505052864551,,,,,,,,,,,,1.6886866340788838e+18,105.152883984375,21.45735969543457,38.08351974487304,-21.606199264526367,1.6886866340788838e+18,105.152883984375,-233.88863525390624,133.10932006835938,-154.3299987792969,1.6886866340766267e+18,105.15062662760418,-0.2434880435466765,0.0191099730630715,-0.734370748202006,0.6332834164301554,-1.804386854171753,1.2209806044896443,2.1837817827860513
0.2,1.6886866341285356e+18,105.20253556315102,-0.0851634740829467,0.0003843307495117,-0.0501617590586344,1.6886866341285356e+18,105.20253556315102,-0.8669994076093038,-9.229914665222168,3.289732297261556,1.6886866341285356e+18,105.20253556315102,-0.7876819570859274,-9.21279430389404,3.2772066593170166,1.688686634124207e+18,105.19820703125,-0.0199549309909343,-0.0517199256428284,-0.0009162979549728,1.688686634124207e+18,105.19820703125,-0.0210239458829164,-0.04713843545566,0.00137444678694,,,,,,,,,,,,1.6886866341288868e+18,105.20288676757814,21.586679458618164,37.9127197265625,-21.681839752197263,1.6886866341288868e+18,105.20288676757814,-233.75931396484376,132.93851623535156,-154.4056365966797,1.6886866341285356e+18,105.20253556315102,-0.2435374706983565,0.0187933525691429,-0.734707236289978,0.6328833103179932,-1.806679368019104,1.2200659116109211,2.1857146422068277
0.25,1.6886866341804485e+18,105.2544483235677,0.117976148923238,-0.0277010599772135,-0.0154518286387125,1.6886866341804485e+18,105.2544483235677,-0.6743771632512411,-9.256035804748535,3.3274192810058594,1.6886866341804485e+18,105.2544483235677,-0.7981993357340494,-9.210830052693684,3.280183712641398,1.6886866341761298e+18,105.25012947591146,-0.0090611675987019,-0.0769181139767169,0.0067704231478273,1.6886866341761298e+18,105.25012947591146,-0.0100792768256117,-0.0723875301579634,0.0091120730406448,,,,,,,,,,,,1.6886866341788844e+18,105.25288447265623,21.637919616699214,37.9127197265625,-21.76236000061035,1.6886866341788844e+18,105.25288447265623,-233.70807800292968,132.93851623535156,-154.4861572265625,1.6886866341804485e+18,105.2544483235677,-0.2421015898386636,0.0170390785982211,-0.7351147135098776,0.6330108642578125,-1.809502045313517,1.2194836139678955,2.183892567952474
0.3,1.688686634232364e+18,105.30636401367188,0.0661469101905821,0.0135348637898762,0.0153794288635253,1.688686634232364e+18,105.30636401367188,-0.728813886642456,-9.214759826660158,3.3577284018198648,1.688686634232364e+18,105.30636401367188,-0.8008068203926086,-9.210789998372396,3.2796615759531655,1.688686634228039e+18,105.3020390625,0.0051923544767001,0.040927971402804,-0.0174605650827287,1.688686634228039e+18,105.3020390625,0.0041742459094771,0.045509461313486,-0.0151189152772227,,,,,,,,,,,,1.6886866342288858e+18,105.30288569335936,21.52323989868164,37.86147918701172,-21.55495948791504,1.6886866342288858e+18,105.30288569335936,-233.8227569580078,132.88727416992188,-154.27875671386718,1.688686634232364e+18,105.30636401367188,-0.242215539018313,0.0172501740356286,-0.7352001667022705,0.6328622897466024,-1.810288985570272,1.2194713751475017,2.185154994328817
0.35,1.6886866342756186e+18,105.34961853027345,-0.0502786934375762,0.0209407806396484,0.0107134580612182,1.6886866342756186e+18,105.34961853027345,-0.842871755361557,-9.207282543182371,3.3538401126861572,1.6886866342756186e+18,105.34961853027345,-0.798439085483551,-9.210718631744385,3.280439257621765,1.6886866342799557e+18,105.35395597330728,-0.0002036218065768,0.0308996010571717,0.0034106640766064,1.6886866342799557e+18,105.35395597330728,-0.0012726359612618,0.0354301848759253,0.0057523145029942,,,,,,,,,,,,1.6886866342788902e+18,105.352890234375,21.615959930419923,38.13963928222656,-21.730639266967778,1.6886866342788902e+18,105.352890234375,-233.7300323486328,133.16543884277343,-154.45443725585938,1.6886866342756186e+18,105.34961853027345,-0.2429477497935295,0.0180050479248165,-0.7351000010967255,0.6326770186424255,-1.8095527291297917,1.2194504737854004,2.186593770980835
0.4,1.6886866343188836e+18,105.39288338216146,-0.0794579982757568,0.0296910603841145,-0.0119115511576334,1.6886866343188836e+18,105.39288338216146,-0.8675976196924845,-9.198209444681805,3.3332018852233887,1.6886866343188836e+18,105.39288338216146,-0.793985644976298,-9.21039581298828,3.282426039377848,1.6886866343318628e+18,105.40586263020832,-0.0107410472507277,-0.0453058381875355,0.0154752526432275,1.6886866343318628e+18,105.40586263020832,-0.0118100615218281,-0.0407752562314271,0.0178169030696152,,,,,,,,,,,,1.6886866343288886e+18,105.40288857421876,21.711119842529296,38.02251968383789,-21.735519790649413,1.6886866343288886e+18,105.40288857421876,-233.63487243652344,133.04831237792968,-154.45931701660157,1.6886866343188836e+18,105.39288338216146,-0.2429780960083007,0.0178179033100604,-0.7349500854810079,0.6328447659810384,-1.8081318537394209,1.2193547487258911,2.184946854909261
0.45,1.6886866343707945e+18,105.44479451497396,-0.0300740996996561,-0.0353730519612629,-0.0559196472167968,1.6886866343707945e+18,105.44479451497396,-0.8239285945892334,-9.262018203735352,3.2913275559743247,1.6886866343707945e+18,105.44479451497396,-0.7997005184491476,-9.209140459696451,3.2845598061879477,1.6886866343751204e+18,105.44912060546876,-0.0090102623216807,-0.0878882370889186,0.0085521133150904,1.6886866343751204e+18,105.44912060546876,-0.0100792762823402,-0.0833831056952476,0.0108428583480417,,,,,,,,,,,,1.6886866343788823e+18,105.45288237304688,21.306079864501953,37.95907897949219,-21.676959609985353,1.6886866343788823e+18,105.45288237304688,-234.0399200439453,132.98487854003906,-154.4007568359375,1.6886866343707945e+18,105.44479451497396,-0.2419060269991556,0.0164838029692569,-0.7351792256037394,0.6330252091089884,-1.809626221656799,1.2189830938975017,2.182936032613118
0.5,1.6886866344227052e+18,105.4967051595052,0.0692918896675109,0.0120426813761393,0.0303417046864827,1.6886866344227052e+18,105.4967051595052,-0.732203741868337,-9.214760144551596,3.3752756913503013,1.6886866344227052e+18,105.4967051595052,-0.8073416550954183,-9.209298133850098,3.2822465896606445,1.6886866344183836e+18,105.49238330078124,0.0022907447225103,-0.0587957793225844,0.0107919528769949,1.6886866344183836e+18,105.49238330078124,0.0012726359224567,-0.0542142906536658,0.0130826973666746,,,,,,,,,,,,1.6886866344288855e+18,105.50288544921877,21.852639770507817,38.03227920532227,-21.50371971130371,1.6886866344288855e+18,105.50288544921877,-233.49335632324215,133.0580810546875,-154.2275177001953,1.6886866344227052e+18,105.4967051595052,-0.2405029336611429,0.0151467444375157,-0.7354729374249777,0.6332522829373678,-1.8119851350784304,1.2190301020940144,2.181288560231527
0.55,1.6886866344746168e+18,105.54861686197916,0.0636589527130126,0.0528593063354491,0.1512386004130045,1.6886866344746168e+18,105.54861686197916,-0.737587591012319,-9.175477663675943,3.4919258753458657,1.6886866344746168e+18,105.54861686197916,-0.807092567284902,-9.210832277933756,3.2779998779296875,1.6886866344702968e+18,105.5442971191406,0.016747888488074,0.0599156996856132,-0.0207185130566358,1.6886866344702968e+18,105.5442971191406,0.0157297799984613,0.06439537803332,-0.0183768630959092,,,,,,,,,,,,1.6886866344788844e+18,105.55288457031251,21.603759765625,37.90051956176758,-21.598879623413087,1.6886866344788844e+18,105.55288457031251,-233.742236328125,132.926318359375,-154.3226776123047,1.6886866344746168e+18,105.54861686197916,-0.2407292773326237,0.0157453628877798,-0.7354517579078674,0.6331760485967001,-1.8122151295344036,1.2194841702779131,2.182708978652954
0.6,1.6886866345265344e+18,105.60053450520832,-0.0709331631660461,0.0761871337890624,0.1266299088795979,1.6886866345265344e+18,105.60053450520832,-0.865005373954773,-9.152745882670084,3.4673994382222495,1.6886866345265344e+18,105.60053450520832,-0.7999182343482971,-9.21142832438151,3.2780821323394775,1.6886866345222054e+18,105.59620564778643,0.0081957754640218,0.1139772733052571,-0.0165951728510359,1.6886866345222054e+18,105.59620564778643,0.007177666586358,0.1185587594906488,-0.0142535219589868,,,,,,,,,,,,1.6886866345288845e+18,105.60288461914062,21.681839752197263,38.112799072265624,-21.523239517211913,1.6886866345288845e+18,105.60288461914062,-233.6641540527344,133.1385955810547,-154.24703369140624,1.6886866345265344e+18,105.60053450520832,-0.2425965319077173,0.0178061171124378,-0.7351560791333517,0.6327517628669739,-1.8101450602213545,1.2196605205535889,2.1863747437795005
0.65,1.6886866345784435e+18,105.65244376627604,-0.1116755008697509,0.0040849049886067,0.0176939964294433,1.6886866345784435e+18,105.65244376627604,-0.9024929404258728,-9.222337086995443,3.3663026491800943,1.6886866345784435e+18,105.65244376627604,-0.7966634631156921,-9.208917299906412,3.285921255747477,1.688686634574121e+18,105.6481210123698,-0.0187332012380162,0.0083484911980727,-0.0081957754058141,1.688686634574121e+18,105.6481210123698,-0.0198022151986757,0.0128790773451328,-0.0058541252898672,,,,,,,,,,,,1.688686634578887e+18,105.65288681640624,21.552519607543942,38.09083938598633,-21.56471977233887,1.688686634578887e+18,105.65288681640624,-233.79347229003903,133.11663818359375,-154.28851623535155,1.6886866345784435e+18,105.65244376627604,-0.2437568654616674,0.0184823138018449,-0.7350267966588339,0.6324370503425598,-1.8086603879928589,1.218917449315389,2.1876006921132407
0.7,1.688686634630352e+18,105.70435188802082,0.0387818217277526,-0.0115915934244791,-0.1151887575785318,1.688686634630352e+18,105.70435188802082,-0.7603193918863932,-9.234700202941896,3.2406794230143228,1.688686634630352e+18,105.70435188802082,-0.8049472371737162,-9.20560391743978,3.293180783589681,1.6886866346260337e+18,105.70003385416663,-0.0171042270958423,-0.0521271675825118,0.0037670023157261,1.6886866346260337e+18,105.70003385416663,-0.01817324043562,-0.0476474886139233,0.0061086524898806,,,,,,,,,,,,1.688686634628886e+18,105.70288623046876,21.47199935913086,37.86391830444336,-21.36951904296875,1.688686634628886e+18,105.70288623046876,-233.87398986816407,132.88971862792968,-154.09331665039062,1.688686634630352e+18,105.70435188802082,-0.2432100574175516,0.0173859434823195,-0.7353406548500061,0.6323137283325195,-1.8105310996373496,1.2179385423660278,2.1871016025543213
0.75,1.6886866346822676e+18,105.75626741536458,0.1066008210182189,-0.0348647435506184,-0.0475153923034667,1.6886866346822676e+18,105.75626741536458,-0.6967101891835531,-9.257631619771322,3.3082767327626548,1.6886866346822676e+18,105.75626741536458,-0.8091570337613424,-9.205262184143066,3.2931047280629477,1.6886866346779471e+18,105.75194694010416,0.0041742457542568,0.0166969833274682,-0.0164933617537219,1.6886866346779471e+18,105.75194694010416,0.0031561371870338,0.0212784729277094,-0.0142026169536013,,,,,,,,,,,,1.6886866346788846e+18,105.75288461914064,21.606199645996092,37.920040130615234,-21.43051986694336,1.6886866346788846e+18,105.75288461914064,-233.739794921875,132.94583435058593,-154.1543182373047,1.6886866346822676e+18,105.75626741536458,-0.2430127660433451,0.0172228918721278,-0.7354904611905416,0.6322198708852133,-1.811742901802063,1.217837969462077,2.1877899964650473
0.8,1.688686634725529e+18,105.79952941894533,-0.0155993700027466,0.0042057037353515,-0.0825378894805908,1.688686634725529e+18,105.79952941894533,-0.8210372924804688,-9.218648433685305,3.272484064102173,1.688686634725529e+18,105.79952941894533,-0.8112839460372925,-9.205349445343018,3.29233455657959,1.688686634729858e+18,105.80385799153646,0.0005599597352556,0.0509054390713571,-0.0243327993278701,1.688686634729858e+18,105.80385799153646,-0.000509054303014,0.0554360207170247,-0.0219911493671436,,,,,,,,,,,,1.6886866347288886e+18,105.80288852539064,21.66719970703125,37.86635894775391,-21.60131950378418,1.6886866347288886e+18,105.80288852539064,-233.67879333496097,132.89215393066405,-154.3251190185547,1.688686634725529e+18,105.79952941894533,-0.2438861429691314,0.0183313786983489,-0.7355374097824097,0.631797581911087,-1.8124067187309263,1.2178638577461245,2.191351294517517
0.85,1.6886866347687918e+18,105.84279191080728,-0.1225830316543579,-0.0777543385823567,-0.1848133405049642,1.6886866347687918e+18,105.84279191080728,-0.9284151792526244,-9.300901412963867,3.1692936420440674,1.6886866347687918e+18,105.84279191080728,-0.8116781711578369,-9.205642382303871,3.291419585545858,1.6886866347817636e+18,105.85576342773436,0.0039197186318536,-0.1070541317264238,0.0601193203280369,1.6886866347817636e+18,105.85576342773436,0.0028507045935839,-0.1025744539995987,0.0624609726170698,,,,,,,,,,,,1.6886866347788844e+18,105.85288427734376,22.08444023132324,37.87855911254883,-21.598879623413087,1.6886866347788844e+18,105.85288427734376,-233.26155700683591,132.90436096191405,-154.3226745605469,1.6886866347687918e+18,105.84279191080728,-0.2435780564943949,0.0180515560011068,-0.7355577747027079,0.6319004495938619,-1.8125830094019573,1.2179501454035442,2.1906649271647134
0.9,1.6886866348206994e+18,105.89469938151042,0.1035795211791991,0.0340957641601562,0.0611642201741536,1.6886866348206994e+18,105.89469938151042,-0.690927525361379,-9.1944211324056,3.402992566426595,1.6886866348206994e+18,105.89469938151042,-0.8003530701001486,-9.21101220448812,3.2791409492492676,1.6886866348336794e+18,105.90767936197916,0.03089960043629,-0.049530990421772,0.0407752559209862,1.6886866348336794e+18,105.90767936197916,0.0298305855443079,-0.044949498027563,0.0430659990136821,,,,,,,,,,,,1.6886866348288868e+18,105.90288686523438,21.955119323730468,37.98591995239258,-21.21823959350586,1.6886866348288868e+18,105.90288686523438,-233.3908721923828,133.01171875,-153.94203491210936,1.6886866348206994e+18,105.89469938151042,-0.2411202440659205,0.0160137570152679,-0.735212484995524,0.6332981983820597,-1.8101952870686848,1.21953809261322,2.1816510359446206
0.95,1.6886866348726157e+18,105.94661564127604,0.0660715699195862,0.0910746256510415,0.2617350419362386,1.6886866348726157e+18,105.94661564127604,-0.714257558186849,-9.142975489298502,3.5914273262023926,1.6886866348726157e+18,105.94661564127604,-0.7861751516660055,-9.216545422871906,3.26700488726298,1.6886866348769426e+18,105.95094262695312,0.0339030213654041,0.1621847227215766,-0.0268017132766544,1.6886866348769426e+18,105.95094262695312,0.0328340074047446,0.1666898503899573,-0.0245109684765338,,,,,,,,,,,,1.6886866348788818e+18,105.95288188476562,22.118599319458006,38.039599609375,-21.44515914916992,1.6886866348788818e+18,105.95288188476562,-233.2273956298828,133.06539611816407,-154.16895446777343,1.6886866348726157e+18,105.94661564127604,-0.2414386669794718,0.0171502841015656,-0.7346946398417155,0.6337472597757975,-1.806951880455017,1.2211803197860718,2.180479367574056
1.0,1.688686634924528e+18,105.99852799479169,-0.1961593031883239,0.1123444239298501,0.1387168566385904,1.688686634924528e+18,105.99852799479169,-0.9702895879745485,-9.12223752339681,3.4683964252471924,1.688686634924528e+18,105.99852799479169,-0.7799763083457947,-9.217077255249023,3.266992171605428,1.688686634920194e+18,105.99419425455729,0.0055995982450743,0.1223766667147477,-0.036550103376309,1.688686634920194e+18,105.99419425455729,0.0045305839739739,0.1269581615924834,-0.0342084535708029,1.688686634927278e+18,106.00127807617189,0.0,0.4508149921894073,0.8701200485229492,5.739999771118164,0.0138509310781955,0.0,40.20000076293945,-122.7531536,49.1903755,1.688686634928887e+18,106.002887109375,21.706239318847658,38.11035995483398,-21.62815933227539,1.688686634928887e+18,106.002887109375,-233.63975219726564,133.1361541748047,-154.35195617675782,1.688686634924528e+18,105.99852799479169,-0.2440601785977681,0.0201029516756534,-0.7344051003456116,0.6329922676086426,-1.8051587343215945,1.2213390270868938,2.186830520629883
1.05,1.6886866349764403e+18,106.05044034830728,-0.1366020639737446,0.0001586278279622,-0.0434761047363281,1.6886866349764403e+18,106.05044034830728,-0.9166504740715028,-9.23111089070638,3.294119199117025,1.6886866349764403e+18,106.05044034830728,-0.7858944535255432,-9.213764826456703,3.274907906850179,1.6886866349721157e+18,106.04611564127605,-0.0247400421649217,-0.0830776753524938,0.0146607657273609,1.6886866349721157e+18,106.04611564127605,-0.025809056436022,-0.0785470890502134,0.0170533217024057,,,,,,,,,,,,1.688686634978884e+18,106.05288413085935,21.640359115600585,37.995679473876955,-21.17187957763672,1.688686634978884e+18,106.05288413085935,-233.70563659667968,133.02147827148437,-153.8956756591797,1.6886866349764403e+18,106.05044034830728,-0.2440039912859598,0.0194923629363377,-0.7346265117327372,0.6327758630116781,-1.8063201506932576,1.2203542391459148,2.1870503425598145
1.1,1.6886866350283525e+18,106.1023524576823,0.127501090367635,-0.0510063171386718,-0.0923153559366861,1.6886866350283525e+18,106.1023524576823,-0.6675975124041239,-9.279565493265787,3.249253749847412,1.6886866350283525e+18,106.1023524576823,-0.8009446263313293,-9.21105448404948,3.2788817087809243,1.6886866350240274e+18,106.0980274251302,-0.0154243470169603,-0.1202895467480023,0.0023925558198243,1.6886866350240274e+18,106.0980274251302,-0.0164424562826752,-0.1158607775966326,0.0047342057029406,,,,,,,,,,,,1.6886866350288847e+18,106.10288461914062,21.955119323730468,37.94688034057617,-21.48907928466797,1.6886866350288847e+18,106.10288461914062,-233.39087829589843,132.9726776123047,-154.21287536621094,1.6886866350283525e+18,106.1023524576823,-0.2419040997823079,0.0169523420433203,-0.7352114915847778,0.6329759359359741,-1.8103808561960857,1.2195498545964558,2.184353748957316
1.15,1.688686635080264e+18,106.15426416015625,0.1990272005399068,-0.0417652130126952,-0.0550819238026936,1.688686635080264e+18,106.15426416015625,-0.6073781450589498,-9.27059237162272,3.2829527060190835,1.688686635080264e+18,106.15426416015625,-0.8122513691584269,-9.211322466532389,3.2753472328186035,1.6886866350759404e+18,106.14994042968748,0.0135408462956546,0.0418951741109291,-0.0277943685650824,1.6886866350759404e+18,106.14994042968748,0.0125227376508215,0.0464257591714461,-0.0254527187595764,,,,,,,,,,,,1.6886866350788833e+18,106.15288334960935,21.450039291381835,37.96639862060547,-21.511039352416994,1.6886866350788833e+18,106.15288334960935,-233.89595642089844,132.99219665527343,-154.2348388671875,1.688686635080264e+18,106.15426416015625,-0.2415033380190531,0.0169295240193605,-0.7356041272481283,0.6326735417048136,-1.8138870000839231,1.219629446665446,2.1872379779815674
1.2,1.6886866351321807e+18,106.20618090820312,-0.0141998132069905,0.0149869918823242,-0.0278747876485188,1.6886866351321807e+18,106.20618090820312,-0.8099704583485922,-9.217352231343588,3.3028928438822427,1.6886866351321807e+18,106.20618090820312,-0.8016166687011719,-9.214834531148275,3.268080234527588,1.6886866351278523e+18,106.2018525390625,0.0238746497780084,0.096720332900683,-0.0031561374974747,1.6886866351278523e+18,106.2018525390625,0.0228565409779548,0.1012509167194366,-0.0008653923869132,,,,,,,,,,,,1.688686635128882e+18,106.20288203124998,21.835559463500974,38.17136001586914,-21.374399185180664,1.688686635128882e+18,106.20288203124998,-233.51043395996095,133.19715576171876,-154.09819946289062,1.6886866351321807e+18,106.20618090820312,-0.2429639945427576,0.0190555012474457,-0.7351834774017334,0.6325426896413168,-1.8113375504811604,1.22067129611969,2.1898969809214273
1.25,1.6886866351754373e+18,106.2494373779297,-0.0585963726043701,-0.0002293586730957,0.0260272026062011,1.6886866351754373e+18,106.2494373779297,-0.8377870321273804,-9.235996723175049,3.3511481285095215,1.6886866351754373e+18,106.2494373779297,-0.7850366830825806,-9.218262672424316,3.2624335289001465,1.688686635179767e+18,106.25376692708332,0.0130317920508483,0.0258599622175097,0.0339030219862858,1.688686635179767e+18,106.25376692708332,0.0119627777797479,0.0304414511968691,0.0361937669416268,1.688686635154e+18,106.22799975585936,0.0,0.4508149921894073,0.8216913342475891,5.798999786376953,0.0127304745838046,0.0,40.20000076293945,-122.7531536,49.1903755,1.688686635178884e+18,106.25288403320312,21.01571922302246,37.98835983276367,-21.464679336547853,1.688686635178884e+18,106.25288403320312,-234.3302764892578,133.0141571044922,-154.1884735107422,1.6886866351754373e+18,106.2494373779297,-0.2435737624764442,0.0199750307947397,-0.7345841526985168,0.632976233959198,-1.8069393634796145,1.221691906452179,2.187700629234314
1.3,1.6886866352186918e+18,106.29269165039062,-0.0445656776428222,0.0299018224080403,-0.0133427778879801,1.6886866352186918e+18,106.29269165039062,-0.8115656773249308,-9.207780838012695,3.309273640314738,1.6886866352186918e+18,106.29269165039062,-0.7728460232416788,-9.2201779683431,3.2599290211995444,1.688686635231673e+18,106.30567309570311,0.0040215295739471,-0.0100283713157598,0.0204639857014019,1.688686635231673e+18,106.30567309570311,0.0030034206962833,-0.0054977872253705,0.0227547306567429,,,,,,,,,,,,1.688686635228887e+18,106.30288706054688,21.276799392700195,38.13231964111328,-21.64279975891113,1.688686635228887e+18,106.30288706054688,-234.06919555664064,133.15812072753906,-154.3665985107422,1.6886866352186918e+18,106.29269165039062,-0.2435944080352782,0.0200221352279186,-0.7341598471005758,0.6334589322408041,-1.8035770654678345,1.2222635348637898,2.1844178835550943
1.35,1.6886866352706102e+18,106.3446101888021,-0.042192796866099,-0.0207923253377278,-0.0509246985117593,1.6886866352706102e+18,106.3446101888021,-0.803190807501475,-9.260422706604006,3.267598787943522,1.6886866352706102e+18,106.3446101888021,-0.7668440341949463,-9.22212568918864,3.255836089452108,1.6886866352835858e+18,106.35758585611978,0.0107919527217745,-0.036550103376309,0.0246891366938749,1.6886866352835858e+18,106.35758585611978,0.0097738440769413,-0.0320704256494839,0.0269798822700977,,,,,,,,,,,,1.6886866352788815e+18,106.352881640625,21.20115966796875,38.14939956665039,-21.496399688720704,1.6886866352788815e+18,106.352881640625,-234.14483642578125,133.17519836425782,-154.22019653320314,1.6886866352706102e+18,106.3446101888021,-0.2430813511212667,0.019667075946927,-0.7339612245559692,0.6338971058527628,-1.8021148045857749,1.222845156987508,2.181666533152262
1.4,1.6886866353225224e+18,106.39652221679688,0.0084060827891031,0.023109753926595,0.0475226243336995,1.6886866353225224e+18,106.39652221679688,-0.7479564746220907,-9.219346046447754,3.359124183654785,1.6886866353225224e+18,106.39652221679688,-0.7622085809707642,-9.224951108296716,3.2489141623179116,1.6886866353268472e+18,106.40084729003904,0.0131336031481623,-0.009468411677517,0.0093920531217008,1.6886866353268472e+18,106.40084729003904,0.0120645882561802,-0.0049632799346,0.0117591558955609,,,,,,,,,,,,1.6886866353288896e+18,106.40288969726564,21.17431983947754,38.04447860717774,-21.459799575805665,1.6886866353288896e+18,106.40288969726564,-234.1716766357422,133.07027893066407,-154.18359985351563,1.6886866353225224e+18,106.39652221679688,-0.2423498580853144,0.0193045710523922,-0.7338099877039591,0.6343633135159811,-1.801239053408305,1.2236905495325725,2.1791630585988364
1.45,1.6886866353744343e+18,106.44843440755209,-0.0480227271715799,0.0628019968668619,0.0698672135670979,1.6886866353744343e+18,106.44843440755209,-0.8009973963101705,-9.181060791015623,3.3782668113708496,1.6886866353744343e+18,106.44843440755209,-0.7588206926981608,-9.22635809580485,3.2457122008005777,1.6886866353701097e+18,106.44410970052084,0.0080430589150636,0.0399098619818687,-0.0080939645413308,1.6886866353701097e+18,106.44410970052084,0.0069740448767939,0.0444404470423857,-0.005752314464189,,,,,,,,,,,,1.6886866353788846e+18,106.45288461914063,21.18652000427246,38.100599670410155,-21.396359252929688,1.6886866353788846e+18,106.45288461914063,-234.15947570800785,133.12639770507812,-154.12015686035156,1.6886866353744343e+18,106.44843440755209,-0.2426713903745015,0.0198823617150385,-0.7336766521135966,0.6343767046928406,-1.8004673719406128,1.2241123914718628,2.179691791534424
1.5,1.6886866354263437e+18,106.50034342447915,-0.1136579910914102,-0.0185003280639648,-0.0876278082529703,1.6886866354263437e+18,106.50034342447915,-0.8713862498601278,-9.261420249938965,3.2223344643910727,1.6886866354263437e+18,106.50034342447915,-0.7635742823282877,-9.225415229797363,3.247274875640869,1.6886866354220214e+18,106.49602124023438,-0.0089593568506339,-0.0443386367551284,0.00366519135423,1.6886866354220214e+18,106.49602124023438,-0.0099774658059079,-0.0398589582182467,0.0060068412373462,,,,,,,,,,,,1.688686635428884e+18,106.50288408203126,21.25971908569336,38.188438415527344,-21.432959747314452,1.688686635428884e+18,106.50288408203126,-234.08627319335935,133.21423950195313,-154.15675659179686,1.6886866354263437e+18,106.50034342447915,-0.242600346604983,0.0197443272918462,-0.7338451544443766,0.6342131296793619,-1.801746129989624,1.2238301038742063,2.180674393971761
1.55,1.68868663547826e+18,106.55226000976565,0.074960966904958,-0.0345220565795897,-0.075503905614217,1.68868663547826e+18,106.55226000976565,-0.6897311210632324,-9.27797031402588,3.231307586034139,1.68868663547826e+18,106.55226000976565,-0.7705381115277609,-9.225943565368652,3.244124094645182,1.688686635473932e+18,106.54793196614582,0.0002545270641954,-0.1179478963216145,0.0248418537278969,1.688686635473932e+18,106.54793196614582,-0.0008144869740741,-0.1134173149863878,0.027234408383568,,,,,,,,,,,,1.688686635478887e+18,106.55288686523438,21.70135955810547,38.09327926635742,-21.562279510498048,1.688686635478887e+18,106.55288686523438,-233.64463806152344,133.11907653808595,-154.28607788085938,1.68868663547826e+18,106.55226000976565,-0.2406401336193084,0.0178265000383058,-0.7341359257698059,0.6346796949704488,-1.8039957682291667,1.223988652229309,2.1772510210673013
1.6,1.6886866355301714e+18,106.60417138671876,0.1463318864504496,0.0244019826253255,0.0101862748463948,1.6886866355301714e+18,106.60417138671876,-0.6207380692164103,-9.22114086151123,3.3104701042175293,1.6886866355301714e+18,106.60417138671876,-0.7729159792264303,-9.22803815205892,3.2375964323679605,1.688686635525847e+18,106.59984684244792,0.0129299809535343,0.0033597589160005,-0.0020362176001071,1.688686635525847e+18,106.59984684244792,0.0119627779349684,0.0079412478953599,0.0003054327486704,,,,,,,,,,,,1.6886866355288794e+18,106.60287939453126,21.58423957824707,38.234799194335935,-21.515919876098632,1.6886866355288794e+18,106.60287939453126,-233.76175842285156,133.260595703125,-154.23971557617188,1.6886866355301714e+18,106.60417138671876,-0.2396450837453206,0.0172285456210374,-0.7342330813407898,0.6349607904752096,-1.8051448265711467,1.2246170441309612,2.1760520140329995
1.65,1.688686635582083e+18,106.65608300781253,-0.0354594389597574,-0.0106592178344726,-0.0046007633209227,1.688686635582083e+18,106.65608300781253,-0.7952147324879965,-9.258827845255531,3.2899317741394043,1.688686635582083e+18,106.65608300781253,-0.7656013170878092,-9.230663935343424,3.2318451404571533,1.68868663557776e+18,106.65176000976562,0.0156279690563678,0.0317140867312748,0.0099265600244203,1.68868663557776e+18,106.65176000976562,0.0145589550957083,0.0362446708604693,0.0122173050573716,,,,,,,,,,,,1.688686635578887e+18,106.65288666992188,21.393919372558592,38.26651840209961,-21.25971908569336,1.688686635578887e+18,106.65288666992188,-233.95207824707032,133.29232177734374,-153.9835205078125,1.688686635582083e+18,106.65608300781253,-0.2401499152183532,0.0181664681682983,-0.7339566946029663,0.6350634495417277,-1.803405523300171,1.2254064480463662,2.17639430363973
1.7,1.6886866356253396e+18,106.6993397216797,-0.0001061260700225,0.0625548362731933,0.0608398914337157,1.6886866356253396e+18,106.6993397216797,-0.7498507797718048,-9.188438892364502,3.349652647972107,1.6886866356253396e+18,106.6993397216797,-0.7555906772613525,-9.23348903656006,3.2261253595352173,1.6886866356296714e+18,106.70367138671875,0.0105883309928078,-0.0141517113273341,0.0264199220885832,1.6886866356296714e+18,106.70367138671875,0.0095702221927542,-0.0095702221927542,0.028761572514971,,,,,,,,,,,,1.6886866356288842e+18,106.70288427734374,21.630599594116212,38.132318115234376,-21.35243911743164,1.6886866356288842e+18,106.70288427734374,-233.71539611816405,133.15812072753906,-154.07623901367188,1.6886866356253396e+18,106.6993397216797,-0.2399055659770965,0.0181975113227963,-0.7336082756519318,0.6355573236942291,-1.8008641004562378,1.2262582778930664,2.173513412475586
1.75,1.688686635668605e+18,106.74260473632812,0.0077087879180907,0.035443623860677,0.0391147931416829,1.688686635668605e+18,106.74260473632812,-0.7367899616559347,-9.216156005859377,3.3274192810058594,1.688686635668605e+18,106.74260473632812,-0.7503447731335958,-9.234094937642416,3.2256170908610025,1.688686635681586e+18,106.7555860188802,-0.008144870167598,-0.0042760566672464,0.0077376263216137,1.688686635681586e+18,106.7555860188802,-0.0092138842058677,0.0002545271224031,0.0101301819086074,,,,,,,,,,,,1.688686635678888e+18,106.75288789062502,21.376839447021485,38.21527938842773,-21.096239471435545,1.688686635678888e+18,106.75288789062502,-233.96915283203128,133.24107971191407,-153.82003784179688,1.688686635668605e+18,106.74260473632812,-0.2397915671269098,0.0180323452999194,-0.7334300875663757,0.635810653368632,-1.7993570566177368,1.2264411449432373,2.171592632929484
1.8,1.6886866357205166e+18,106.7945165201823,-0.0335476994514465,-0.0314881006876627,-0.0736904939015706,1.6886866357205166e+18,106.7945165201823,-0.7742775281270345,-9.28215789794922,3.218147118886312,1.6886866357205166e+18,106.7945165201823,-0.7465758522351583,-9.23316510518392,3.2291502157847085,1.6886866357334925e+18,106.8074921875,-0.0045305839739739,-0.0381790778289238,0.027896179507176,1.6886866357334925e+18,106.8074921875,-0.0055995980122436,-0.0335975885391234,0.0302378299335638,,,,,,,,,,,,1.6886866357288863e+18,106.80288618164062,21.603759765625,38.23479843139648,-21.323159408569335,1.6886866357288863e+18,106.80288618164062,-233.7422332763672,133.260595703125,-154.04695739746094,1.6886866357205166e+18,106.7945165201823,-0.2396281907955804,0.0175100446989138,-0.733311673005422,0.6360233426094055,-1.7980072100957234,1.2261604865392048,2.16925040880839
1.85,1.6886866357724257e+18,106.84642553710935,0.0452610651652018,0.0166546503702799,0.0026106039683023,1.6886866357724257e+18,106.84642553710935,-0.6887341141700745,-9.235298792521158,3.2923245429992676,1.6886866357724257e+18,106.84642553710935,-0.7398412028948466,-9.234448750813804,3.2270265420277915,1.6886866357767572e+18,106.85075732421876,0.0092393367085605,0.0030543259344995,0.00832303869538,1.6886866357767572e+18,106.85075732421876,0.0081703225150703,0.0076358157675713,0.0107664995302911,,,,,,,,,,,,1.6886866357788849e+18,106.85288491210936,21.48907928466797,38.2494400024414,-21.34267921447754,1.6886866357788849e+18,106.85288491210936,-233.8569152832031,133.27523498535157,-154.06647644042968,1.6886866357724257e+18,106.84642553710935,-0.239099899927775,0.0169752985239028,-0.7330901821454366,0.636491854985555,-1.7961695194244385,1.226548155148824,2.1658475399017334
1.9,1.6886866358243412e+18,106.89834138997396,-0.0419785380363464,0.0244092941284179,0.0343993504842122,1.6886866358243412e+18,106.89834138997396,-0.776470939318339,-9.228718121846518,3.320639689763387,1.6886866358243412e+18,106.89834138997396,-0.7403384248415629,-9.2356227238973,3.223552942276001,1.6886866358200223e+18,106.8940225423177,0.010893763663868,0.0442877300083636,-0.0209221349408228,1.6886866358200223e+18,106.8940225423177,0.0098247493927676,0.0487674102187155,-0.018580484514435,,,,,,,,,,,,1.6886866358288868e+18,106.90288681640624,21.403679656982423,38.32263870239258,-21.17187957763672,1.6886866358288868e+18,106.90288681640624,-233.94231567382812,133.3484375,-153.8956787109375,1.6886866358243412e+18,106.89834138997396,-0.2395593871672947,0.0177873764187097,-0.7330881158510844,0.6362991730372111,-1.7965505123138428,1.2269028425216673,2.1680739720662436
1.95,1.6886866358762465e+18,106.95024658203126,0.0085909366607665,0.0009129842122395,-0.0158890883127848,1.6886866358762465e+18,106.95024658203126,-0.73320072889328,-9.25244681040446,3.2679975032806396,1.6886866358762465e+18,106.95024658203126,-0.7476376891136169,-9.235855102539062,3.2211991945902505,1.6886866358719245e+18,106.94592456054689,0.0026979882192486,-0.0233655953779816,-0.0110973850823938,1.6886866358719245e+18,106.94592456054689,0.0016289739724015,-0.018835011559228,-0.008806640592714,,,,,,,,,,,,1.6886866358788872e+18,106.95288720703124,20.88151969909668,38.33483810424805,-21.379279327392577,1.6886866358788872e+18,106.95288720703124,-234.4644775390625,133.3606384277344,-154.103076171875,1.6886866358762465e+18,106.95024658203126,-0.2395421117544173,0.0180569334576526,-0.7333351969718933,0.6360133290290833,-1.7988604704538982,1.226973056793213,2.1707502206166587
2.0,1.6886866359281646e+18,107.00216455078125,0.1015197833379109,-0.0045763651529948,0.0021212100982666,1.6886866359281646e+18,107.00216455078125,-0.6374878287315369,-9.25922679901123,3.282952626546224,1.6886866359281646e+18,107.00216455078125,-0.7448536356290182,-9.2371457417806,3.2181440194447837,1.6886866359238382e+18,106.99783829752604,0.0066686123609542,0.0008653926973541,0.0210239452620346,1.6886866359238382e+18,106.99783829752604,0.0056505034832903,0.0054468816767136,0.0233146902173757,1.688686635927298e+18,107.00129809570312,0.0,0.4325167834758758,0.8263130187988281,5.840000152587891,0.0143836792558431,0.0,40.20000076293945,-122.7531538,49.1903755,1.6886866359288824e+18,107.00288251953124,21.637919616699214,38.3982795715332,-21.188959884643555,1.6886866359288824e+18,107.00288251953124,-233.70807189941405,133.42408142089843,-153.91275634765626,1.6886866359281646e+18,107.00216455078125,-0.239135334889094,0.0177913916607697,-0.7332449356714884,0.636277993520101,-1.7982479731241865,1.2273635864257812,2.169142961502075
2.05,1.6886866359800783e+18,107.05407828776042,0.0078800519307454,0.0141528447469075,-0.0064764817555745,1.6886866359800783e+18,107.05407828776042,-0.714257558186849,-9.242875417073568,3.2713874181111655,1.6886866359800783e+18,107.05407828776042,-0.7279836336771647,-9.239523569742838,3.215176502863566,1.68868663597575e+18,107.04975,0.0075849102189142,0.0364482924342155,0.0210239458829164,1.68868663597575e+18,107.04975,0.0065158960254241,0.0409788774947324,0.0234165011594692,,,,,,,,,,,,1.6886866359788849e+18,107.05288491210938,21.69403953552246,38.62763900756836,-21.115759658813477,1.6886866359788849e+18,107.05288491210938,-233.6519561767578,133.65343627929687,-153.83955993652344,1.6886866359800783e+18,107.05407828776042,-0.2395837157964706,0.0183055816839138,-0.7326456904411316,0.6367847323417664,-1.7934653759002686,1.2280839681625366,2.165742715199789
2.1,1.6886866360319946e+18,107.10599462890625,-0.0702147682507832,0.0411005020141601,0.0258112748463948,1.6886866360319946e+18,107.10599462890625,-0.7766703367233276,-9.217352231343588,3.303092241287231,1.6886866360319946e+18,107.10599462890625,-0.7123015920321146,-9.240948041280111,3.2145935694376626,1.6886866360276623e+18,107.10166235351562,0.0039197185154382,0.0392989975710709,0.0178678088511029,1.6886866360276623e+18,107.10166235351562,0.0028507044820191,0.0438804862399895,0.0202603641276557,,,,,,,,,,,,1.6886866360288845e+18,107.1028845703125,20.781479263305663,38.35435943603515,-21.147479629516603,1.6886866360288845e+18,107.1028845703125,-234.56451416015625,133.38015747070312,-153.87127685546875,1.6886866360319946e+18,107.10599462890625,-0.2402754475673039,0.0189254327366748,-0.7320842742919922,0.6371515790621439,-1.7888596852620442,1.228516658147176,2.163038571675618
2.15,1.6886866360752584e+18,107.14925830078124,-0.1154996156692504,0.0458798408508299,-0.0406059026718139,1.6886866360752584e+18,107.14925830078124,-0.8258229196071625,-9.211470127105716,3.2389845848083496,1.6886866360752584e+18,107.14925830078124,-0.7161693274974823,-9.239845275878906,3.2169030904769897,1.688686636079575e+18,107.1535751953125,-0.0135408461404342,-0.0506000050033131,-0.0150680093405146,1.688686636079575e+18,107.1535751953125,-0.0146098608771959,-0.0460694208741187,-0.0127772646956145,,,,,,,,,,,,1.6886866360788849e+18,107.15288496093748,20.99375915527344,38.19820022583008,-21.450039672851563,1.6886866360788849e+18,107.15288496093748,-234.35223388671875,133.22399291992187,-154.17383422851563,1.6886866360752584e+18,107.14925830078124,-0.2403071001172065,0.0188335785642266,-0.7322209477424622,0.6369852423667908,-1.7898510098457336,1.228182017803192,2.163952946662903
2.2,1.6886866361185108e+18,107.19251106770832,0.0400831103324889,-0.06483523050944,-0.1042509078979491,1.6886866361185108e+18,107.19251106770832,-0.6831508676211039,-9.320642471313477,3.176870822906494,1.6886866361185108e+18,107.19251106770832,-0.7290800015131632,-9.2383025487264,3.2184343338012695,1.6886866361314875e+18,107.20548738606772,0.0009162979743753,-0.0774780760208765,0.0045814894062156,1.6886866361314875e+18,107.20548738606772,-0.0001527160687449,-0.0728965873519579,0.0069231394445522,,,,,,,,,,,,1.6886866361288837e+18,107.20288354492187,21.254840087890624,38.27627868652344,-21.27924003601074,1.6886866361288837e+18,107.20288354492187,-234.0911590576172,133.3020782470703,-154.00303344726564,1.6886866361185108e+18,107.19251106770832,-0.2391586750745773,0.0175737192233403,-0.7327013810475668,0.6369008421897888,-1.793569604555766,1.2277144193649292,2.1641695499420166
2.25,1.6886866361704271e+18,107.24442700195311,0.1866882840792338,0.0152963002522786,0.0295581817626953,1.6886866361704271e+18,107.24442700195311,-0.5439683397610983,-9.242077827453612,3.304488023122152,1.6886866361704271e+18,107.24442700195311,-0.7365026473999023,-9.239869435628254,3.2122424443562827,1.6886866361833997e+18,107.25739973958332,0.0133881298825144,0.0263690172384182,-0.0123700210824607,1.6886866361833997e+18,107.25739973958332,0.0123700212376812,0.0309505065282186,-0.0099774656506875,,,,,,,,,,,,1.688686636178887e+18,107.25288671875,20.84247932434082,38.283599853515625,-21.342679595947267,1.688686636178887e+18,107.25288671875,-234.5035186767578,133.30939636230468,-154.0664794921875,1.6886866361704271e+18,107.24442700195311,-0.238129715124766,0.0169849861413239,-0.7329736550649008,0.6369893352190653,-1.7961830298105876,1.2281893889109294,2.164405584335327
2.3,1.6886866362223355e+18,107.29633561197916,0.0101061860720316,0.0250991185506184,0.013773759206136,1.6886866362223355e+18,107.29633561197916,-0.7126623392105103,-9.233304341634115,3.287538925806681,1.6886866362223355e+18,107.29633561197916,-0.7286145488421122,-9.240898768107096,3.2110777695973716,1.6886866362266634e+18,107.30066333007812,-0.0019853120902553,0.0645226407796143,0.0163406454958021,1.6886866362266634e+18,107.30066333007812,-0.0030543261673301,0.069104129448533,0.0186313898302614,,,,,,,,,,,,1.688686636228885e+18,107.30288515625,21.101119232177737,38.25919876098633,-21.259719848632812,1.688686636228885e+18,107.30288515625,-234.2448760986328,133.28499755859374,-153.98351440429687,1.6886866362223355e+18,107.29633561197916,-0.2389908333619435,0.0179575545092423,-0.7326762080192566,0.6369822223981222,-1.7939276297887166,1.2285017172495525,2.1648173332214355
2.35,1.688686636274248e+18,107.348248046875,-0.1001124779383341,0.0085074106852213,-0.0316528479258218,1.688686636274248e+18,107.348248046875,-0.8015955885251363,-9.250452677408854,3.2452657222747803,1.688686636274248e+18,107.348248046875,-0.7073291341463724,-9.24145539601644,3.214231173197428,1.6886866362699172e+18,107.3439170735677,-0.0068722339347004,-0.0126754542191823,0.0517199250559011,1.6886866362699172e+18,107.3439170735677,-0.007890342734754,-0.0080939636876185,0.0541124790906905,,,,,,,,,,,,1.688686636278885e+18,107.35288530273438,21.157239532470705,38.188439178466794,-21.306079864501953,1.688686636278885e+18,107.35288530273438,-234.18875427246093,133.2142364501953,-154.02987670898438,1.688686636274248e+18,107.348248046875,-0.2394015292326608,0.0178807328144708,-0.7319373885790507,0.6376791795094808,-1.787408431371053,1.2286709944407146,2.1587801774342856
2.4,1.6886866363261563e+18,107.40015649414065,-0.0244019428888956,0.0260772705078124,0.0180283387502034,1.6886866363261563e+18,107.40015649414065,-0.7160521745681763,-9.233503659566244,3.295315663019816,1.6886866363261563e+18,107.40015649414065,-0.697496255238851,-9.24207623799642,3.214599927266439,1.688686636321835e+18,107.39583487955728,-0.001170825062824,-0.0258599622175096,0.0151189149667819,1.688686636321835e+18,107.39583487955728,-0.0022398392126584,-0.0212784733157604,0.0174096593012412,,,,,,,,,,,,1.6886866363288847e+18,107.40288457031252,21.43051948547363,38.61055908203125,-21.386599731445312,1.6886866363288847e+18,107.40288457031252,-233.9154754638672,133.63635864257813,-154.110400390625,1.6886866363261563e+18,107.40015649414065,-0.2388720115025837,0.0171063014616568,-0.7316135764122009,0.6382704178492228,-1.7844659090042114,1.2288596232732136,2.1539276440938315
2.45,1.688686636378073e+18,107.45207332356772,0.0010131994883219,0.0032787322998046,-0.0324874718983967,1.688686636378073e+18,107.45207332356772,-0.7026922504107157,-9.255637486775717,3.244069258371989,1.688686636378073e+18,107.45207332356772,-0.709551473458608,-9.241411526997885,3.213869333267212,1.6886866363737416e+18,107.44774161783852,0.0032070425222627,0.0030034207932961,-0.0361428608496983,1.6886866363737416e+18,107.44774161783852,0.0021889337416117,0.0075340047478675,-0.0337503049522638,,,,,,,,,,,,1.688686636378886e+18,107.45288588867189,21.63059921264648,38.239678955078126,-21.303639221191407,1.688686636378886e+18,107.45288588867189,-233.71539611816405,133.265478515625,-154.02743835449218,1.688686636378073e+18,107.45207332356772,-0.2387800614039103,0.017227300753196,-0.7320304910341898,0.6378233234087626,-1.7880921761194866,1.2286575237909954,2.157602866490682
2.5,1.688686636429988e+18,107.5039881184896,0.0130632718404134,0.0061616897583007,0.0242693424224853,1.688686636429988e+18,107.5039881184896,-0.6999006271362305,-9.252845764160154,3.298506021499634,1.688686636429988e+18,107.5039881184896,-0.7188099225362142,-9.24150276184082,3.2115492820739746,1.6886866364256604e+18,107.49966023763022,0.0029525154580672,-0.0095702225031952,-0.00733038270846,1.6886866364256604e+18,107.49966023763022,0.0019344065804034,-0.0049887328253438,-0.0050396381411701,,,,,,,,,,,,1.6886866364288827e+18,107.50288276367186,21.26947975158691,38.15671997070312,-21.20359992980957,1.6886866364288827e+18,107.50288276367186,-234.0765167236328,133.18251953125,-153.92739868164062,1.688686636429988e+18,107.5039881184896,-0.2386894673109054,0.0174366782108942,-0.7323478658994039,0.6374871929486593,-1.7909919023513794,1.228685696919759,2.160675128300985
2.55,1.6886866364818964e+18,107.5558964029948,0.0799964269002278,0.0236962636311848,0.0079984664916992,1.6886866364818964e+18,107.5558964029948,-0.6299105683962504,-9.23529847462972,3.2829527060190835,1.6886866364818964e+18,107.5558964029948,-0.7157530188560486,-9.241490046183268,3.2122668425242105,1.6886866364775724e+18,107.551572265625,-0.002188933858027,-0.0067195172111192,0.0193949714303016,1.6886866364775724e+18,107.551572265625,-0.0032579479642057,-0.002188933858027,0.0217366212358076,,,,,,,,,,,,1.6886866364788856e+18,107.55288569335936,21.413439178466795,38.1445198059082,-21.288999557495117,1.6886866364788856e+18,107.55288569335936,-233.93255310058595,133.17031555175782,-154.0127960205078,1.6886866364818964e+18,107.5558964029948,-0.2384207199017206,0.0170284050206342,-0.7322511076927185,0.637709895769755,-1.7900378306706746,1.2286818027496338,2.1587327321370444
2.6,1.688686636525159e+18,107.59915856933594,-0.0282663702964782,0.0144453048706054,0.0309232473373412,1.688686636525159e+18,107.59915856933594,-0.7256234884262085,-9.245268821716309,3.306581735610962,1.688686636525159e+18,107.59915856933594,-0.7032031416893005,-9.242209434509276,3.2129710912704468,1.688686636529488e+18,107.60348763020832,0.0006108652839126,0.0395535249263047,0.0082466810320814,1.688686636529488e+18,107.60348763020832,-0.0004581489095774,0.0441350142161051,0.0105883311480283,,,,,,,,,,,,1.6886866365288847e+18,107.602884765625,21.423199462890626,38.28115997314453,-21.364639663696288,1.6886866365288847e+18,107.602884765625,-233.9227996826172,133.3069580078125,-154.08843688964845,1.688686636525159e+18,107.59915856933594,-0.2389316707849502,0.0173836518079042,-0.7318059504032135,0.6380200386047363,-1.7862679362297058,1.2289006114006042,2.1562204360961914
2.65,1.688686636568418e+18,107.6424178873698,-0.0607240597407022,0.013297398885091,-0.0273457368214924,1.688686636568418e+18,107.6424178873698,-0.7555337349573771,-9.245866775512695,3.250450134277344,1.688686636568418e+18,107.6424178873698,-0.7006556987762451,-9.24165948232015,3.2151084740956626,1.6886866365813972e+18,107.65539721679689,-0.0052941654187936,0.005701408876727,0.0011199195190177,1.6886866365813972e+18,107.65539721679689,-0.0063631795346736,0.0102828984769682,0.0034615699357042,,,,,,,,,,,,1.6886866365788826e+18,107.6528825683594,21.425639724731447,38.281158447265625,-21.32071914672851,1.6886866365788826e+18,107.6528825683594,-233.92035522460935,133.3069610595703,-154.04451904296874,1.688686636568418e+18,107.6424178873698,-0.2393931647141774,0.0177080401529867,-0.7317094206809998,0.6379488110542297,-1.7853724956512451,1.2287334601084392,2.1564778486887612
2.7,1.68868663662033e+18,107.694330078125,-0.0427552858988443,-0.0077873865763345,-0.0410575071970621,1.68868663662033e+18,107.694330078125,-0.7377869685490926,-9.26660442352295,3.2376884619394937,1.68868663662033e+18,107.694330078125,-0.7008777062098185,-9.241312344868978,3.2160585721333823,1.6886866366333084e+18,107.70730843098958,-0.001985312012645,-0.040927971402804,-0.00335975876078,1.6886866366333084e+18,107.70730843098958,-0.0030543262449403,-0.0363464827338853,-0.0010181085575217,,,,,,,,,,,,1.6886866366288868e+18,107.70288681640623,21.41343994140625,38.35191879272461,-21.276799774169923,1.6886866366288868e+18,107.70288681640623,-233.93255615234375,133.37771911621093,-154.00059509277344,1.68868663662033e+18,107.694330078125,-0.2392295002937317,0.0174484383314847,-0.7317235072453817,0.6380011638005575,-1.7853781779607136,1.2286279598871868,2.155868927637736
2.75,1.6886866366722388e+18,107.74623885091148,0.1131853659947713,-0.0089604059855143,-0.0434829394022623,1.6886866366722388e+18,107.74623885091148,-0.5944170355796814,-9.266804059346518,3.235295613606771,1.6886866366722388e+18,107.74623885091148,-0.7134484251340231,-9.240338961283364,3.2160911560058594,1.688686636676564e+18,107.75056408691408,-0.0060322943609207,-0.0201585530303418,-0.023594669997692,1.688686636676564e+18,107.75056408691408,-0.0071013085544108,-0.0155770638957619,-0.0213039256632327,,,,,,,,,,,,1.6886866366788846e+18,107.75288466796876,21.669639587402344,38.28847961425781,-21.320719909667968,1.6886866366788846e+18,107.75288466796876,-233.67635192871097,133.31427917480468,-154.04451904296874,1.6886866366722388e+18,107.74623885091148,-0.2385582576195398,0.0168514835337797,-0.7321751912434896,0.6377503673235575,-1.7891043821970622,1.2283323605855303,2.1577529112497964
2.8,1.6886866367241546e+18,107.79815470377604,0.0450946688652038,-0.0067386627197265,0.0086363951365152,1.6886866367241546e+18,107.79815470377604,-0.6584250330924988,-9.2654078801473,3.2859437465667725,1.6886866367241546e+18,107.79815470377604,-0.709365725517273,-9.241164525349935,3.2146199544270835,1.68868663671983e+18,107.793830078125,0.0094684113282709,0.0290670050308107,0.0193440661920854,1.68868663671983e+18,107.793830078125,0.0084503024312046,0.0335975885391235,0.0216348112250366,,,,,,,,,,,,1.6886866367288906e+18,107.80289057617188,20.77171974182129,38.49099884033203,-21.369519424438476,1.6886866367288906e+18,107.80289057617188,-234.57427673339845,133.5167999267578,-154.09331665039062,1.6886866367241546e+18,107.79815470377604,-0.2387356807788213,0.0171146821230649,-0.732027014096578,0.6378469864527384,-1.7879902521769206,1.2285829782485962,2.157274007797241
2.85,1.6886866367760668e+18,107.85006681315105,-0.0263371070226033,0.0699752171834309,0.0653701623280842,1.6886866367760668e+18,107.85006681315105,-0.7148557702700297,-9.190632502237955,3.3403804302215576,1.6886866367760668e+18,107.85006681315105,-0.6943646868069967,-9.24310302734375,3.2123228708902993,1.6886866367717425e+18,107.84574251302084,0.0049887328835514,0.0344120748341083,0.016035212514301,1.6886866367717425e+18,107.84574251302084,0.0039706242969259,0.0389935647447903,0.0183259571592012,,,,,,,,,,,,1.6886866367788846e+18,107.85288461914062,21.03767967224121,38.39339904785156,-21.29143943786621,1.6886866367788846e+18,107.85288461914062,-234.30831298828124,133.41919555664063,-154.0152374267578,1.6886866367760668e+18,107.85006681315105,-0.2392627000808715,0.0176909075429041,-0.7314908305803934,0.6382487614949545,-1.7836841344833374,1.2291722695032756,2.154559771219889
2.9,1.688686636827975e+18,107.90197493489582,-0.1301084160804748,0.0150276819864908,-0.0108646551767984,1.688686636827975e+18,107.90197493489582,-0.8033902049064636,-9.246066093444824,3.2660035292307534,1.688686636827975e+18,107.90197493489582,-0.6791278123855591,-9.243589083353678,3.2141807874043784,1.6886866368236506e+18,107.89765063476564,-0.0015780685547117,0.0304414510416487,0.018122335585455,1.6886866368236506e+18,107.89765063476564,-0.002647082787007,0.0349720362573861,0.0204639855461815,,,,,,,,,,,,1.6886866368288868e+18,107.90288681640628,21.31095962524414,38.50319900512695,-21.474440002441405,1.6886866368288868e+18,107.90288681640628,-234.0350372314453,133.52900085449218,-154.1982391357422,1.688686636827975e+18,107.90197493489582,-0.2400056322415669,0.0181804516663153,-0.7309477726618449,0.6385782361030579,-1.7790309985478718,1.2293206453323364,2.1517014503479004
2.95,1.6886866368798925e+18,107.95389233398436,-0.0291815201441446,-0.0051002502441406,-0.0331556797027587,1.6886866368798925e+18,107.95389233398436,-0.7140581409136454,-9.265208880106607,3.244069258371989,1.6886866368798925e+18,107.95389233398436,-0.690722644329071,-9.24260393778483,3.2145375410715737,1.6886866368755668e+18,107.94956673177084,-0.0044287730318803,-0.0554360194752613,-0.0254527193804581,1.6886866368755668e+18,107.94956673177084,-0.0054977871477603,-0.0508545308063427,-0.0231619734937945,,,,,,,,,,,,1.688686636878885e+18,107.95288510742186,21.064519500732423,38.39583969116211,-21.274359130859377,1.688686636878885e+18,107.95288510742186,-234.2814788818359,133.42163696289063,-153.99815673828124,1.6886866368798925e+18,107.95389233398436,-0.239507645368576,0.0177450565000374,-0.7313624421755472,0.6383024255434672,-1.78245747089386,1.2290210326512654,2.1537747383117676
3.0,1.688686636931809e+18,108.00580883789064,0.1425116062164306,0.0098050435384114,0.0145305792490641,1.688686636931809e+18,108.00580883789064,-0.556730051835378,-9.249854723612469,3.2899317741394043,1.688686636931809e+18,108.00580883789064,-0.705087681611379,-9.242155075073242,3.2127137978871665,1.6886866369274831e+18,108.00148339843751,0.0060068414604756,0.0034615701685348,-0.0144062385273475,1.6886866369274831e+18,108.00148339843751,0.0049378274319072,0.0079921536768476,-0.0121154940376678,1.688686636927312e+18,108.00131176757812,0.0,0.4314402937889099,0.8400677442550659,5.883999824523926,0.0148019613698124,0.0,40.20000076293945,-122.753154,49.1903755,1.6886866369288868e+18,108.00288681640625,21.281679534912108,38.298239135742186,-21.30119972229004,1.6886866369288868e+18,108.00288681640625,-234.06431579589844,133.32403869628905,-154.02499694824218,1.688686636931809e+18,108.00580883789064,-0.2389179418484369,0.017415036757787,-0.7318708697954813,0.6379498243331909,-1.786845048268636,1.22888445854187,2.1568237940470376
3.05,1.6886866369750584e+18,108.04905822753906,0.0230125486850738,0.0479722023010253,0.1112940311431884,1.6886866369750584e+18,108.04905822753906,-0.671186774969101,-9.212367057800291,3.385844111442566,1.6886866369750584e+18,108.04905822753906,-0.7000453472137451,-9.242834568023682,3.2118626832962036,1.6886866369793905e+18,108.05339038085935,0.0030034206962833,0.0542142900327841,-0.0025452717673033,1.6886866369793905e+18,108.05339038085935,0.0019853120514502,0.0586430629094441,-0.0001527162579198,,,,,,,,,,,,1.688686636978884e+18,108.05288432617188,21.318280029296876,38.34703903198242,-21.359759521484374,1.688686636978884e+18,108.05288432617188,-234.02771911621093,133.37283630371093,-154.08355407714845,1.6886866369750584e+18,108.04905822753906,-0.2396227493882179,0.0182200269773602,-0.7316756546497345,0.6378869116306305,-1.7854021191596985,1.2290908098220823,2.157578706741333
3.1,1.6886866370183242e+18,108.0923243815104,-0.0634702642758687,0.0626242955525716,0.0807424386342366,1.6886866370183242e+18,108.0923243815104,-0.7483552893002828,-9.197013219197592,3.359323581059774,1.6886866370183242e+18,108.0923243815104,-0.6907310485839844,-9.242132822672524,3.2158937454223633,1.6886866370313e+18,108.10529996744792,-0.010995574761182,0.0382299832999705,0.0122682102955877,1.6886866370313e+18,108.10529996744792,-0.0120136829403538,0.04281147227933,0.0146098602563142,,,,,,,,,,,,1.688686637028886e+18,108.10288623046874,20.837599563598634,38.24455947875977,-21.49151954650879,1.688686637028886e+18,108.10288623046874,-234.5083984375,133.27035827636718,-154.21531677246094,1.6886866370183242e+18,108.0923243815104,-0.2405240386724472,0.0188028384000062,-0.731336255868276,0.6379199226697286,-1.7823736667633057,1.2288776636123655,2.156724770863851
3.15,1.6886866370702344e+18,108.1442344563802,-0.0625064174334208,-0.0174674987792968,-0.0272334416707356,1.6886866370702344e+18,108.1442344563802,-0.7473582824071249,-9.2747802734375,3.2580273946126304,1.6886866370702344e+18,108.1442344563802,-0.6906978885332743,-9.239808082580566,3.222573439280192,1.6886866370832146e+18,108.15721451822915,-0.0144062386825679,-0.0549778739611307,-0.0252490968753893,1.6886866370832146e+18,108.15721451822915,-0.0154752526432275,-0.0504472889006137,-0.02295835254093,,,,,,,,,,,,1.688686637078889e+18,108.15288876953124,21.284119415283204,38.38119964599609,-21.523239517211913,1.688686637078889e+18,108.15288876953124,-234.06187438964844,133.40699462890626,-154.24703979492188,1.6886866370702344e+18,108.1442344563802,-0.240821341673533,0.0186146665364503,-0.7313398122787476,0.6378092169761658,-1.7819364070892334,1.2281721035639446,2.156469980875651
3.2,1.6886866371221466e+18,108.1961467285156,0.1973318258921305,-0.0422871907552082,-0.111799399058024,1.6886866371221466e+18,108.1961467285156,-0.5064807931582133,-9.297113100687662,3.1764721075693765,1.6886866371221466e+18,108.1961467285156,-0.709658662478129,-9.237321217854818,3.225584109624227,1.6886866371264773e+18,108.20047717285156,-0.0047342055477201,-0.0115300822071731,-0.018173241522163,1.6886866371264773e+18,108.20047717285156,-0.0057268614764324,-0.0070249503478408,-0.0158824960235505,,,,,,,,,,,,1.6886866371288847e+18,108.20288461914063,21.57447929382324,38.13719940185547,-21.145039749145507,1.6886866371288847e+18,108.20288461914063,-233.77151184082032,133.16299743652343,-153.86883544921875,1.6886866371221466e+18,108.1961467285156,-0.2401226311922073,0.0178427199522653,-0.7320196231206259,0.6373147765795389,-1.7873605887095134,1.2274182240168254,2.159770647684733
