seconds_elapsed_rounded,accelerometer_time,accelerometer_seconds_elapsed,accelerometer_z,accelerometer_y,accelerometer_x,accelerometeruncalibrated_time,accelerometeruncalibrated_seconds_elapsed,accelerometeruncalibrated_z,accelerometeruncalibrated_y,accelerometeruncalibrated_x,gravity_time,gravity_seconds_elapsed,gravity_z,gravity_y,gravity_x,gyroscope_time,gyroscope_seconds_elapsed,gyroscope_z,gyroscope_y,gyroscope_x,gyroscopeuncalibrated_time,gyroscopeuncalibrated_seconds_elapsed,gyroscopeuncalibrated_z,gyroscopeuncalibrated_y,gyroscopeuncalibrated_x,location_time,location_seconds_elapsed,location_bearingAccuracy,location_speedAccuracy,location_verticalAccuracy,location_horizontalAccuracy,location_speed,location_bearing,location_altitude,location_longitude,location_latitude,magnetometer_time,magnetometer_seconds_elapsed,magnetometer_z,magnetometer_y,magnetometer_x,magnetometeruncalibrated_time,magnetometeruncalibrated_seconds_elapsed,magnetometeruncalibrated_z,magnetometeruncalibrated_y,magnetometeruncalibrated_x,orientation_time,orientation_seconds_elapsed,orientation_qz,orientation_qy,orientation_qx,orientation_qw,orientation_roll,orientation_pitch,orientation_yaw
0.1,,,,,,1.6886865290409856e+18,0.114985595703125,7.815855979919434,4.115654945373535,-0.2913261651992798,,,,,,1.6886865290193283e+18,0.093328125,0.23396138846874234,0.4138102928797404,0.37201693654060364,1.6886865290323308e+18,0.10633056640625,0.14095715060830116,0.4005748778581619,0.28069258481264114,,,,,,,,,,,,1.688686529033881e+18,0.10788122558593749,-47.711148262023926,-5.255149960517883,12.010899782180786,1.688686529033881e+18,0.10788122558593749,-303.05714416503906,89.77064895629883,-120.71290016174316,,,,,,,,,
0.15000000000000002,1.688686529092901e+18,0.166901123046875,-0.4165897369384765,-0.4084992408752441,0.1305402815341949,1.688686529075602e+18,0.14960205078125,8.062017440795898,4.088735818862915,-0.3233301490545273,1.688686529092901e+18,0.166901123046875,8.706660270690918,4.501579284667969,-0.4073853194713592,1.688686529071274e+18,0.14527392578125,-0.010181087379654232,0.05762495783468088,0.03456478938460351,1.6886865290755965e+18,0.149596435546875,-0.015068009340514665,0.034208452484260035,0.009264788745592,,,,,,,,,,,,1.6886865290788808e+18,0.152880908203125,-47.32135925292969,-5.692519855499268,12.792919921875,1.6886865290788808e+18,0.152880908203125,-302.6673583984375,89.33327941894531,-119.93087768554688,1.688686529092901e+18,0.166901123046875,0.2564594149589538,0.0829646289348602,0.2221539169549942,0.9370128512382508,0.0467597655951976,-0.4767300188541412,-0.5229485630989075
0.2,1.6886865291275128e+18,0.20151269531250002,0.015765508015950502,-0.43869860967000324,0.1284073094526926,1.6886865291188534e+18,0.19285351562499997,8.663812319437662,4.0362928708394366,-0.19461624324321738,1.6886865291275128e+18,0.20151269531250002,8.736717542012533,4.441250006357829,-0.42399614055951435,1.6886865291231834e+18,0.19718318684895833,0.010435614734888,0.09621127570668853,-0.21090122560660043,1.6886865291275128e+18,0.20151269531250002,0.012217304824540934,0.12828170601278535,-0.21823160847028092,,,,,,,,,,,,1.6886865291288835e+18,0.20288339843749997,-47.44091873168945,-5.463159847259521,12.973479652404786,1.6886865291288835e+18,0.20288339843749997,-302.7869140625,89.56264038085938,-119.7503173828125,1.6886865291275128e+18,0.20151269531250002,0.25709160168965656,0.08300030976533886,0.21865648031234738,0.9376567403475443,0.04849259803692493,-0.4698236286640167,-0.5236125389734904
0.25,1.6886865291794207e+18,0.25342049153645835,0.4593340555826823,-0.7792503833770752,-0.20193137725194296,1.688686529170774e+18,0.24477416992187498,9.203393936157227,3.585844119389852,-0.6141578058401743,1.6886865291794207e+18,0.25342049153645835,8.788263638814291,4.3239749272664385,-0.5498889485994974,1.6886865291750945e+18,0.2490945638020833,0.015831590630114,0.34921129544576,-0.2682207524776458,1.6886865291794207e+18,0.25342049153645835,0.012319115533803833,0.35929057002067566,-0.26374106109142303,,,,,,,,,,,,1.6886865291788823e+18,0.25288232421875,-47.62147827148438,-4.936119937896729,13.466359710693359,1.6886865291788823e+18,0.25288232421875,-302.96747436523435,90.08967895507813,-119.25743865966797,1.6886865291794207e+18,0.25342049153645835,0.25970455010732013,0.08812234799067174,0.21047787865002945,0.9383371671040853,0.062483612447977004,-0.45646239320437115,-0.5255155364672343
0.30000000000000004,1.6886865292313354e+18,0.305335205078125,0.28380839029947913,-0.8014538288116455,-0.18639824787775672,1.688686529222684e+18,0.2966839192708333,9.140183766682943,3.4071799914042153,-0.8344968954722086,1.6886865292313354e+18,0.305335205078125,8.818425496419271,4.246676762898763,-0.6611349980036417,1.6886865292270113e+18,0.30101155598958335,-0.03441207514454914,0.11692979310949643,-0.08480845950543876,1.6886865292313354e+18,0.305335205078125,-0.04235332272946827,0.0867428630590439,-0.05747224017977714,,,,,,,,,,,,1.6886865292288835e+18,0.302883349609375,-47.162759399414064,-4.387119960784912,14.186159896850587,1.6886865292288835e+18,0.302883349609375,-302.5087646484375,90.63867950439453,-118.53763732910156,1.6886865292313354e+18,0.305335205078125,0.260990043481191,0.09281761199235912,0.20475289722283677,0.9387998183568319,0.07483549167712526,-0.44769948720932007,-0.5252690315246582
0.35000000000000003,1.6886865292832458e+18,0.35724568684895835,0.1663106282552083,-0.47391120592753094,0.45805461208025616,1.688686529274594e+18,0.3485940755208334,8.9623171488444,3.731208165486654,-0.25702902736763156,1.6886865292832458e+18,0.35724568684895835,8.800529479980469,4.280849138895671,-0.678468922773997,1.6886865292789225e+18,0.35292236328125,-0.1144354219237963,0.03527747094631197,0.12736540287733075,1.6886865292832458e+18,0.35724568684895835,-0.11810061087210966,0.07803803185621896,0.12863804151614502,,,,,,,,,,,,1.6886865292788844e+18,0.352884521484375,-47.418959045410155,-4.450559902191162,13.95679988861084,1.6886865292788844e+18,0.352884521484375,-302.76495361328125,90.57523803710937,-118.76699829101562,1.6886865292832458e+18,0.35724568684895835,0.2585510512193044,0.09370621293783186,0.2065638303756714,0.9389886458714803,0.0769476716717084,-0.4515679677327474,-0.5196986397107443
0.4,1.688686529326507e+18,0.4005068359375,0.0045886039733887,-0.5406686067581177,0.8282394111156464,1.6886865293265042e+18,0.4005042317708334,8.790432929992676,3.7497525215148926,0.12542378716170785,1.688686529326507e+18,0.4005068359375,8.776309490203857,4.305333375930786,-0.8215349912643433,1.6886865293308303e+18,0.4048304036458334,-0.08323038990298903,0.5025384724140167,0.0114537227588395,1.688686529326507e+18,0.4005068359375,-0.09109527617692945,0.4835761934518814,0.021532999118790048,,,,,,,,,,,,1.6886865293288822e+18,0.4028823242187499,-47.23351898193359,-4.523759937286377,14.513119506835938,1.6886865293288822e+18,0.4028823242187499,-302.5795166015625,90.50203704833984,-118.21067657470704,1.688686529326507e+18,0.4005068359375,0.25764054059982294,0.10116809979081146,0.20602444559335703,0.9385817348957062,0.09334010630846021,-0.4543430805206299,-0.5142109394073486
0.45,1.6886865293697667e+18,0.4437666829427083,-0.4542096455891927,-0.7580725351969401,1.3496634562810261,1.688686529378419e+18,0.4524189453125,8.16770076751709,3.4498520692189536,0.34496525923411053,1.6886865293697667e+18,0.4437666829427083,8.754050572713217,4.298410097757976,-1.0582131544748943,1.688686529382746e+18,0.45674609375,-0.14813482016324994,0.5417865514755249,0.011402817986284666,1.6886865293697667e+18,0.4437666829427083,-0.10120000814398127,0.6006332437197367,0.0016798796132206663,,,,,,,,,,,,1.6886865293788823e+18,0.45288237304687495,-46.80895919799805,-4.445680046081543,15.874639701843261,1.6886865293788823e+18,0.45288237304687495,-302.1549499511719,90.58011779785156,-116.84915771484376,1.6886865293697667e+18,0.4437666829427083,0.25866859157880145,0.1133476172884305,0.2023717314004898,0.9376940528551737,0.12030252814292904,-0.45355774958928424,-0.5105323592821757
0.5,1.6886865294216786e+18,0.495678466796875,-0.5981369018554688,-1.1121069590250652,1.0702206095059712,1.6886865294303311e+18,0.5043311360677083,8.288737614949545,3.092125097910563,-0.38305102040370304,1.6886865294216786e+18,0.495678466796875,8.725495020548502,4.28773848215739,-1.308979908625285,1.6886865294260065e+18,0.5000064697265625,-0.39698605239391327,0.29382617771625513,-0.0020616706460713993,1.6886865294216786e+18,0.495678466796875,-0.3650428851445516,0.32253684600194293,-0.008857545753320067,,,,,,,,,,,,1.6886865294288824e+18,0.502882421875,-46.542999267578125,-4.355399894714355,16.591999435424803,1.6886865294288824e+18,0.502882421875,-301.8889892578125,90.67039794921875,-116.13179779052734,1.6886865294216786e+18,0.495678466796875,0.25488043824831647,0.12520377089579895,0.19897930324077598,0.9379525581995646,0.14890817304452256,-0.4523480335871379,-0.49634505311648053
0.55,1.6886865294735864e+18,0.547586669921875,0.3214718500773112,-0.7909576098124186,-0.4414093097050984,1.688686529482507e+18,0.5565069986979166,9.356135686238607,3.800600051879883,-2.743969440460205,1.6886865294735864e+18,0.547586669921875,8.737292607625326,4.181544462839763,-1.550291935602824,1.6886865294764672e+18,0.5504673461914062,-0.4723515585064888,0.30779972299933434,-0.14805846475064754,1.6886865294735864e+18,0.547586669921875,-0.5121087034543356,0.32935818036397296,-0.19685132553180054,,,,,,,,,,,,1.6886865294788808e+18,0.552881005859375,-46.36487884521485,-3.9088799953460693,17.663159561157226,1.6886865294788808e+18,0.552881005859375,-301.71087646484375,91.1169189453125,-115.06063690185547,1.6886865294735864e+18,0.547586669921875,0.24549235900243116,0.1339927067359288,0.19159020483493805,0.9407709042231241,0.17559371888637534,-0.44035098950068147,-0.4711355169614156
0.6000000000000001,1.6886865295254996e+18,0.5994995117187499,0.3703482945760091,0.5236523946126302,-3.74029541015625,1.6886865295254958e+18,0.5994959716796875,8.903693199157715,4.533501625061035,-5.360521078109741,1.6886865295254996e+18,0.5994995117187499,8.659303347269693,4.287274201711019,-1.6908889214197795,1.688686529529824e+18,0.6038241373697916,0.9572258492310842,0.4061235884825389,0.5329290131727854,1.6886865295211766e+18,0.5951767578125,0.7378743079801401,0.4057672421137492,0.5041165550549825,,,,,,,,,,,,1.688686529528884e+18,0.602883984375,-45.97691879272461,-4.043079900741577,18.324399566650392,1.688686529528884e+18,0.602883984375,-301.3229064941406,90.98271789550782,-114.39939880371094,1.6886865295254996e+18,0.5994995117187499,0.24971646070480344,0.14384655157725013,0.19476215541362754,0.9375129540761312,0.19284235437711075,-0.4523267249266307,-0.4761518637339274
0.65,1.6886865295774136e+18,0.6514137369791667,-0.025921185811360676,0.8619038263956705,-1.3807697693506877,1.6886865295687626e+18,0.6427623697916667,8.441678682963053,5.432106177012126,-3.472583850224813,1.6886865295774136e+18,0.6514137369791667,8.584785143534342,4.467068990071614,-1.6067444880803425,1.6886865295817408e+18,0.6557408040364584,0.6785185635089874,0.30650163690249127,-0.2851722588141759,1.688686529573088e+18,0.647087890625,0.8171850045522054,0.2855286002159118,-0.11372274160385132,,,,,,,,,,,,1.688686529578882e+18,0.65288203125,-45.4083984375,-5.948719882965088,18.895359420776366,1.688686529578882e+18,0.65288203125,-300.75439453125,89.0770767211914,-113.82843933105468,1.6886865295774136e+18,0.6514137369791667,0.2748574713865916,0.14783912897109983,0.20146025220553077,0.9284290273984274,0.18502613902091972,-0.47277838985125215,-0.5309534470240275
0.7000000000000001,1.6886865296293256e+18,0.7033257649739584,-0.0251468022664388,-0.14483896891276038,0.7441868782043457,1.6886865296206743e+18,0.6946741536458333,8.769296328226725,4.207778612772624,-1.1194421847661336,1.6886865296293256e+18,0.7033257649739584,8.645227114359537,4.299135049184163,-1.734292467435201,1.6886865296336515e+18,0.7076515299479166,0.6144286195437113,0.8177449504534403,-0.45260024070739746,1.6886865296250012e+18,0.6990010579427084,0.6048584083716074,0.7783950368563334,-0.498211532831192,,,,,,,,,,,,1.6886865296288845e+18,0.702884326171875,-44.74716033935547,-5.087399864196778,20.181239318847656,1.6886865296288845e+18,0.702884326171875,-300.09315185546876,89.93839721679687,-112.54255981445313,1.6886865296293256e+18,0.7033257649739584,0.29349090655644733,0.15521568556626633,0.18773413201173142,0.9243680636088053,0.1979676137367884,-0.45364485184351605,-0.5690570871035258
0.75,1.6886865296812372e+18,0.7552373046874999,0.4989964167277019,-1.521702766418457,1.2011550267537434,1.68868652967259e+18,0.746590087890625,9.157332420349121,3.094717184702555,-0.6253243237733841,1.6886865296812372e+18,0.7552373046874999,8.628960609436035,4.202219486236572,-2.0275516510009766,1.6886865296769108e+18,0.7509108886718749,0.24961480498313904,1.0464121401309967,-0.1567632928490638,1.6886865296769108e+18,0.7509109700520833,0.2995784928401311,0.8212573925654093,-0.23630304634571075,1.688686529696e+18,0.77,0.0,0.0,0.9003691673278809,11.58199977874756,0.0,0.0,40.30000305175781,-122.7532002,49.1903854,1.6886865296788805e+18,0.7528805664062499,-43.99319839477539,-5.014199924468994,21.686719512939455,1.6886865296788805e+18,0.7528805664062499,-299.3391906738281,90.01159973144532,-111.03707733154297,1.6886865296812372e+18,0.7552373046874999,0.3089824914932251,0.1714510371287664,0.17542077104250584,0.9188706477483114,0.23077808817227682,-0.4426797032356262,-0.5966302355130514
0.8,1.6886865297331459e+18,0.8071458333333333,1.8039353688557942,-1.6790198882420857,-0.44411206245422363,1.688686529724498e+18,0.7984978841145834,10.159725507100424,2.566701054573059,-2.042274077733358,1.6886865297331459e+18,0.8071458333333333,8.725218454996744,3.9098852475484214,-2.19085963567098,1.6886865297201723e+18,0.794172119140625,-0.13607022662957508,0.17765996356805167,-0.77264271179835,1.6886865297288274e+18,0.8028272298177083,-0.1459458867708842,0.41890085736910504,-0.7194465398788452,,,,,,,,,,,,1.6886865297288822e+18,0.8028822265625001,-44.0127197265625,-3.9845199584960938,22.628559494018553,1.6886865297288822e+18,0.8028822265625001,-299.3587158203125,91.04127807617188,-110.0952377319336,1.6886865297331459e+18,0.8071458333333333,0.3124767442544301,0.17469904323418936,0.15720388789971662,0.9203615585962931,0.24597259859244028,-0.4099639256795247,-0.6032681465148926
0.8500000000000001,1.6886865297764035e+18,0.8504035644531249,1.298841953277588,-1.4601147174835205,1.2663017511367798,1.6886865297764063e+18,0.8504060872395834,9.476375261942545,2.0492531855901084,-1.436291774113973,1.6886865297764035e+18,0.8504035644531249,8.516054153442383,3.9634628295898438,-2.8203158378601074,1.68868652977208e+18,0.846080078125,0.7572692732016245,2.5723026593526206,0.3744094843665759,1.6886865297807388e+18,0.8547388509114584,0.9331984917322794,2.922532002131144,0.5603161603212357,,,,,,,,,,,,1.68868652977888e+18,0.852880126953125,-41.9802001953125,-3.862519931793213,25.78835983276367,1.68868652977888e+18,0.852880126953125,-297.3261962890625,91.16327667236328,-106.93543853759766,1.6886865297764035e+18,0.8504035644531249,0.32680200040340424,0.210686020553112,0.14633750170469279,0.9095086455345154,0.3198903799057007,-0.41592343151569366,-0.6217728853225708
0.9,1.6886865298196692e+18,0.8936691080729166,0.35404475529988605,-2.4177745978037515,1.3488507270812988,1.6886865298283205e+18,0.9023206380208334,8.021738529205322,2.4462623596191406,-2.8143583138783774,1.6886865298196692e+18,0.8936691080729166,7.841110070546468,4.493505318959554,-3.789405584335327,1.6886865298239967e+18,0.8979966634114583,1.845983902613322,3.5697946548461914,1.200553834438324,1.6886865298326467e+18,0.9066466471354167,2.020233154296875,3.4697655042012534,1.3995941082636516,,,,,,,,,,,,1.688686529828884e+18,0.9028838378906251,-36.258399200439456,-8.17643985748291,32.47151985168457,1.688686529828884e+18,0.9028838378906251,-291.60439453125,86.84935760498047,-100.25227813720703,1.6886865298196692e+18,0.8936691080729166,0.36001989245414734,0.28031270702679945,0.14570838212966913,0.8773250579833984,0.45075365900993347,-0.4759833812713623,-0.6672775944073995
0.9500000000000001,1.688686529871578e+18,0.9455782063802083,-1.3088107109069824,0.4940807024637858,-1.480603535970052,1.688686529880234e+18,0.9542340494791667,5.514658610026042,6.796413898468018,-5.515057404836019,1.688686529871578e+18,0.9455782063802083,6.770963191986084,5.606577237447103,-4.3348282178243,1.6886865298759045e+18,0.9499046223958333,1.7480926911036174,1.7063502470652263,1.8848246733347576,1.6886865298759076e+18,0.94990771484375,1.842674970626831,1.569923758506775,2.0905336141586304,,,,,,,,,,,,1.6886865298788849e+18,0.9528849609375,-29.997359466552734,-15.596479988098144,36.24619903564453,1.6886865298788849e+18,0.9528849609375,-285.3433532714844,79.4293197631836,-96.47759857177735,1.688686529871578e+18,0.9455782063802083,0.40253205100695294,0.35248981912930805,0.174154907464981,0.8263654311498007,0.5699518521626791,-0.6088733275731405,-0.7227033575375875
1.0,1.6886865299234885e+18,0.9974885253906249,-1.6767322222391765,-0.15403683980305985,0.36916430791219074,1.6886865299321413e+18,1.0061411132812499,4.1351964473724365,5.519045352935791,-2.8849465449651084,1.6886865299234885e+18,0.9974885253906249,6.439183394114177,6.038144429524739,-4.278513590494792,1.6886865299278185e+18,1.0018186035156251,0.5898412863413492,-0.31098132332166034,-0.25742879572014016,1.6886865299191677e+18,0.993167724609375,0.5214752952257792,0.1266018276413282,-0.14248431225617728,,,,,,,,,,,,1.688686529928883e+18,1.002882958984375,-28.69683952331543,-17.497239685058595,36.86352005004883,1.688686529928883e+18,1.002882958984375,-284.04283447265624,77.52855834960937,-95.8602783203125,1.6886865299234885e+18,0.9974885253906249,0.4195198913415273,0.3685448964436849,0.18964758018652594,0.8075800736745199,0.5864895780881246,-0.6630345384279887,-0.7510523597399393
1.05,1.6886865299753974e+18,1.0493972167968748,1.4577562014261882,-0.6840998331705729,0.4662094116210937,1.688686529975405e+18,1.0494049072265623,7.545766115188599,5.484349489212036,-3.444169044494629,1.6886865299753974e+18,1.0493972167968748,6.618156274159749,6.214069525400798,-3.7141425609588623,1.688686529979732e+18,1.0537320963541668,1.4969762166341145,-0.266540873174866,-0.34717507908741635,1.6886865299710774e+18,1.045077392578125,1.4958053827285767,-0.5709044635295868,-0.1537853293120861,,,,,,,,,,,,1.6886865299788787e+18,1.0528787597656248,-30.22915916442871,-19.156439971923827,34.75780029296875,1.6886865299788787e+18,1.0528787597656248,-285.5751647949219,75.86935729980469,-97.96599884033203,1.6886865299753974e+18,1.0493972167968748,0.4416528840859731,0.34830724199612934,0.20333148539066315,0.8013431429862976,0.5113012393315634,-0.686016301314036,-0.8213287591934204
1.1,1.6886865300273152e+18,1.101315185546875,-1.1400829950968425,-2.0957611401875815,1.0009641647338867,1.6886865300186644e+18,1.09266455078125,6.63350264231364,3.78404966990153,-2.813161770502726,1.6886865300273152e+18,1.101315185546875,6.924668312072754,6.049459139506022,-3.4130045572916665,1.6886865300316347e+18,1.1056348470052084,0.6652831534544627,-0.03929899136225379,-1.725541591644287,1.688686530022992e+18,1.0969919433593749,0.7944811681906382,0.22123503684997559,-1.4727451801300049,,,,,,,,,,,,1.6886865300288814e+18,1.102881298828125,-30.499999237060546,-19.6224796295166,34.4161994934082,1.6886865300288814e+18,1.102881298828125,-285.8459899902344,75.40331726074218,-98.30759735107422,1.6886865300273152e+18,1.101315185546875,0.4742380678653717,0.3330394625663757,0.1898359010616938,0.7924469113349915,0.45811712741851807,-0.6646201213200887,-0.9177614649136862
1.1500000000000001,1.6886865300792246e+18,1.1532245279947917,-0.9900056521097819,-4.593744119008382,3.3019889990488687,1.68868653007057e+18,1.14456982421875,6.279165426890056,1.1734801046550276,0.19700906674067178,1.6886865300792246e+18,1.1532245279947917,7.852358182271321,5.139464060465495,-2.805553595225016,1.688686530083553e+18,1.1575528157552082,-0.06414085129896796,-2.220800598462423,-2.984534819920858,1.6886865300748992e+18,1.1488990071614584,0.06582072377204894,-2.076483726501465,-2.9191723664601645,,,,,,,,,,,,1.6886865300788823e+18,1.1528822265624998,-34.26491928100586,-15.901479530334473,31.80539894104004,1.6886865300788823e+18,1.1528822265624998,-289.6109130859375,79.12431945800782,-100.91839752197265,1.6886865300792246e+18,1.1532245279947917,0.4946763614813487,0.2728059987227121,0.15705727537473038,0.8095917105674744,0.3442436158657074,-0.5519557396570841,-0.9975510636965433
1.2000000000000002,1.6886865301311357e+18,1.205135986328125,-0.5946993827819824,-5.847828229268392,2.4329057137171426,1.6886865301224855e+18,1.1964855143229167,8.21595573425293,-1.4733805656433105,0.5902295907338461,1.6886865301311357e+18,1.205135986328125,8.722256978352865,3.9642351468404136,-2.0824323892593384,1.6886865301268147e+18,1.2008145751953125,-0.7260133326053619,-1.5639677047729492,-2.1573469042778015,1.6886865301268155e+18,1.2008154296875,-0.7175630529721578,-1.5247196555137634,-2.190410057703654,,,,,,,,,,,,1.688686530128883e+18,1.2028830078125001,-39.06195983886719,-10.057679748535156,27.847719192504883,1.688686530128883e+18,1.2028830078125001,-294.4079528808594,84.9681167602539,-104.8760772705078,1.6886865301311357e+18,1.205135986328125,0.4931138157844543,0.19970535735289252,0.12368840227524436,0.8374646703402201,0.23457952837149298,-0.41619450847307843,-1.0143425464630127
1.25,1.6886865301830513e+18,1.2570513509114585,-2.66666841506958,-5.829787890116374,0.6878592371940613,1.6886865301743916e+18,1.2483916015625,6.726025104522705,-2.746561606725057,-1.075972596804301,1.6886865301830513e+18,1.2570513509114585,9.09073575337728,2.9918572902679443,-2.1276160875956216,1.688686530170073e+18,1.2440730794270831,-1.1562151710192363,-0.032019523282845776,-1.7766506671905518,1.6886865301787277e+18,1.2527274576822915,-1.2801190217336018,0.30863967537879944,-1.8551977078119914,,,,,,,,,,,,1.6886865301788854e+18,1.252885498046875,-40.72359924316406,-5.180119848251342,26.664319610595705,1.6886865301788854e+18,1.252885498046875,-296.06959838867186,89.8456787109375,-106.05947723388672,1.6886865301830513e+18,1.2570513509114585,0.4767724871635437,0.17218110958735144,0.082146156579256,0.8578852812449137,0.22976751128832498,-0.3100849489370982,-0.9786761800448099
1.3,1.6886865302263112e+18,1.3003110351562501,-2.4260542392730713,-4.0863635540008545,-0.10689401626586914,1.6886865302263073e+18,1.3003072916666667,6.678168614705403,-2.437289237976074,-2.9413771629333496,1.6886865302263112e+18,1.3003110351562501,9.157499313354492,1.8127402067184448,-2.9869014024734497,1.6886865302219866e+18,1.2959864908854166,-2.4299710988998413,2.376469453175863,-2.6803749402364097,1.6886865302306312e+18,1.3046310221354167,-2.752100626627604,2.8522826035817466,-2.806823968887329,,,,,,,,,,,,1.6886865302288832e+18,1.302883251953125,-38.78623962402344,1.7592399805784225,29.128719329833984,1.6886865302288832e+18,1.302883251953125,-294.1322326660156,96.78503875732422,-103.59507751464844,1.6886865302263112e+18,1.3003110351562501,0.45034122467041016,0.18085949867963785,0.01264608465135095,0.8739897310733795,0.31512586772441864,-0.18594843894243235,-0.9223822355270386
1.35,1.6886865302695708e+18,1.34357080078125,-3.372915426890055,-4.778335730234782,-1.2218217849731445,1.688686530278224e+18,1.3522240397135417,4.581457773844401,-5.369095325469971,-6.781857490539551,1.6886865302695708e+18,1.34357080078125,8.627889315287272,0.14957691232363382,-4.596999804178874,1.6886865302738985e+18,1.3478985188802082,-3.7258707682291665,4.002287308375041,-2.419179121653239,1.6886865302825503e+18,1.35655029296875,-3.7181331316630044,3.7045923868815103,-2.2722150484720864,,,,,,,,,,,,1.6886865302788808e+18,1.352880810546875,-31.19783935546875,11.216679954528809,33.884280395507815,1.6886865302788808e+18,1.352880810546875,-286.54383544921876,106.24247741699219,-98.83951873779297,1.6886865302695708e+18,1.34357080078125,0.39264463384946185,0.22507394353548685,-0.09061033899585401,0.8860402305920919,0.4894913931687673,-0.015274551386634501,-0.8319002787272135
1.4000000000000001,1.688686530321482e+18,1.3954820149739584,-2.500456174214681,-5.050962766011556,-6.560003280639648,1.6886865303301376e+18,1.4041374511718752,6.220142364501953,-6.835297425587972,-12.868400891621908,1.688686530321482e+18,1.3954820149739584,7.823625564575195,-1.7821838855743408,-5.616548856099446,1.6886865303258104e+18,1.399810302734375,-2.767270485560099,1.2500848372777302,-2.715041478474935,1.6886865303258104e+18,1.3998104248046874,-2.7294222116470337,1.0979539155960083,-2.778138756752014,,,,,,,,,,,,1.688686530328881e+18,1.40288095703125,-24.500039672851564,20.232479858398438,35.375119018554685,1.688686530328881e+18,1.40288095703125,-279.8460327148438,115.2582794189453,-97.34867706298829,1.688686530321482e+18,1.3954820149739584,0.320465346177419,0.25214198728402454,-0.19242702921231583,0.8921177983283997,0.6227809389432272,0.18295577168464658,-0.7491173148155212
1.4500000000000002,1.6886865303733852e+18,1.4473851725260418,2.6209864616394043,-3.0078469117482505,-9.772137641906738,1.688686530382046e+18,1.4560459798177083,9.932607014973959,-6.594419797261556,-15.783058166503906,1.6886865303733852e+18,1.4473851725260418,7.032593568166097,-3.606954495112101,-5.783278783162435,1.6886865303777208e+18,1.4517207845052085,-2.1775310039520264,1.790649652481079,-3.0137545267740884,1.688686530369065e+18,1.4430650227864585,-2.1904101371765137,1.5328136285146077,-2.9746592044830322,,,,,,,,,,,,1.6886865303788856e+18,1.4528856445312501,-19.073479461669923,27.41339988708496,34.150238800048825,1.6886865303788856e+18,1.4528856445312501,-274.4194763183594,122.43919677734375,-98.57355804443361,1.6886865303733852e+18,1.4473851725260418,0.2780232032140096,0.24425407250722245,-0.28499605258305866,0.8837252060572306,0.6887823939323425,0.3770481248696645,-0.7469769318898519
1.5,1.6886865304253059e+18,1.4993058268229167,3.4168640772501626,-1.2290911674499512,-9.343571345011393,1.6886865304253076e+18,1.499307861328125,9.032307147979736,-6.584748983383179,-15.442080974578857,1.6886865304253059e+18,1.4993058268229167,5.553964296976726,-5.216617425282796,-6.149431864420573,1.6886865304296323e+18,1.5036323242187501,-1.4965180555979412,2.8794151147206626,-2.888730843861898,1.688686530420979e+18,1.4949790852864584,-1.6666949192682903,2.7951666514078775,-3.0481158097585044,,,,,,,,,,,,1.6886865304288824e+18,1.502882373046875,-7.493240022659302,33.99651870727539,32.86679916381836,1.6886865304288824e+18,1.502882373046875,-262.8392333984375,129.0223175048828,-99.85699768066407,1.6886865304253059e+18,1.4993058268229167,0.23319068551063535,0.26288321614265436,-0.3835439483324687,0.853495200475057,0.837620735168457,0.5612538655598959,-0.790004312992096
1.55,1.6886865304772178e+18,1.5512176920572915,3.5059080918629966,1.3498891194661458,-7.273934841156006,1.6886865304685658e+18,1.5425655110677081,7.517451127370198,-5.041079044342041,-13.943775177001953,1.6886865304772178e+18,1.5512176920572915,3.930123726526896,-6.110851128896077,-6.576396465301514,1.6886865304815442e+18,1.5555441080729169,-0.7090618213017782,3.0206268628438315,-1.5218180418014526,1.6886865304728914e+18,1.546891357421875,-0.8100582361221313,2.985196669896444,-1.743867556254069,,,,,,,,,,,,1.688686530478884e+18,1.5528840332031248,1.2199999630451202,36.212039184570315,31.871279144287108,1.688686530478884e+18,1.5528840332031248,-254.1259979248047,131.2378387451172,-100.8525177001953,1.6886865304772178e+18,1.5512176920572915,0.19402047991752622,0.3036864797274272,-0.4550740619500478,0.8139146169026693,1.0329378445943196,0.6726127862930298,-0.860691765944163
1.6,1.6886865305291256e+18,1.6031255696614586,2.2482550541559854,1.9526373545328777,-5.063571453094482,1.6886865305204754e+18,1.5944751790364584,5.631906986236572,-4.415954113006592,-12.386246999104818,1.6886865305291256e+18,1.6031255696614586,2.4595600366592407,-6.400737921396892,-7.003309408823649,1.6886865305334577e+18,1.6074576009114583,0.03802635706961153,3.304424603780111,-0.6650795340538025,1.688686530524801e+18,1.5988011067708332,-0.12003502249717711,3.3991087277730307,-0.7293730974197388,,,,,,,,,,,,1.6886865305288837e+18,1.6028836914062499,8.603439712524414,36.48043975830078,30.656159973144533,1.6886865305288837e+18,1.6028836914062499,-246.7425567626953,131.50623779296876,-102.06763763427735,1.6886865305291256e+18,1.6031255696614586,0.1546400338411331,0.36239563425381977,-0.49288370211919147,0.7753883401552836,1.2331658601760864,0.7108422915140787,-0.9084532856941223
1.6500000000000001,1.688686530581038e+18,1.6550381673177084,2.610938549041748,2.9130646387736,-2.790088494618734,1.688686530572389e+18,1.6463889973958334,3.5134612719217935,-3.7050864696502686,-10.467402776082357,1.688686530581038e+18,1.6550381673177084,1.267364760239919,-6.2556813557942705,-7.443491141001384,1.6886865305767142e+18,1.6507144775390625,0.7764860987663269,2.361146926879883,-0.39370264112949366,1.6886865305767145e+18,1.6507145182291667,0.7340054909388224,2.4089979330698648,-0.378634641567866,,,,,,,,,,,,1.68868653057888e+18,1.652880126953125,13.57615966796875,35.80699920654297,30.47559928894043,1.68868653057888e+18,1.652880126953125,-241.76983337402345,130.83279724121093,-102.24819946289062,1.688686530581038e+18,1.6550381673177084,0.13360235591729477,0.42161158720652253,-0.5073832273483276,0.7393636306126913,1.401818831761678,0.691542903582255,-0.9476902286211649
1.7000000000000002,1.6886865306329508e+18,1.7069506835937502,5.226569414138794,3.979528268178304,0.7493651707967123,1.6886865306242952e+18,1.6982953287760418,6.093322833379109,-2.045065760612488,-7.072186787923177,1.6886865306329508e+18,1.7069506835937502,0.2858323653539022,-6.082064628601074,-7.687030951182048,1.6886865306199764e+18,1.6939763997395836,0.22841269771258035,3.148704926172892,0.7716245974103609,1.6886865306286223e+18,1.70262255859375,0.027692561348279316,3.4090353647867837,1.1277081271012623,,,,,,,,,,,,1.688686530628889e+18,1.702888916015625,17.616799926757814,35.196998596191406,29.570359420776366,1.688686530628889e+18,1.702888916015625,-237.72919616699218,130.22279663085936,-103.15343933105468,1.6886865306329508e+18,1.7069506835937502,0.09802096088727313,0.48231812318166095,-0.50241819024086,0.7102657357851664,1.5337458848953247,0.6687437693277994,-0.9200243353843689
1.75,1.6886865306762063e+18,1.7502062988281248,2.098747134208679,1.4549357891082764,-0.33946990966796875,1.6886865306762117e+18,1.7502116699218748,1.4626128276189168,-4.5409791469573975,-7.979265848795573,1.6886865306762063e+18,1.7502062988281248,-0.35424333810806274,-6.055578947067261,-7.708964109420776,1.6886865306718917e+18,1.7458917643229166,0.4487823297580083,2.7291423082351685,1.4606297413508098,1.6886865306805425e+18,1.7545425618489583,0.7687229961156845,2.334828734397888,1.3513866265614827,,,,,,,,,,,,1.6886865306788818e+18,1.7528817382812503,19.178399276733398,36.29255905151367,27.06447982788086,1.6886865306788818e+18,1.7528817382812503,-236.16759643554687,131.3183563232422,-105.65932006835938,1.6886865306762063e+18,1.7502062988281248,0.04776575975120061,0.5340677499771118,-0.4824315011501312,0.6925427317619324,1.6166921854019165,0.6653299033641815,-0.8318178057670593
1.8,1.688686530719473e+18,1.7934730631510416,0.07732991377512614,0.7398202419281006,-0.1256429354349772,1.6886865307281203e+18,1.8021204427083333,-0.9166504622747501,-4.265405813852946,-7.92163880666097,1.688686530719473e+18,1.7934730631510416,-0.47639646132787067,-5.538469314575195,-8.077626705169678,1.688686530723797e+18,1.797796956380208,2.04013721148173,0.489455779393514,1.271006981531779,1.688686530732452e+18,1.8064521484375,2.079385280609131,0.14803302784760794,1.2007574439048767,,,,,,,,,,,,1.6886865307288806e+18,1.8028807128906252,18.085280227661134,35.16283950805664,28.835919189453126,1.6886865307288806e+18,1.8028807128906252,-237.26071472167968,130.18863525390626,-103.88787994384765,1.688686530719473e+18,1.7934730631510416,0.04294069111347193,0.5703309178352356,-0.4457659622033437,0.6883617043495178,1.6298930247624714,0.6002392967542013,-0.7592159907023112
1.85,1.6886865307713846e+18,1.8453846842447916,-1.7919243574142456,3.1227614879608154,2.675090471903483,1.6886865307800374e+18,1.854037353515625,-2.0350956122080484,-1.893719752629598,-5.574479103088379,1.6886865307713846e+18,1.8453846842447916,-0.05519869178533554,-4.796982606252034,-8.554330825805664,1.688686530775712e+18,1.8497121582031248,1.1247556408246357,-1.0687596599260967,0.3735950017968814,1.6886865307757082e+18,1.8497080078125,1.0606911480426788,-1.0737484097480774,0.37453676760196686,,,,,,,,,,,,1.6886865307788844e+18,1.852884375,16.04299964904785,33.35479888916016,32.244599151611325,1.6886865307788844e+18,1.852884375,-239.30299682617186,128.3805938720703,-100.4791976928711,1.6886865307713846e+18,1.8453846842447916,0.0655230010549227,0.5835539301236471,-0.40279421210289,0.7020021279652914,1.5774342616399128,0.5110262533028921,-0.7005797028541565
1.9000000000000001,1.6886865308232973e+18,1.8972974446614586,-0.3293418685595195,2.0824153423309326,1.9534845352172852,1.688686530831952e+18,1.9059517415364582,0.7688936591148376,-2.417548497517904,-6.859026114145915,1.6886865308232973e+18,1.8972974446614586,0.5408438940842947,-4.485450426737468,-8.70610523223877,1.688686530827619e+18,1.9016189778645833,0.419104461868604,-1.439707597096761,-0.3450370530287425,1.6886865308189686e+18,1.892968424479167,0.5076290170351664,-1.52105446656545,-0.36412658790747326,,,,,,,,,,,,1.6886865308288842e+18,1.9028841796875,13.737199783325195,31.93471908569336,34.396680450439455,1.6886865308288842e+18,1.9028841796875,-241.60879516601562,126.96051788330078,-98.32711944580078,1.6886865308232973e+18,1.8972974446614586,0.0951813235878944,0.5645056565602621,-0.3920928438504537,0.7200032869974772,1.5088412761688232,0.47491992513338727,-0.7102024753888448
1.9500000000000002,1.6886865308752095e+18,1.9492093098958332,0.5560568968454996,1.5009136994679768,1.623703161875407,1.688686530875205e+18,1.9492050781249999,1.625324785709381,-3.225823998451233,-7.053741931915283,1.6886865308752095e+18,1.9492093098958332,0.9090847969055176,-4.481217225392659,-8.678816477457682,1.688686530879535e+18,1.9535352376302082,-0.5266167496641477,-0.16305012007554373,-0.011606442431608863,1.6886865308708803e+18,1.9448801269531248,-0.31322115163008374,-0.3965533673763275,0.041844268639882394,,,,,,,,,,,,1.6886865308788823e+18,1.9528824707031252,12.163399696350098,31.900559616088866,35.07255935668945,1.6886865308788823e+18,1.9528824707031252,-243.1825958251953,126.92635803222656,-97.65123748779297,1.6886865308752095e+18,1.9492093098958332,0.10543077687422431,0.5482691129048666,-0.3912486235300699,0.7315688530604044,1.46646253267924,0.4744478265444438,-0.7151218056678772
2.0,1.6886865309271155e+18,2.0011158040364583,-0.7652837236722311,-0.9089239438374838,1.8953483899434407,1.6886865309184653e+18,1.992465087890625,0.31764721870422363,-5.128616491953532,-6.464409828186035,1.6886865309271155e+18,2.0011158040364583,0.6549511353174845,-5.085538387298584,-8.356842358907064,1.6886865309314437e+18,2.0054436848958335,-2.1115574836730957,0.5561418831348419,-0.526464025179545,1.688686530922795e+18,1.996795166015625,-1.8819739818572998,0.6074036955833435,-0.5046765009562174,,,,,,,,,,,,1.6886865309288847e+18,2.002884814453125,13.70547981262207,33.72568054199219,32.50079917907715,1.6886865309288847e+18,2.002884814453125,-241.64051513671876,128.75148010253906,-100.222998046875,1.6886865309271155e+18,2.0011158040364583,0.0811540360252062,0.540359357992808,-0.41771968205769855,0.7257108092308044,1.4928573767344158,0.545323888460795,-0.7291245857874552
2.0500000000000003,1.688686530979029e+18,2.0530289713541667,-0.6589961349964142,-4.291760603586833,1.287571907043457,1.6886865309703795e+18,2.044379801432292,-0.3776671687761943,-10.159326553344727,-6.340780576070149,1.688686530979029e+18,2.0530289713541667,0.4409865041573842,-6.025934060414632,-7.724539438883464,1.6886865309833572e+18,2.0573572591145832,-1.6996307373046875,-0.17221309244632718,-0.5702427128950754,1.688686530974707e+18,2.048707194010417,-1.9802724123001099,-0.08618290225664772,-0.4994332393010457,,,,,,,,,,,,1.688686530978884e+18,2.0528841796875,14.627799606323242,36.56827926635742,28.572399520874022,1.688686530978884e+18,2.0528841796875,-240.71819458007812,131.59407958984374,-104.15139770507812,1.688686530979029e+18,2.0530289713541667,0.04627185563246403,0.516447921593984,-0.4589919447898865,0.7213146487871805,1.5138227144877117,0.6617002884546915,-0.7556170225143433
2.1,1.6886865310309384e+18,2.104938313802083,-0.7621148029963175,-1.216887950897217,0.23528639475504554,1.6886865310222902e+18,2.0962903645833335,-0.5603193243344625,-7.959924062093099,-7.050651391347249,1.6886865310309384e+18,2.104938313802083,0.4280532399813333,-6.3841552734375,-7.435763835906982,1.6886865310266179e+18,2.100617919921875,-0.3461315259337425,-1.2446379363536835,-1.0554988086223602,1.6886865310266191e+18,2.1006189778645834,-0.3853541538119316,-1.1520918607711792,-1.0477866133054097,,,,,,,,,,,,1.6886865310288847e+18,2.102884619140625,15.674559783935546,37.67359924316406,26.359319305419923,1.6886865310288847e+18,2.102884619140625,-239.671435546875,132.69939575195312,-106.3644790649414,1.6886865310309384e+18,2.104938313802083,0.050658671806255905,0.4917592803637187,-0.4860338071982066,0.7205536365509033,1.5132350126902263,0.7085931698481241,-0.8122408787409464
2.15,1.6886865310828554e+18,2.1568553873697915,-0.7801716725031534,-3.539279301961263,0.3839990297953288,1.688686531074204e+18,2.1482039388020833,-0.07258228460947676,-9.744371096293131,-6.941578547159831,1.6886865310828554e+18,2.1568553873697915,0.7635579109191895,-6.388784090677897,-7.403618971506755,1.6886865310698752e+18,2.1438750813802083,0.15180001532038048,-1.7017178535461426,-0.7768678764502207,1.6886865310785303e+18,2.1525305989583337,0.27035877279316384,-1.6472490628560383,-0.5599598065018654,,,,,,,,,,,,1.6886865310788874e+18,2.152887548828125,15.118239402770996,36.98307876586914,27.55247917175293,1.6886865310788874e+18,2.152887548828125,-240.22775573730468,132.00887756347657,-105.17131805419922,1.6886865310828554e+18,2.1568553873697915,0.0834788531064987,0.4603513479232788,-0.49907780687014264,0.7293017307917277,1.4680460691452026,0.7092014153798422,-0.8726995587348938
2.2,1.688686531126115e+18,2.2001151123046876,-0.6586196422576904,-1.4968163967132568,-0.9313361644744873,1.6886865311261105e+18,2.2001104329427084,0.2899303436279297,-7.775277932484944,-8.316853046417236,1.688686531126115e+18,2.2001151123046876,1.01199609041214,-6.185184001922607,-7.546610116958618,1.688686531121789e+18,2.195788818359375,0.7402159571647644,-0.5207626273234685,-0.21115575109918908,1.688686531130442e+18,2.2044419759114584,0.7197010715802511,-0.3358740657567978,-0.3105740658938884,,,,,,,,,,,,1.6886865311288837e+18,2.20288369140625,14.842519569396973,36.03635864257812,29.375159454345702,1.6886865311288837e+18,2.20288369140625,-240.50347595214845,131.0621551513672,-103.34863739013672,1.688686531126115e+18,2.2001151123046876,0.1055168285965919,0.4523593485355377,-0.4937160164117813,0.7351648509502411,1.4373962879180908,0.6821549832820892,-0.8872264623641968
2.25,1.6886865311693714e+18,2.243371337890625,-1.8956478039423625,-0.10044813156127934,-1.491652011871338,1.688686531178027e+18,2.252027099609375,-0.4251248240470887,-5.938387552897136,-9.035298347473145,1.6886865311693714e+18,2.243371337890625,0.9966807762781779,-6.05513064066569,-7.6535922686258955,1.6886865311736996e+18,2.2476996256510415,0.16025031606356302,-0.6086763044198354,-0.6375905871391296,1.6886865311823542e+18,2.2563541666666667,0.03609195475776993,-0.6003787318865458,-0.673529843489329,,,,,,,,,,,,1.6886865311788844e+18,2.2528843261718747,14.603399658203125,35.31167907714844,30.253559494018553,1.6886865311788844e+18,2.2528843261718747,-240.7425964355469,130.3374755859375,-102.4702377319336,1.6886865311693714e+18,2.243371337890625,0.12248364587624867,0.4497890869776408,-0.4968172311782837,0.7319935162862142,1.4411945343017578,0.6651634375254313,-0.9205665787061056
2.3000000000000003,1.6886865312212828e+18,2.2952827148437502,-1.442491352558136,1.0097448031107585,-0.2945841153462727,1.6886865312299395e+18,2.303939453125,-0.7196413973967234,-4.989633401234944,-7.35613489151001,1.6886865312212828e+18,2.2952827148437502,0.9971635341644287,-6.1615346272786455,-7.567708174387614,1.6886865312256123e+18,2.299612223307292,-0.47851109504699707,-0.7904596229394277,-0.5942700703938802,1.6886865312256143e+18,2.2996142578125003,-0.4712825268507004,-0.6773732006549835,-0.6227007508277893,,,,,,,,,,,,1.68868653122888e+18,2.302879931640625,15.533039474487305,35.04327926635742,30.131559371948242,1.68868653122888e+18,2.302879931640625,-239.81295471191407,130.06907653808594,-102.59223785400391,1.6886865312212828e+18,2.2952827148437502,0.13448950151602426,0.43443532784779865,-0.510236402352651,0.7299183408419291,1.4396421511967976,0.6790477832158407,-0.965008060137431
2.35,1.6886865312732037e+18,2.3472035319010414,0.16244296232859293,-2.329565684000651,0.7732418378194174,1.688686531281848e+18,2.3558479817708333,2.1964117685953775,-8.903892517089844,-6.796812852223714,1.6886865312732037e+18,2.3472035319010414,1.406786561012268,-6.441169102986653,-7.262053966522217,1.688686531277525e+18,2.351525146484375,-0.7337000568707784,-1.167821596066157,-0.0529925605903069,1.6886865312688724e+18,2.3428726399739586,-0.7516187826792399,-1.448565125465393,-0.10786862174669902,,,,,,,,,,,,1.6886865312788823e+18,2.3528823242187498,13.45171947479248,36.207159423828124,29.619159317016603,1.6886865312788823e+18,2.3528823242187498,-241.89427795410157,131.2329528808594,-103.104638671875,1.6886865312732037e+18,2.3472035319010414,0.14248034854729966,0.3990088601907094,-0.5185905893643697,0.7425934672355652,1.3791183233261108,0.7162538766860962,-0.9777466456095377
2.4000000000000004,1.688686531325112e+18,2.399112060546875,0.3017855882644653,-0.8268485069274902,-0.8250506718953451,1.6886865313251054e+18,2.3991053466796872,1.726122409105301,-7.472785234451294,-7.770691633224487,1.688686531325112e+18,2.399112060546875,1.3531866470972698,-6.732120990753174,-7.003742059071858,1.6886865313294336e+18,2.4034334309895833,-0.9180286725362142,1.1810570160547893,-0.019191350166996298,1.688686531320791e+18,2.3947911783854168,-0.8655960361162821,1.0111855864524841,0.008399396513899135,,,,,,,,,,,,1.6886865313288786e+18,2.4028785156250003,14.283759689331054,37.09043960571289,27.979479217529295,1.6886865313288786e+18,2.4028785156250003,-241.0622344970703,132.11623840332032,-104.74431915283203,1.688686531325112e+18,2.399112060546875,0.12462720523277913,0.391693909962972,-0.5267977913220724,0.7439041137695312,1.3799902995427449,0.7563188274701437,-0.9657315611839294
2.45,1.688686531377022e+18,2.4510218098958334,-1.2366746266682942,-0.2554206848144531,-0.14619890848795578,1.6886865313683704e+18,2.442370524088542,-0.3525425245364507,-7.530212879180908,-7.204789002736409,1.688686531377022e+18,2.4510218098958334,1.030030886332194,-7.060876528422038,-6.731047948201497,1.688686531381349e+18,2.455348876953125,-0.7124216159184774,-0.46960268417994183,-0.632958193620046,1.6886865313726968e+18,2.44669677734375,-0.7839437325795492,-0.05696318298578262,-0.4753549595673879,,,,,,,,,,,,1.6886865313788864e+18,2.452886474609375,15.284159660339355,38.0810791015625,25.673679733276366,1.6886865313788864e+18,2.452886474609375,-240.06183471679688,133.10687866210938,-107.05011901855468,1.688686531377022e+18,2.4510218098958334,0.10213657220204668,0.39065364996592206,-0.5429170529047648,0.73629762729009,1.4187650680541992,0.803432842095693,-0.9750800728797913
2.5,1.6886865314289336e+18,2.5029337565104166,0.16524473826090494,0.1503149668375651,2.1786979039510093,1.6886865314202778e+18,2.4942776692708333,1.1228320002555847,-7.2470622062683105,-4.472783803939819,1.6886865314289336e+18,2.5029337565104166,1.0522398153940837,-7.322644233703613,-6.441785971323649,1.6886865314332567e+18,2.507256591796875,-0.5536984403928121,-1.2320643067359924,-1.0343475540479024,1.6886865314246052e+18,2.4986053059895834,-0.5623014569282532,-1.3286319176355998,-1.1065824031829834,,,,,,,,,,,,1.688686531428882e+18,2.502881982421875,16.06007957458496,38.15183944702149,25.236919403076172,1.688686531428882e+18,2.502881982421875,-239.2859130859375,133.17763671875,-107.48687896728515,1.6886865314289336e+18,2.5029337565104166,0.11658083647489544,0.35720228155454,-0.5644107063611349,0.7349104881286621,1.4086292187372844,0.8426802754402161,-1.0423497358957927
2.5500000000000003,1.6886865314808456e+18,2.5548454589843748,0.41336993376413983,1.0079919497172039,1.9611660639444988,1.6886865314721933e+18,2.546193115234375,1.353141188621521,-6.701498667399089,-4.046661853790283,1.6886865314808456e+18,2.5548454589843748,1.1259492635726929,-7.530270894368489,-6.1849721272786455,1.688686531476521e+18,2.5505209960937503,-0.5659666508436203,-0.15561791555956,0.20639609545469284,1.6886865314765202e+18,2.5505204264322914,-0.6024149556954702,-0.1958841234445572,0.14233159522215524,,,,,,,,,,,,1.6886865314788818e+18,2.5528817382812496,15.867319488525391,38.39339981079102,24.626919174194335,1.6886865314788818e+18,2.5528817382812496,-239.47867736816406,133.41919555664063,-108.09687805175781,1.6886865314808456e+18,2.5548454589843748,0.11810113986333205,0.3356226483980815,-0.5743551452954611,0.7372203469276428,1.3904016017913818,0.8750596443812052,-1.0617033243179321
2.6,1.6886865315327532e+18,2.6067532552083335,-0.38904003302256274,3.3845152060190835,2.0387951532999673,1.6886865315241004e+18,2.5981004231770832,1.1310075024763744,-4.823730945587158,-3.8530426820119223,1.6886865315327532e+18,2.6067532552083335,1.1323468685150146,-7.818857192993164,-5.812551021575928,1.6886865315197755e+18,2.5937755533854165,-1.1535681088765461,0.8266024986902872,0.5098179578781128,1.6886865315284326e+18,2.6024326171875,-1.2779810031255086,1.016530692577362,0.4994841516017914,,,,,,,,,,,,1.6886865315288847e+18,2.6028847167968747,15.328079795837402,39.80615921020508,22.767639923095704,1.6886865315288847e+18,2.6028847167968747,-240.01791687011718,134.8319580078125,-109.95615844726562,1.6886865315327532e+18,2.6067532552083335,0.08472960193951921,0.3336859146753947,-0.5752075513203939,0.7419068018595377,1.378260652224223,0.9224992394447327,-1.0046993891398113
2.6500000000000004,1.6886865315760118e+18,2.6500115966796876,-1.1684677004814148,5.427311420440674,1.2667797803878784,1.6886865315760177e+18,2.650017578125,-0.19302102923393247,-2.8660032749176025,-3.764707644780477,1.6886865315760118e+18,2.6500115966796876,0.9828608334064483,-8.218083381652832,-5.26296854019165,1.6886865315716936e+18,2.6456935221354168,-2.1047362089157104,1.2590951124827068,0.45692721009254456,1.6886865315803443e+18,2.654344401041667,-2.364099383354187,1.183704098065694,0.41864630579948425,,,,,,,,,,,,1.6886865315788864e+18,2.652886279296875,15.213399696350098,41.93628005981445,17.819320106506346,1.6886865315788864e+18,2.652886279296875,-240.13259582519532,136.9620788574219,-114.90447692871093,1.6886865315760118e+18,2.6500115966796876,0.03684788476675745,0.3332490175962448,-0.582040548324585,0.7407354712486267,1.3859177827835083,0.9932819902896881,-0.9450840950012208
2.7,1.6886865316192727e+18,2.6932727864583335,-1.1837513049443562,7.224205017089844,0.8750198682149252,1.6886865316279293e+18,2.7019293619791664,-0.29032915333906806,-1.336590866247813,-2.628515640894572,1.6886865316192727e+18,2.6932727864583335,0.8726209402084351,-8.845983187357584,-4.114378770192464,1.6886865316235988e+18,2.6975987141927082,-4.037259340286255,0.7835873961448669,0.10257445834577084,1.688686531632255e+18,2.7062552083333333,-4.365955670674642,0.7681630452473959,0.048360167692104966,,,,,,,,,,,,1.688686531628882e+18,2.702881982421875,15.389079666137695,44.695919036865234,9.186599826812744,1.688686531628882e+18,2.702881982421875,-239.9569122314453,139.7217224121094,-123.53719635009766,1.6886865316192727e+18,2.6932727864583335,-0.027682392004256432,0.30736157298088074,-0.6006334821383158,0.7370047569274902,1.3596259752909343,1.1268358230590823,-0.8688608407974243
2.75,1.6886865316711854e+18,2.745185465494792,-1.270553966363271,5.7770077387491865,1.3681323130925496,1.6886865316798444e+18,2.753844156901042,-0.6701897283395132,-5.886942028999329,0.0919242799282074,1.6886865316711854e+18,2.745185465494792,0.7000017960866293,-9.59001350402832,-1.7715975642204285,1.6886865316755156e+18,2.7495155436197916,-5.937864780426025,0.694197436173757,-0.2493857343991597,1.6886865316755118e+18,2.74951171875,-5.771225690841675,0.6717990636825562,-0.2664135992527008,,,,,,,,,,,,1.688686531678882e+18,2.752881982421875,15.313439750671387,45.3059196472168,-3.174439884722233,1.688686531678882e+18,2.752881982421875,-240.03255920410157,140.33171691894532,-135.8982391357422,1.6886865316711854e+18,2.745185465494792,-0.13218870759010312,0.24277681608994794,-0.6361610293388367,0.7191451191902161,1.1311102509498596,1.3726805448532104,-0.5913296838601431
2.8000000000000003,1.688686531723099e+18,2.7970988769531253,-3.093128760655721,-18.700450261433918,11.196842511494955,1.6886865317317548e+18,2.8057547200520836,-2.5966113408406577,-32.4201545715332,16.81197150548299,1.688686531723099e+18,2.7970988769531253,0.5602626800537109,-9.473883310953775,2.1446640690167746,1.6886865317274273e+18,2.801427327473958,-7.861377557118733,-0.037568215280771255,0.13377948105335238,1.688686531718772e+18,2.7927718912760415,-8.799361228942871,0.21741711099942526,-0.0691295862197876,,,,,,,,,,,,1.6886865317288878e+18,2.8028879394531248,15.791679573059081,39.9452392578125,-21.26947937011719,1.6886865317288878e+18,2.8028879394531248,-239.5543182373047,134.97103881835938,-153.99328002929687,1.688686531723099e+18,2.7970988769531253,-0.2791227797667185,0.11750986675421393,-0.6749619841575623,0.6697807113329569,-1.1805723309516907,1.3368171453475952,1.7542187372843425
2.85,1.6886865317750065e+18,2.84900634765625,-1.9578813314437866,-5.19410769144694,3.673876245816549,1.6886865317836618e+18,2.857661783854167,-1.1128619213898976,-9.608379046122232,3.9714874625205994,1.6886865317750065e+18,2.84900634765625,0.6455540756384531,-9.283708890279135,3.0787933667500815,1.6886865317793354e+18,2.853335611979167,2.4574600060780845,-3.305951793988546,0.3045672178268433,1.6886865317706857e+18,2.8446857910156247,1.9800179104010265,-2.335643251736959,0.6670648654301962,,,,,,,,,,,,1.6886865317788805e+18,2.852880517578125,16.028359603881835,39.03023986816406,-23.83391990661621,1.6886865317788805e+18,2.852880517578125,-239.31763305664063,134.05603637695313,-156.55771484375,1.6886865317750065e+18,2.84900634765625,-0.28893837332725525,0.059323613842328336,-0.6807484030723572,0.6697738567988077,-1.3635889689127605,1.244006355603536,1.86847980817159
2.9000000000000004,1.6886865318269235e+18,2.900923502604167,1.3083261499802272,4.9331644376118975,-0.1437466144561767,1.688686531826919e+18,2.9009190673828122,0.7184450030326843,-4.44377064704895,2.388336181640625,1.6886865318269235e+18,2.900923502604167,-0.4714998050282399,-9.487147331237793,2.422635555267334,1.6886865318312497e+18,2.905249755859375,0.4427245905001958,-6.129879951477051,-1.0892745455106099,1.688686531822599e+18,2.896598958333333,0.674089789390564,-6.418615659077962,-1.142012596130371,,,,,,,,,,,,1.688686531828885e+18,2.902884912109375,23.280039978027343,39.6939193725586,-16.221119689941407,1.688686531828885e+18,2.902884912109375,-232.06595458984376,134.71971740722657,-148.94491882324218,1.6886865318269235e+18,2.900923502604167,-0.16211435198783872,-0.010115110004941568,-0.7231673995653788,0.6697954138120016,-1.7638734579086304,1.3136571645736694,1.9812715848286946
2.95,1.6886865318788355e+18,2.95283544921875,6.732241113980611,1.281683127085368,0.039579312006632485,1.6886865318701875e+18,2.9441875,6.344768524169922,-7.21595557530721,2.203989108403524,1.6886865318788355e+18,2.95283544921875,-0.9644054770469666,-9.449625651041666,2.4436965783437095,1.6886865318831616e+18,2.9571617024739587,-0.7196501692136129,1.481042742729187,0.4317799111207326,1.6886865318745108e+18,2.948510986328125,-0.6034330427646637,0.0800742506980896,0.12044226129849751,,,,,,,,,,,,1.688686531878881e+18,2.9528810546875,27.425599670410158,38.79599838256836,-12.65139980316162,1.688686531878881e+18,2.9528810546875,-227.92039794921874,133.82179565429686,-145.3751983642578,1.6886865318788355e+18,2.95283544921875,-0.11622897287209823,-0.05864338080088294,-0.7386591633160909,0.6611974040667216,-1.9481463034947712,1.299050768216451,2.0303872426350913
3.0,1.688686531930745e+18,3.0047451171875004,-0.9291695455710093,-2.083207130432129,1.6597297191619873,1.6886865319220943e+18,2.996094319661458,-0.8285148665308952,-11.478569348653158,4.592823664347331,1.688686531930745e+18,3.0047451171875004,-0.12154237056771912,-9.39620304107666,2.809788465499878,1.688686531926417e+18,3.0004168701171876,-0.2985604028217495,3.589596748352051,0.8907942473888397,1.6886865319264195e+18,3.0004192708333335,-0.29850947856903076,3.3444363276163735,0.7331401215245327,,,,,,,,,,,,1.688686531928882e+18,3.002881982421875,23.060439682006837,39.47187881469726,-17.282519721984862,1.688686531928882e+18,3.002881982421875,-232.28555297851562,134.4976776123047,-150.00631713867188,1.688686531930745e+18,3.0047451171875004,-0.18482032914956403,-0.017585959324302732,-0.7110726634661356,0.6778135895729065,-1.613982081413269,1.2793416182200115,1.8536467949549358
3.0500000000000003,1.6886865319826593e+18,3.056659261067708,-1.245414137840271,0.4439700444539388,0.2647161483764648,1.6886865319740035e+18,3.0480033365885415,-1.1130613485972087,-9.134002367655436,3.15334145228068,1.6886865319826593e+18,3.056659261067708,0.028600487237175298,-9.409719785054525,2.7734951972961426,1.6886865319696822e+18,3.0436819661458334,0.1254309962193171,1.3557645082473755,-0.42699480056762695,1.6886865319783342e+18,3.0523343912760414,0.09672032793362934,1.2125166257222493,-0.41976624727249146,,,,,,,,,,,,1.6886865319788854e+18,3.052885400390625,21.062079238891602,39.62071914672852,-19.107639694213866,1.6886865319788854e+18,3.052885400390625,-234.2839141845703,134.64651794433593,-151.83143615722656,1.6886865319826593e+18,3.056659261067708,-0.2154514094193776,0.0159253176922599,-0.7058339317639669,0.6745799978574117,-1.5601446628570557,1.2841848929723103,1.8922840754191081
3.1,1.6886865320259164e+18,3.0999163818359374,-1.609109342098236,0.3295578956604004,0.09650051593780509,1.6886865320259146e+18,3.0999147949218746,-1.5405790011088054,-9.12502924601237,2.925624450047811,1.6886865320259164e+18,3.0999163818359374,0.0703613050282001,-9.416145324707031,2.7507835626602173,1.688686532021593e+18,3.0955930989583336,0.03721187422828127,0.82415904601415,-0.005599599642058167,1.6886865320302405e+18,3.104240315755208,0.02122756714622177,0.7456628282864889,0.08699738979339595,,,,,,,,,,,,1.6886865320288865e+18,3.10288642578125,19.981159591674803,39.27667922973633,-19.93967971801758,1.6886865320288865e+18,3.10288642578125,-235.36483764648438,134.30247802734374,-152.6634765625,1.6886865320259164e+18,3.0999163818359374,-0.22888283431529993,0.031133615411818,-0.7038293778896332,0.6717566251754761,-1.5447659492492676,1.2865219712257385,1.9184022545814514
3.1500000000000004,1.688686532069175e+18,3.143174967447917,-1.7418952385584514,0.0682592391967773,-0.005326032638549837,1.6886865320778268e+18,3.1518269042968754,-1.4079767068227131,-9.357531865437826,2.795813878377279,1.688686532069175e+18,3.143174967447917,0.2357494135697682,-9.414268493652344,2.747425635655721,1.6886865320735045e+18,3.1475044759114588,0.00015271633553009972,0.1840740628540516,0.41727187236150104,1.6886865320821583e+18,3.1561581217447916,-0.0060068417030076674,0.07584910094738007,0.44450627764066053,,,,,,,,,,,,1.688686532078882e+18,3.1528820312500003,19.18327941894531,39.64755859375,-20.251999664306645,1.688686532078882e+18,3.1528820312500003,-236.1627166748047,134.67335815429686,-152.97579650878907,1.688686532069175e+18,3.143174967447917,-0.23585591713587437,0.03629473100105917,-0.6975550651550293,0.6756194035212199,-1.484650731086731,1.2858461141586301,1.8759615023930867
3.2,1.6886865321210867e+18,3.1950867513020835,-1.2118752002716064,0.04907576243082679,0.25694807370503736,1.6886865321297428e+18,3.203743001302083,-0.6959125995635986,-9.350353240966799,3.1417760848999023,1.6886865321210867e+18,3.1950867513020835,0.4179928998152414,-9.403659184773764,2.7625195185343423,1.6886865321254185e+18,3.1994185384114586,-0.034768413131435666,-0.3083851436773936,0.33404147624969477,1.6886865321254106e+18,3.1994105224609375,-0.0416915528476238,-0.3023782968521118,0.34735324978828425,,,,,,,,,,,,1.688686532128886e+18,3.2028859863281247,18.14871940612793,39.898878479003905,-20.02263984680176,1.688686532128886e+18,3.2028859863281247,-237.19727783203126,134.9246826171875,-152.7464385986328,1.6886865321210867e+18,3.1950867513020835,-0.23475339015324906,0.03145387396216386,-0.6910902857780457,0.6828508377075195,-1.4199803670247395,1.2820237477620442,1.802746097246806
3.25,1.6886865321730076e+18,3.247007649739583,-0.8042653401692709,0.2312335968017578,0.44364213943481445,1.6886865321816538e+18,3.255653971354167,-0.3523431320985158,-9.193025271097818,3.3190444310506186,1.6886865321730076e+18,3.247007649739583,0.3858567972977956,-9.398180007934572,2.7853968938191733,1.6886865321773322e+18,3.25133203125,-0.018631389675040966,-0.6835073033968607,-0.1724676222850879,1.6886865321686774e+18,3.2426771647135415,-0.015169820049777566,-0.6255260209242502,-0.07625634719928102,,,,,,,,,,,,1.688686532178884e+18,3.25288408203125,18.873400115966795,39.735399627685545,-19.700559997558592,1.688686532178884e+18,3.25288408203125,-236.47259521484375,134.76119689941407,-152.4243591308594,1.6886865321730076e+18,3.247007649739583,-0.2261955837408701,0.021525829409559532,-0.6926384766896566,0.6845414638519287,-1.4323644240697224,1.28006911277771,1.7883098125457764
3.3000000000000003,1.6886865322249096e+18,3.298909749348958,-0.294601559638977,0.06921672821044916,0.4466751416524251,1.6886865322335593e+18,3.3075594075520836,-0.19521445035934448,-9.31884765625,3.272982597351074,1.6886865322249096e+18,3.298909749348958,0.1061033817629019,-9.398077328999838,2.8096818923950195,1.6886865322292388e+18,3.303238688151042,-0.031764993444085066,-0.5041674474875132,-0.4533638258775075,1.6886865322205878e+18,3.2945875651041665,-0.028608856101830768,-0.5804746945699056,-0.44567711154619843,,,,,,,,,,,,1.6886865322288812e+18,3.30288125,20.31299934387207,39.613398742675784,-19.419959259033202,1.6886865322288812e+18,3.30288125,-235.03299560546876,134.63919677734376,-152.1437561035156,1.6886865322249096e+18,3.298909749348958,-0.21451259156068167,0.011277821225424567,-0.7030915021896362,0.6778614123662313,-1.5322152773539226,1.2800521850585938,1.856353720029195
3.35,1.6886865322768223e+18,3.350822265625,-0.15628135701020557,0.07908789316813149,0.19572250048319498,1.688686532276826e+18,3.350826171875,-0.3355933725833893,-9.31884765625,3.0837501287460327,1.6886865322768223e+18,3.350822265625,-0.16661369055509564,-9.390201886494955,2.8331169287363687,1.6886865322811538e+18,3.3551539713541665,-0.04571308319767311,-0.27631471554438275,-0.48451794187227887,1.6886865322725e+18,3.346500162760417,-0.0493273685375849,-0.26969701051712036,-0.4671592017014821,,,,,,,,,,,,1.6886865322788813e+18,3.3528813476562496,21.55007972717285,39.235198974609375,-19.134479522705078,1.6886865322788813e+18,3.3528813476562496,-233.79591674804686,134.26099853515626,-151.8582763671875,1.6886865322768223e+18,3.350822265625,-0.20912510156631467,0.007070063458134667,-0.7129626274108887,0.6692419648170471,-1.628640055656433,1.2772878011067708,1.9389520486195881
