seconds_elapsed_rounded,accelerometer_time,accelerometer_seconds_elapsed,accelerometer_z,accelerometer_y,accelerometer_x,accelerometeruncalibrated_time,accelerometeruncalibrated_seconds_elapsed,accelerometeruncalibrated_z,accelerometeruncalibrated_y,accelerometeruncalibrated_x,gravity_time,gravity_seconds_elapsed,gravity_z,gravity_y,gravity_x,gyroscope_time,gyroscope_seconds_elapsed,gyroscope_z,gyroscope_y,gyroscope_x,gyroscopeuncalibrated_time,gyroscopeuncalibrated_seconds_elapsed,gyroscopeuncalibrated_z,gyroscopeuncalibrated_y,gyroscopeuncalibrated_x,location_time,location_seconds_elapsed,location_bearingAccuracy,location_speedAccuracy,location_verticalAccuracy,location_horizontalAccuracy,location_speed,location_bearing,location_altitude,location_longitude,location_latitude,magnetometer_time,magnetometer_seconds_elapsed,magnetometer_z,magnetometer_y,magnetometer_x,magnetometeruncalibrated_time,magnetometeruncalibrated_seconds_elapsed,magnetometeruncalibrated_z,magnetometeruncalibrated_y,magnetometeruncalibrated_x,orientation_time,orientation_seconds_elapsed,orientation_qz,orientation_qy,orientation_qx,orientation_qw,orientation_roll,orientation_pitch,orientation_yaw
0.0,1.688686277530665e+18,75.0066650390625,0.8938528895378113,-0.1097091039021809,0.0056479374567667,1.688686277522015e+18,74.9980148111979,-0.3617150336503982,-9.783254623413086,-1.0221340854962666,1.688686277530665e+18,75.0066650390625,-1.1082733074824016,-9.683558146158855,-1.111805438995361,1.6886862775263409e+18,75.00234098307293,-0.0417424576977888,-0.2434806997577349,-0.1805615872144698,1.6886862775263409e+18,75.00234098307293,-0.0427605677396058,-0.23889921605587,-0.1781181246042251,,,,,,,,,,,,1.6886862775238508e+18,74.99985087890624,-11.707119750976563,43.090399169921874,1.9056399822235108,1.6886862775238508e+18,74.99985087890624,-267.05311279296876,138.11619873046874,-130.8181610107422,1.688686277530665e+18,75.0066650390625,-0.6591568986574808,0.7456688284873962,-0.0215027257800102,0.0950000335772831,2.354518175125122,1.4100759426752727,0.6215933561325073
0.05,1.688686277573928e+18,75.04992797851563,0.2599310278892516,-0.0729928016662597,0.0005757212638854,1.688686277573928e+18,75.04992797851561,-0.7994021574656168,-9.772487004597982,-1.048654556274414,1.688686277573928e+18,75.04992797851563,-1.117920994758606,-9.682687282562256,-1.1098239421844482,1.6886862775782572e+18,75.05425699869791,0.0089593570058543,0.0791070498526095,0.1386664127930999,1.6886862775782572e+18,75.05425699869791,0.0079412482058007,0.0836885385215282,0.1411098747824629,,,,,,,,,,,,1.68868627757385e+18,75.04985004882812,-11.738839530944825,43.13919906616211,1.8055999755859375,1.68868627757385e+18,75.04985004882812,-267.0848388671875,138.1649963378906,-130.91819763183594,1.688686277573928e+18,75.04992797851563,-0.6587607860565186,0.7459885478019714,-0.0218936381861567,0.0951592177152633,2.359788298606873,1.4095187783241272,0.6155364811420441
0.1,1.6886862776171878e+18,75.09318798828126,-0.1694926023483276,0.0726359685262043,0.0288764635721841,1.6886862776258368e+18,75.10183666992187,-1.2717852592468262,-9.63410218556722,-1.045862893263499,1.6886862776171878e+18,75.09318798828126,-1.0427348216374714,-9.691426595052084,-1.1067188580830891,1.688686277630169e+18,75.10616894531249,-0.0171551322564482,-0.0419969856739044,0.0737619769449035,1.688686277630169e+18,75.10616894531249,-0.0181223358958959,-0.0374154945214589,0.0762563465783993,,,,,,,,,,,,1.688686277623846e+18,75.09984589843751,-11.8022798538208,42.99523849487305,1.751919960975647,1.688686277623846e+18,75.09984589843751,-267.1482788085938,138.02103576660156,-130.9718780517578,1.6886862776171878e+18,75.09318798828126,-0.6618037223815918,0.7434538801511129,-0.020560615385572,0.0941740944981574,2.3263915379842124,1.4151644706726074,0.65226944287618
0.15,1.6886862776691044e+18,75.14510432942707,-0.0322869618733724,-0.0039943059285482,-0.2313670714696248,1.6886862776777536e+18,75.1537538248698,-0.8959126869837443,-9.732407251993816,-1.299701491991679,1.6886862776691044e+18,75.14510432942707,-1.0321836868921916,-9.693161646525066,-1.1015103658040364,1.688686277673431e+18,75.14943115234374,-0.0337503049522638,-0.1703550443053245,-0.0439822971820831,1.688686277673431e+18,75.14943115234374,-0.0347429607063531,-0.1657735556364059,-0.0415388364344835,,,,,,,,,,,,1.6886862776738537e+18,75.14985380859375,-11.86571979522705,43.09527969360352,1.507919979095459,1.6886862776738537e+18,75.14985380859375,-267.21172485351565,138.12107543945314,-131.21587524414062,1.6886862776691044e+18,75.14510432942707,-0.6619595885276794,0.7430244485537211,-0.0228538668404022,0.0959181661407152,2.3237172762552896,1.4163051048914592,0.6492039561271667
0.2,1.6886862777210143e+18,75.19701424153645,0.3861746788024902,-0.0127550760904947,-0.1591460704803466,1.6886862777296704e+18,75.20567041015624,-0.7740781207879385,-9.695318539937338,-1.1583255529403689,1.6886862777210143e+18,75.19701424153645,-1.04964812596639,-9.690781593322752,-1.1059346596399944,1.6886862777166917e+18,75.19269165039061,0.0202094577252864,0.0187841057777404,-0.0361428605392575,1.6886862777166917e+18,75.19269165039061,0.0191913498565554,0.0233655956884225,-0.0336484933892885,,,,,,,,,,,,1.68868627772385e+18,75.1998498046875,-11.72175998687744,42.88787994384766,1.5786799669265748,1.68868627772385e+18,75.1998498046875,-267.0677490234375,137.9136749267578,-131.1451171875,1.6886862777210143e+18,75.19701424153645,-0.6611305673917135,0.7435935338338217,-0.0238288417458533,0.0969899470607439,2.330099900563558,1.414736032485962,0.6398976643880209
0.25,1.688686277772933e+18,75.24893302408854,-0.0932085514068603,0.0232899983723958,0.0422382354736327,1.688686277781581e+18,75.25758129882813,-1.0867402950922649,-9.684351603190104,-1.003589689731598,1.688686277772933e+18,75.24893302408854,-1.0278922319412231,-9.691532452901203,-1.1196818749109905,1.688686277768605e+18,75.24460481770834,0.011402817753454,-0.102218119893223,0.0521271688242752,1.688686277768605e+18,75.24460481770834,0.0103847095742821,-0.0976875358804438,0.0545706289509932,,,,,,,,,,,,1.68868627777385e+18,75.24985004882812,-11.690039825439452,43.26363906860352,1.810479950904846,1.68868627777385e+18,75.24985004882812,-267.03603515625,138.28943786621093,-130.91331481933594,1.688686277772933e+18,75.24893302408854,-0.661812941233317,0.7428478201230367,-0.0238171077022949,0.0980423912405967,2.3134798208872476,1.4152292807896931,0.6550394495328268
0.3,1.6886862778248458e+18,75.30084602864584,0.0799907247225443,0.0140984853108724,0.0072775284449259,1.6886862778248502e+18,75.30085021972656,-0.9122636318206788,-9.693922519683838,-1.0534401535987854,1.6886862778248458e+18,75.30084602864584,-1.01624596118927,-9.69231096903483,-1.1236045360565186,1.6886862778205197e+18,75.29651969401043,-0.0067195174439499,-0.1175406513114769,-0.0062104631991435,1.6886862778205197e+18,75.29651969401043,-0.0077376263216137,-0.1129591651260852,-0.003716096902887,,,,,,,,,,,,1.688686277823849e+18,75.29984882812501,-11.880359649658203,43.14651947021484,1.595759916305542,1.688686277823849e+18,75.29984882812501,-267.2263488769531,138.1723175048828,-131.12803955078124,1.6886862778248458e+18,75.30084602864584,-0.6618525385856628,0.7423577109972636,-0.0264967375745375,0.1007662713527679,2.306078831354777,1.4157410462697346,0.6547488768895467
0.35,1.6886862778767585e+18,75.35275846354166,-0.0170494318008422,-0.0101550420125325,0.0126199722290039,1.688686277868108e+18,75.34410807291667,-1.0163514415423076,-9.711270968119305,-1.073579748471578,1.6886862778767585e+18,75.35275846354166,-1.0161151091257732,-9.691587130228678,-1.1299439668655396,1.6886862778724357e+18,75.348435546875,0.012319115611414,-0.024892758578062,-0.0084503022177765,1.6886862778724357e+18,75.348435546875,0.0113519122824072,-0.0203112692882616,-0.0059559359215199,,,,,,,,,,,,1.688686277873855e+18,75.34985493164064,-12.01211986541748,43.02695922851562,1.734839963912964,1.688686277873855e+18,75.34985493164064,-267.3581237792969,138.0527587890625,-130.98895874023438,1.6886862778767585e+18,75.35275846354166,-0.6617305874824524,0.7423373659451803,-0.0269422121345996,0.1015969365835189,2.3032182852427163,1.415264328320821,0.6557883222897848
0.4,1.6886862779286712e+18,75.40467146809895,0.1447208921114603,0.0004269282023111,0.1768930157025654,1.688686277920025e+18,75.39602506510417,-0.8815557360649109,-9.71745236714681,-0.904885749022166,1.6886862779286712e+18,75.40467146809895,-1.0161705017089844,-9.69100252787272,-1.134894887606303,1.68868627792435e+18,75.40035001627604,0.0077885319478809,-0.0150680088748534,0.0063122745292882,1.68868627792435e+18,75.40035001627604,0.0067704231478273,-0.0104865198954939,0.008755734656006,1.688686277922985e+18,75.39898486328126,0.0,0.4216099381446838,1.010445237159729,5.979000091552734,0.0158128328621387,0.0,40.20000076293945,-122.7531724,49.1902079,1.6886862779238477e+18,75.39984770507813,-11.84619960784912,42.78051910400391,1.571359968185425,1.6886862779238477e+18,75.39984770507813,-267.1921875,137.8063171386719,-131.15243835449218,1.6886862779286712e+18,75.40467146809895,-0.6616176168123881,0.7423238952954611,-0.0273688212037086,0.1023149043321609,2.30107315381368,1.4148797591527302,0.6563003857930502
0.45,1.68868627798059e+18,75.45659000651041,-0.0837663809458413,0.0276759465535481,0.0529272158940632,1.688686277971937e+18,75.44793684895834,-1.050249715646108,-9.686146100362144,-0.993818998336792,1.68868627798059e+18,75.45659000651041,-0.9992486635843912,-9.693126996358236,-1.131766637166341,1.6886862779762624e+18,75.45226220703125,-0.0109955744507412,0.0040215291082858,0.0377209292103846,1.6886862779762624e+18,75.45226220703125,-0.0120136832895999,0.0086030185533066,0.0401643899579842,,,,,,,,,,,,1.6886862779738488e+18,75.44984897460937,-12.1731595993042,43.031839752197264,1.6323599576950074,1.6886862779738488e+18,75.44984897460937,-267.51915283203124,138.0576385498047,-131.09143676757813,1.68868627798059e+18,75.45659000651041,-0.6623154679934183,0.7417506178220113,-0.0271550714969634,0.1020139654477437,2.2941038608551025,1.4162811040878296,0.6640130281448364
0.5,1.688686278023848e+18,75.49984777832032,-0.0782581269741058,0.0567378997802733,-0.0086173415184021,1.688686278023853e+18,75.49985302734375,-1.0707881450653076,-9.668000221252443,-1.073579748471578,1.688686278023848e+18,75.49984777832032,-0.9953850209712982,-9.694571495056152,-1.1227644681930542,1.6886862780281782e+18,75.50417789713542,-0.0247909482568502,-0.0135917521547525,-0.012624548204864,1.6886862780281782e+18,75.50417789713542,-0.0257581503440935,-0.0090611677927275,-0.0100792764375607,,,,,,,,,,,,1.688686278023852e+18,75.49985200195313,-12.202439498901366,42.9098388671875,1.6469999551773071,1.688686278023852e+18,75.49985200195313,-267.5484375,137.93563842773438,-131.07679748535156,1.688686278023848e+18,75.49984777832032,-0.6624692678451538,0.741594672203064,-0.0277803223580121,0.1019808389246463,2.2961483001708984,1.4172409176826477,0.6611317992210388
0.55,1.688686278067109e+18,75.54310913085938,0.0651075839996337,-0.0053014755249022,-0.1390506029129027,1.688686278075766e+18,75.55176595052083,-0.8917252421379089,-9.731410344441732,-1.1958130995432537,1.688686278067109e+18,75.54310913085938,-1.0073448816935222,-9.694247245788574,-1.1148637135823567,1.688686278080095e+18,75.55609497070313,-0.0118100611725821,0.0014253522579869,-0.0386881319185097,1.688686278080095e+18,75.55609497070313,-0.012828170089051,0.0060068413780147,-0.0361937650789816,,,,,,,,,,,,1.688686278073848e+18,75.54984790039063,-11.802279663085937,43.06355972290039,1.6347999572753906,1.688686278073848e+18,75.54984790039063,-267.1482727050781,138.0893585205078,-131.08899841308593,1.688686278067109e+18,75.54310913085938,-0.6620408693949381,0.7419883211453756,-0.0282354454199472,0.1017740716536839,2.305586258570353,1.417024811108907,0.6513388752937317
0.6,1.6886862781190295e+18,75.59502962239584,0.2076714237531025,0.0070056915283202,-0.057445208231608,1.6886862781276815e+18,75.60368131510417,-0.8301100532213846,-9.68774159749349,-1.08175524075826,1.6886862781190295e+18,75.59502962239584,-1.0165088574091594,-9.693194389343262,-1.1157112916310628,1.6886862781233477e+18,75.59934753417969,0.0229838043451308,0.0607810895889996,0.0196240453515201,1.6886862781233477e+18,75.59934753417969,0.0219147903844713,0.0653625838458537,0.02222022251226,,,,,,,,,,,,1.6886862781238533e+18,75.599853515625,-11.55827980041504,43.00499877929688,1.817799973487854,1.6886862781238533e+18,75.599853515625,-266.9042724609375,138.03079833984376,-130.90599365234374,1.6886862781190295e+18,75.59502962239584,-0.6617433826128641,0.742318332195282,-0.027828749269247,0.1014131183425585,2.309720436731974,1.416325330734253,0.6482933759689331
0.65,1.6886862781709366e+18,75.64693660481771,-0.0561740398406982,-0.0130570729573567,0.0675331751505533,1.688686278179595e+18,75.65559505208334,-1.0596216122309368,-9.721240679423014,-0.9778668483098348,1.6886862781709366e+18,75.64693660481771,-1.0059037605921428,-9.693869272867838,-1.1194533507029216,1.688686278166619e+18,75.64261873372396,0.0040724348897735,0.03476841468364,0.0221947701647877,1.688686278166619e+18,75.64261873372396,0.003003420929114,0.0393499035853892,0.0246382318437099,,,,,,,,,,,,1.688686278173851e+18,75.64985073242187,-12.143879890441896,42.84151916503906,1.5347599506378171,1.688686278173851e+18,75.64985073242187,-267.4898681640625,137.86731567382813,-131.1890380859375,1.6886862781709366e+18,75.64693660481771,-0.6622700691223145,0.7419995069503784,-0.0265991042057672,0.1006361246109008,2.30283792813619,1.416772723197937,0.6580366889635721
0.7,1.688686278222857e+18,75.69885685221355,0.032517373561859,0.0711485544840495,-0.0219343900680541,1.6886862782315062e+18,75.70750634765625,-0.9722836017608644,-9.623134930928549,-1.115852952003479,1.688686278222857e+18,75.69885685221355,-1.0040667454401653,-9.694924354553224,-1.1119399070739746,1.68868627821853e+18,75.69453019205729,-0.0142535219589868,0.0283034226546684,-0.00015271633553,1.68868627821853e+18,75.69453019205729,-0.0152207255984345,0.0328849128757913,0.0022907446449001,,,,,,,,,,,,1.6886862782238482e+18,75.69984814453126,-11.809599876403809,42.96351928710938,1.8129199266433715,1.6886862782238482e+18,75.69984814453126,-267.1555969238281,137.98931884765625,-130.91087951660157,1.688686278222857e+18,75.69885685221355,-0.6624260346094767,0.7419387896855673,-0.0265313411752382,0.1000733499725659,2.3052785396575928,1.417475422223409,0.6564994057019552
0.75,1.688686278274768e+18,75.75076839192708,0.0068885485331217,-1.3033548990866914e-05,-0.1565594275792439,1.688686278274771e+18,75.75077087402343,-1.0067801475524902,-9.721739292144775,-1.21256285905838,1.688686278274768e+18,75.75076839192708,-1.0127350489298503,-9.694550514221191,-1.1073249578475952,1.6886862782704433e+18,75.74644311523438,-0.0064649906319876,0.0115555338173483,-0.018427767480413,1.6886862782704433e+18,75.74644311523438,-0.0074321937281638,0.0160861181405682,-0.0158824957907199,,,,,,,,,,,,1.6886862782738468e+18,75.74984702148438,-11.948679733276368,42.72195892333984,1.2761199951171875,1.6886862782738468e+18,75.74984702148438,-267.2946716308594,137.74775390625,-131.4476776123047,1.688686278274768e+18,75.75076839192708,-0.6621763904889425,0.7422441045443217,-0.0263186215112606,0.099516582985719,2.3116254011789956,1.417226513226827,0.6512467463811239
0.8,1.688686278326687e+18,75.80268717447916,0.1300817529360453,0.0033041636149088,0.0419554313023884,1.688686278318034e+18,75.79403393554688,-0.901894728342692,-9.71485996246338,-1.042473057905833,1.688686278326687e+18,75.80268717447916,-1.025060812632243,-9.693082173665363,-1.108830730120341,1.688686278322362e+18,75.79836214192709,0.0082466807216405,0.0473420570294061,-0.0252490968753893,1.688686278322362e+18,75.79836214192709,0.0072285720768073,0.0519235456983248,-0.0227547306567429,,,,,,,,,,,,1.6886862783238543e+18,75.79985424804688,-11.797399711608886,42.8707992553711,1.5371999740600586,1.6886862783238543e+18,75.79985424804688,-267.1433959960938,137.89660034179687,-131.1865997314453,1.688686278326687e+18,75.80268717447916,-0.6617773572603861,0.7426883180936178,-0.0257184151560067,0.0990115255117415,2.316975752512614,1.4162508646647136,0.6474634210268656
0.85,1.6886862783785974e+18,75.85459733072916,0.0894211928049723,-0.0162045160929362,0.0369718472162882,1.688686278369948e+18,75.84594791666667,-0.9084750016530356,-9.721639633178713,-0.973878820737203,1.6886862783785974e+18,75.85459733072916,-1.0336525042851763,-9.692715962727863,-1.1040465434392293,1.688686278374272e+18,75.85027197265624,-0.010079276592781,0.0357865219314892,-0.0063122741412371,1.688686278374272e+18,75.85027197265624,-0.0110464797665674,0.040368012463053,-0.0037670022963235,,,,,,,,,,,,1.6886862783738452e+18,75.8498451171875,-11.977959823608398,43.017198181152345,1.4005599737167358,1.6886862783738452e+18,75.8498451171875,-267.3239501953125,138.04299621582032,-131.32323608398437,1.6886862783785974e+18,75.85459733072916,-0.6615872581799825,0.7430053949356079,-0.0250771219531694,0.0980634565154711,2.323303699493408,1.41600767771403,0.6433967351913452
0.9,1.688686278430512e+18,75.90651188151041,0.0405826171239217,0.0206673940022786,-0.0932135184605916,1.6886862784218644e+18,75.89786442057292,-1.0081759492556257,-9.690134048461914,-1.1276176770528157,1.688686278430512e+18,75.90651188151041,-1.0322715838750205,-9.693496068318684,-1.098487337430318,1.688686278426193e+18,75.90219287109375,-0.0117591560507813,-0.0366010094682375,-0.0016798796326232,1.688686278426193e+18,75.90219287109375,-0.0127772643851736,-0.0320704256494839,0.0008144869934767,,,,,,,,,,,,1.6886862784238515e+18,75.89985146484375,-11.492399978637696,43.16115875244141,1.766559934616089,1.6886862784238515e+18,75.89985146484375,-266.83839721679686,138.18695678710938,-130.95723876953124,1.688686278430512e+18,75.90651188151041,-0.6616294980049133,0.7429408431053162,-0.0255777426064014,0.0981377934416134,2.3251537481943765,1.4165233771006267,0.6407314936319987
0.95,1.6886862784737723e+18,75.94977221679687,0.1423574686050414,-0.000378131866455,-0.0513138771057128,1.6886862784737764e+18,75.94977661132812,-0.9094720085461936,-9.711469968159994,-1.0999008019765215,1.6886862784737723e+18,75.94977221679687,-1.0365388989448547,-9.692789554595947,-1.1007060408592224,1.6886862784781048e+18,75.95410506184896,0.0150171040246883,0.0535016159216562,-0.017664186656475,1.6886862784781048e+18,75.95410506184896,0.0140499003852406,0.0580831045905748,-0.0151698204378286,,,,,,,,,,,,1.68868627847385e+18,75.9498498046875,-11.877919769287107,43.04159851074219,1.549399971961975,1.68868627847385e+18,75.9498498046875,-267.2239196777344,138.06739807128906,-131.1743957519531,1.6886862784737723e+18,75.94977221679687,-0.6614636182785034,0.7430916428565979,-0.0254478938877582,0.0981487520039081,2.3262046575546265,1.4160563945770264,0.6398475468158722
1.0,1.6886862785170383e+18,75.99303841145833,-0.0115004380544026,-0.0042263666788737,-0.0200088818868,1.6886862785256855e+18,76.00168530273437,-1.0562318166097004,-9.711469968159994,-1.0498509407043457,1.6886862785170383e+18,75.99303841145833,-1.0455923080444336,-9.691134770711264,-1.1066869894663494,1.6886862785300165e+18,76.00601619466146,0.01852957966427,5.0905082995699826e-05,-0.0077885318702707,1.6886862785300165e+18,76.00601619466146,0.0174605647722879,0.0046323952071058,-0.0052432600932661,,,,,,,,,,,,1.6886862785238497e+18,75.99984960937499,-12.28783950805664,43.04403915405273,1.466439962387085,1.6886862785238497e+18,75.99984960937499,-267.633837890625,138.06983642578126,-131.25735778808593,1.6886862785170383e+18,75.99303841145833,-0.6612006227175394,0.7434373299280802,-0.0243957303464412,0.0975683803359667,2.327840884526571,1.4149659474690754,0.6405278046925863
1.05,1.688686278568951e+18,76.04495109049479,0.0214378436406453,-0.0056947072347004,0.0327794154485066,1.688686278577606e+18,76.05360611979167,-1.0103693803151448,-9.721240997314451,-1.0111669500668845,1.688686278568951e+18,76.04495109049479,-1.047224521636963,-9.689866065979004,-1.116205056508382,1.6886862785732813e+18,76.04928137207031,0.0137444678694009,-0.0453567449003457,-0.0067958759609608,1.6886862785732813e+18,76.04928137207031,0.0128281698562204,-0.0408516116440295,-0.0042760566575452,,,,,,,,,,,,1.6886862785738483e+18,76.04984833984375,-11.692479705810548,43.13919906616211,1.7445999383926392,1.6886862785738483e+18,76.04984833984375,-267.03847045898436,138.1649963378906,-130.97919921875,1.688686278568951e+18,76.04495109049479,-0.6610244711240133,0.7434887091318766,-0.0245349549998839,0.0983320648471513,2.3243466218312583,1.4141350984573364,0.6427307923634847
1.1,1.688686278620867e+18,76.0968671875,-0.014908234278361,-0.0171496073404947,0.104020595550537,1.6886862786295204e+18,76.1055205078125,-1.1012966632843018,-9.710074424743652,-0.9605188965797424,1.688686278620867e+18,76.0968671875,-1.0491636196772258,-9.68838119506836,-1.1272269090016682,1.6886862786165435e+18,76.09254361979167,0.0315104654679695,0.0436259600489089,0.0012726360194695,1.6886862786165435e+18,76.09254361979167,0.0304414511968691,0.0482074489506581,0.0038179077673703,,,,,,,,,,,,1.688686278623852e+18,76.09985200195312,-12.009679794311523,43.10991897583008,1.6128399610519408,1.688686278623852e+18,76.09985200195312,-267.3556823730469,138.1357208251953,-131.1109588623047,1.688686278620867e+18,76.0968671875,-0.6609107255935669,0.7435726523399353,-0.0239958049108584,0.098593530555566,2.320369084676107,1.4131669600804646,0.647096574306488
1.15,1.6886862786727862e+18,76.1487862141927,-0.1709652741750081,0.0453475316365559,0.1339765985806782,1.6886862786814351e+18,76.15743505859375,-1.214556892712911,-9.666804313659668,-0.9435697197914124,1.6886862786727862e+18,76.1487862141927,-1.0526280800501506,-9.686670621236166,-1.1386385361353557,1.6886862786684567e+18,76.14445646158855,0.0279470849782228,0.0573195225248733,-0.0032070424349512,1.6886862786684567e+18,76.14445646158855,0.0269798810283342,0.0619010118146737,-0.0006617707355569,,,,,,,,,,,,1.6886862786738496e+18,76.14984936523437,-11.73639965057373,43.15871887207031,1.8470799446105957,1.6886862786738496e+18,76.14984936523437,-267.0823913574219,138.18451538085938,-130.87671508789063,1.6886862786727862e+18,76.1487862141927,-0.6608972350756327,0.7437461018562317,-0.0222338226934273,0.0977864836653072,2.316985289255778,1.4120608568191528,0.6541316707928976
1.2,1.6886862787246932e+18,76.20069344075522,-0.0166712204615275,0.0096559524536132,0.1069606939951578,1.6886862787246968e+18,76.20069677734375,-1.0654042959213257,-9.693922996520996,-0.98524472117424,1.6886862787246932e+18,76.20069344075522,-1.0697335799535117,-9.684479077657064,-1.14133354028066,1.688686278720372e+18,76.19637190755209,0.0025961772626033,0.0044796785029271,-0.0361428602288166,1.688686278720372e+18,76.19637190755209,0.0015780685935169,0.0090102620112398,-0.0336484946310519,,,,,,,,,,,,1.6886862787238502e+18,76.19985019531251,-11.538759803771972,43.09771881103516,1.9910399675369264,1.6886862787238502e+18,76.19985019531251,-266.88475341796874,138.12351684570314,-130.73276062011718,1.6886862787246932e+18,76.20069344075522,-0.6602647503217062,0.7443408568700155,-0.0219280558327833,0.0976026828090349,2.323838154474894,1.4106536308924358,0.6479655901590983
1.25,1.6886862787766108e+18,76.25261067708334,-0.0246090094248453,-0.0185708999633789,0.1644522349039713,1.6886862787679552e+18,76.2439551595052,-1.102891842524211,-9.711868604024252,-0.928614596525828,1.6886862787766108e+18,76.25261067708334,-1.0793432394663494,-9.683968861897789,-1.1366116603215537,1.6886862787722831e+18,76.248283203125,-0.0083993970571706,0.0261653941124677,-0.0085521135479211,1.6886862787722831e+18,76.248283203125,-0.0093156946823,0.0307468846440314,-0.0060577471740543,,,,,,,,,,,,1.6886862787738476e+18,76.24984770507812,-11.272799873352051,43.107478332519534,2.1764799118041993,1.6886862787738476e+18,76.24984770507812,-266.61879272460936,138.13328247070314,-130.5473175048828,1.6886862787766108e+18,76.25261067708334,-0.6599679986635844,0.7446739077568054,-0.0217849637071291,0.0971002802252769,2.330375909805298,1.4103281497955322,0.6423452099164327
1.3,1.6886862788285197e+18,76.30451977539063,-0.013648509979248,0.0459607442220052,0.1143585443496703,1.6886862788198746e+18,76.29587451171875,-1.0827522277832031,-9.653045654296877,-0.91206423441569,1.6886862788285197e+18,76.30451977539063,-1.092098315556844,-9.684492429097494,-1.119818091392517,1.6886862788242012e+18,76.3002012532552,-0.0322231414417425,0.0630718370278676,-0.0260126783202091,1.6886862788242012e+18,76.3002012532552,-0.0331394399205843,0.0676024208466211,-0.0235183121015627,,,,,,,,,,,,1.6886862788238474e+18,76.2998474609375,-11.172759628295898,42.91959915161133,2.1447598934173584,1.6886862788238474e+18,76.2998474609375,-266.51875,137.94539489746094,-130.57904052734375,1.6886862788285197e+18,76.30451977539063,-0.6596916119257609,0.745119035243988,-0.0214828439056872,0.0956181213259696,2.343684673309326,1.410662094751994,0.6315789421399435
1.35,1.6886862788804403e+18,76.35644010416667,-0.0757839679718017,0.0148553848266601,-0.1234684785207112,1.6886862788717842e+18,76.3477841796875,-1.1914262771606443,-9.696116129557293,-1.133400321006775,1.6886862788804403e+18,76.35644010416667,-1.1069319645563762,-9.685291290283203,-1.0981427033742268,1.6886862788761157e+18,76.35211539713542,-0.0475456776718298,-0.040164390578866,-0.0260635837912559,1.6886862788761157e+18,76.35211539713542,-0.0485637870927651,-0.0355828994264205,-0.0235692169517278,,,,,,,,,,,,1.6886862788738447e+18,76.34984472656251,-11.385039710998536,43.200199127197266,1.6811599731445312,1.6886862788738447e+18,76.34984472656251,-266.7310302734375,138.2259979248047,-131.04263610839843,1.6886862788804403e+18,76.35644010416667,-0.6592439611752828,0.745603104432424,-0.0222614252318938,0.0947495624423026,2.360203266143799,1.4111740191777546,0.6151917576789856
1.4,1.6886862789237023e+18,76.39970239257812,0.0706785321235655,0.0245027542114257,-0.1522349715232849,1.6886862789236992e+18,76.3996991373698,-1.062413255373637,-9.681559880574545,-1.1774681409200032,1.6886862789237023e+18,76.39970239257812,-1.1174023747444153,-9.685367584228516,-1.08682382106781,1.6886862789280248e+18,76.40402482096354,-0.0256563400228817,-0.0552833046143253,-0.0331903453916311,1.6886862789280248e+18,76.40402482096354,-0.0266744500646988,-0.0507018157901862,-0.0306450730810562,1.688686278922998e+18,76.398998046875,0.0,0.4601760804653168,1.0208357572555542,6.045000076293945,0.0126133356243371,0.0,40.20000076293945,-122.7531715,49.1902078,1.6886862789238513e+18,76.399851171875,-11.072719955444336,43.08551940917969,1.6738399744033814,1.6886862789238513e+18,76.399851171875,-266.4187072753906,138.11131286621094,-131.04995727539062,1.6886862789237023e+18,76.39970239257812,-0.658724844455719,0.7459041178226471,-0.024094097316265,0.0955409705638885,2.370081901550293,1.4112229347229004,0.6015775501728058
1.45,1.68868627896696e+18,76.44295987955729,-0.1705909172693888,0.0330775578816731,0.0360934535662333,1.6886862789756168e+18,76.45161678059895,-1.2989039023717244,-9.669994672139486,-0.939382294813792,1.68868627896696e+18,76.44295987955729,-1.1229925155639648,-9.685168584187826,-1.0828291575113933,1.6886862789799442e+18,76.45594417317709,7.228014483236696e-20,0.036906442294518,-0.0063122741412371,1.6886862789799442e+18,76.45594417317709,-0.0009672033290067,0.0414879315843184,-0.0038179078449806,,,,,,,,,,,,1.68868627897385e+18,76.44985009765625,-11.353319931030274,43.046479034423825,1.8202399492263792,1.68868627897385e+18,76.44985009765625,-266.69931640625,138.07227783203126,-130.90355834960937,1.68868627896696e+18,76.44295987955729,-0.6585203806559244,0.7460867563883463,-0.0243462075789769,0.0954606582721074,2.374415318171183,1.4110956192016602,0.5969984332720438
1.5,1.6886862790188795e+18,76.49487963867188,-0.155852993329366,-0.0002374649047851,0.2071411410967508,1.688686279027527e+18,76.50352718098958,-1.25144624710083,-9.704291661580404,-0.8097710609436035,1.6886862790188795e+18,76.49487963867188,-1.1445101102193196,-9.683159510294598,-1.078203797340393,1.6886862790232064e+18,76.49920654296875,-0.0010690141643863,0.0597120784223079,-0.0721584558486937,1.6886862790232064e+18,76.49920654296875,-0.0020616702677215,0.0642935670912265,-0.0696386396884917,,,,,,,,,,,,1.68868627902385e+18,76.49985009765625,-11.045879554748534,42.89520034790039,1.7885199546813966,1.68868627902385e+18,76.49985009765625,-266.3918762207031,137.9209991455078,-130.9352783203125,1.6886862790188795e+18,76.49487963867188,-0.6578364968299866,0.7468428015708923,-0.0236661545932292,0.0944272652268409,2.386002540588379,1.4098148345947266,0.5878424644470215
1.55,1.6886862790707963e+18,76.54679638671875,0.2489861448605855,-0.0244913101196288,0.0711094538370768,1.6886862790794455e+18,76.55544547526041,-0.9385846455891927,-9.713663419087728,-0.9595218698183696,1.6886862790707963e+18,76.54679638671875,-1.1856401761372883,-9.680042584737144,-1.0616138378779094,1.688686279066467e+18,76.54246720377604,-0.0346666021893421,0.0648026193181673,-0.0756454790631929,1.688686279066467e+18,76.54246720377604,-0.0356847122311591,0.0693332056204477,-0.0732020176947116,,,,,,,,,,,,1.6886862790738478e+18,76.54984780273438,-10.709159660339356,43.080640411376955,1.7372799873352052,1.6886862790738478e+18,76.54984780273438,-266.05515747070314,138.10643615722657,-130.98651733398438,1.6886862790707963e+18,76.54679638671875,-0.6564833521842957,0.7482576568921407,-0.0232675994435946,0.0927262231707572,2.411327838897705,1.4078418413798015,0.5654922127723694
1.6,1.6886862791227077e+18,76.59870760091145,0.0591402848561604,0.0115226109822591,-0.1360160112380981,1.688686279131357e+18,76.60735677083333,-1.102293610572815,-9.706085840861002,-1.1202398141225178,1.6886862791227077e+18,76.59870760091145,-1.1864225069681804,-9.682557106018066,-1.0375393231709795,1.688686279118379e+18,76.59437923177084,-0.0536543304721514,-0.0338521152734756,0.0357865230956424,1.688686279118379e+18,76.59437923177084,-0.0545706277092297,-0.0293215308338403,0.0382808887710173,,,,,,,,,,,,1.688686279123848e+18,76.59984790039063,-11.148359680175782,42.98303985595703,1.7299599409103394,1.688686279123848e+18,76.59984790039063,-266.4943542480469,138.008837890625,-130.99383544921875,1.6886862791227077e+18,76.59870760091145,-0.6565914352734884,0.7482609351476034,-0.02401015907526,0.0917409683267275,2.423053820927938,1.4094343582789104,0.5541237592697144
1.65,1.688686279174622e+18,76.65062198893229,0.0746039549509684,0.0229387283325195,-0.2020521561304727,1.6886862791746156e+18,76.65061560058595,-1.0791630148887634,-9.666405200958252,-1.1670992970466614,1.688686279174622e+18,76.65062198893229,-1.1761633555094402,-9.685598055521648,-1.020755410194397,1.6886862791702935e+18,76.64629345703125,-0.0367028197894493,-0.0571159006406863,-0.0085012077664335,1.6886862791702935e+18,76.64629345703125,-0.0377209298312663,-0.0525344116613268,-0.0060068413974173,,,,,,,,,,,,1.688686279173849e+18,76.64984912109375,-11.158119773864746,43.324639892578126,1.5835599899291992,1.688686279173849e+18,76.64984912109375,-266.5041198730469,138.35043640136718,-131.1402374267578,1.688686279174622e+18,76.65062198893229,-0.6568930745124817,0.7478441794713339,-0.0260269809514283,0.0924290443460146,2.4268339474995932,1.4113710323969524,0.5465048750241598
1.7,1.6886862792265367e+18,76.70253645833333,0.0856727361679077,-0.0025186538696288,-0.2444685697555541,1.688686279217885e+18,76.69388492838542,-1.1194422245025637,-9.68933645884196,-1.2051849762598674,1.6886862792265367e+18,76.70253645833333,-1.1806519031524658,-9.685464859008787,-1.0168236096700032,1.6886862792222116e+18,76.69821158854167,-0.0069231395609676,0.0031052315607666,-0.0217875267068545,1.6886862792222116e+18,76.69821158854167,-0.007890342734754,0.0076867210057873,-0.0192931611090898,,,,,,,,,,,,1.6886862792238502e+18,76.69985009765625,-11.238639640808106,43.0562385559082,1.3810399770736694,1.6886862792238502e+18,76.69985009765625,-266.5846374511719,138.08203735351563,-131.34275512695314,1.6886862792265367e+18,76.70253645833333,-0.6567204594612122,0.7479860583941141,-0.026346044614911,0.0924177492658297,2.430621941884359,1.4112859964370728,0.5422787268956503
1.75,1.6886862792784494e+18,76.75444946289063,0.1598330338795979,0.0071805318196614,-0.1256202459335327,1.688686279269793e+18,76.74579321289063,-1.0131609837214153,-9.704690297444662,-1.0927223364512126,1.6886862792784494e+18,76.75444946289063,-1.197982629140218,-9.683000564575195,-1.0200188159942627,1.6886862792741263e+18,76.75012638346355,0.0090102622440705,0.0011199194317062,-0.0211766610542933,1.6886862792741263e+18,76.75012638346355,0.0080430591478943,0.0057014087215065,-0.0186822948356469,,,,,,,,,,,,1.6886862792738458e+18,76.74984570312499,-10.616439819335938,43.17335891723633,1.76167995929718,1.6886862792738458e+18,76.74984570312499,-265.9624267578125,138.19916076660155,-130.9621154785156,1.6886862792784494e+18,76.75444946289063,-0.6560400724411011,0.748579184214274,-0.0262680122007925,0.0924698064724603,2.4362776279449463,1.4097115993499756,0.5366491675376892
1.8,1.6886862793303654e+18,76.80636539713542,0.0118721326192219,0.0177218119303385,-0.1047194798787434,1.688686279321712e+18,76.79771215820313,-1.1517452796300252,-9.702895800272625,-1.069591760635376,1.6886862793303654e+18,76.80636539713542,-1.182225187619527,-9.68397013346354,-1.029154896736145,1.688686279326037e+18,76.80203694661458,0.0117591560507813,-0.0480547336240609,0.0301360177497068,1.688686279326037e+18,76.80203694661458,0.0106901417796809,-0.0434732437133788,0.0326812900602817,,,,,,,,,,,,1.6886862793238502e+18,76.79985004882812,-10.584719848632812,43.16115875244141,1.344439959526062,1.6886862793238502e+18,76.79985004882812,-265.930712890625,138.18695678710938,-131.37935791015624,1.6886862793303654e+18,76.80636539713542,-0.6565301219622294,0.7480364441871643,-0.02644178767999,0.0933292557795841,2.4253200689951577,1.4103282690048218,0.5461391011873881
1.85,1.6886862793736248e+18,76.849625,-0.0634864568710326,0.055884838104248,-0.0718138813972473,1.6886862793736274e+18,76.84962752278646,-1.2299108505249023,-9.648658434549969,-1.0520443518956502,1.6886862793736248e+18,76.849625,-1.174663245677948,-9.683847904205322,-1.03892982006073,1.6886862793779515e+18,76.85395166015626,0.020667607585589,-0.0255545291583985,0.0074830991992105,1.6886862793779515e+18,76.85395166015626,0.0197513094171881,-0.0209730396357675,0.0099774658059079,,,,,,,,,,,,1.6886862793738473e+18,76.84984741210937,-11.277679824829102,43.12943954467774,1.5713599920272827,1.6886862793738473e+18,76.84984741210937,-266.62367553710936,138.15523681640624,-131.15243835449218,1.6886862793736248e+18,76.849625,-0.6566728353500366,0.7477645576000214,-0.026841077953577,0.0943851359188556,2.4174548387527466,1.4102501273155212,0.5519322454929352
1.9,1.6886862794168886e+18,76.89288850911458,-0.1041068236033121,-0.0142377217610676,-0.0273936589558918,1.688686279425539e+18,76.90153906249999,-1.261615753173828,-9.727023442586264,-1.0111669898033142,1.6886862794168886e+18,76.89288850911458,-1.1777118841807048,-9.68231995900472,-1.0496511459350586,1.6886862794298696e+18,76.90586946614583,0.029474248488744,-0.0014762576514234,-0.0266744485124944,1.6886862794298696e+18,76.90586946614583,0.0284561390678087,0.0031052315607666,-0.0241800829147298,,,,,,,,,,,,1.6886862794238487e+18,76.89984858398438,-11.26547966003418,43.24899978637696,1.393239951133728,1.6886862794238487e+18,76.89984858398438,-266.611474609375,138.27479553222656,-131.33055725097657,1.6886862794168886e+18,76.89288850911458,-0.6565011938412985,0.7478821277618408,-0.0264547032614548,0.0947556644678115,2.4136435985565186,1.4092797835667927,0.5557591517766317
1.95,1.6886862794688072e+18,76.94480704752604,0.0720203320185342,0.0341269175211588,0.0471372604370116,1.688686279477456e+18,76.95345621744792,-1.11425777276357,-9.655837059020996,-0.9507482051849364,1.6886862794688072e+18,76.94480704752604,-1.1903294722239175,-9.679039319356283,-1.0655579169591267,1.6886862794731318e+18,76.94913171386719,0.0342848114669322,0.0220675060991197,-0.0113773650373331,1.6886862794731318e+18,76.94913171386719,0.0332157975062727,0.0266489968635141,-0.0089339041733183,1.688686279454e+18,76.93000024414063,0.0,0.4601760804653168,0.9339768290519714,9.986000061035156,0.0129066715016961,0.0,40.20000076293945,-122.7531714,49.1902077,1.68868627947385e+18,76.94985014648438,-11.21911964416504,43.16847915649414,1.5347599744796754,1.68868627947385e+18,76.94985014648438,-266.56511840820315,138.19427795410155,-131.1890380859375,1.6886862794688072e+18,76.94480704752604,-0.6559397180875143,0.7483324011166891,-0.0258696849147478,0.0952494045098622,2.4114678700764975,1.4072133700052898,0.558050254980723
2.0,1.688686279520713e+18,76.99671313476563,-0.0694764455159504,0.0200064977010091,0.0864283045132954,1.6886862795293706e+18,77.00537052408855,-1.2671989997227986,-9.673185030619305,-0.9182456930478414,1.688686279520713e+18,76.99671313476563,-1.182830770810445,-9.678877194722494,-1.0753374894460042,1.6886862795163935e+18,76.99239371744791,0.020667607585589,0.0529925599694251,0.0352774678419033,1.6886862795163935e+18,76.99239371744791,0.0196494987855354,0.0574722376962502,0.0377718346814314,,,,,,,,,,,,1.6886862795238497e+18,76.99984970703125,-10.875079727172851,42.88055953979492,1.4908399820327758,1.6886862795238497e+18,76.99984970703125,-266.2210693359375,137.90635681152344,-131.2329528808594,1.688686279520713e+18,76.99671313476563,-0.6562948028246561,0.7481209437052408,-0.0245632287114857,0.0948085909088451,2.403773784637451,1.4071111679077148,0.5682318210601807
2.05,1.6886862795726344e+18,77.04863411458334,-0.2213351329167683,0.0257190068562824,0.0421589215596516,1.688686279581281e+18,77.05728100585938,-1.414955774943034,-9.680164019266764,-0.9846465190251668,1.6886862795726344e+18,77.04863411458334,-1.1803240776062012,-9.679205894470217,-1.0751359065373738,1.6886862795683116e+18,77.04431184895833,-0.0031561371094236,0.0116573454191287,-0.0068213287740945,1.6886862795683116e+18,77.04431184895833,-0.0041233402055998,0.0161879292378822,-0.0042760570844014,,,,,,,,,,,,1.68868627957385e+18,77.04984985351561,-11.311839866638184,43.26607971191406,1.476199984550476,1.68868627957385e+18,77.04984985351561,-266.6578430175781,138.29187622070313,-131.24759826660156,1.6886862795726344e+18,77.04863411458334,-0.6564721067746481,0.7480558156967163,-0.023932489256064,0.0942555144429206,2.4028103351593018,1.4073177178700764,0.5708824793497721
2.1,1.688686279624549e+18,77.10054899088541,-0.0388210614522298,0.0343430836995442,0.0400480230649311,1.6886862796245468e+18,77.10054699707031,-1.197308599948883,-9.645767211914062,-0.9640084207057952,1.688686279624549e+18,77.10054899088541,-1.1863675117492678,-9.67885653177897,-1.0716292063395183,1.6886862796202222e+18,77.09622249348958,-0.0125227378060419,-0.0571159006406863,-0.0145589549404878,1.6886862796202222e+18,77.09622249348958,-0.0134390353535611,-0.0525344094882408,-0.0121154938824474,,,,,,,,,,,,1.6886862796238487e+18,77.09984877929688,-11.292319869995117,43.1635986328125,1.4688799381256104,1.6886862796238487e+18,77.09984877929688,-266.6383117675781,138.18939819335938,-131.25491943359376,1.688686279624549e+18,77.10054899088541,-0.6561367313067118,0.7482252915700277,-0.0250394878288109,0.0949552680055299,2.4069772561391196,1.4070995251337688,0.5641418298085531
2.15,1.6886862796764618e+18,77.15246166992188,0.0274809996287027,-0.0566393534342447,0.0029329856236776,1.6886862796678085e+18,77.14380826822917,-1.151745319366455,-9.738588651021322,-0.985045313835144,1.6886862796764618e+18,77.15246166992188,-1.2058101097742715,-9.676807403564451,-1.06841246287028,1.6886862796721367e+18,77.1481366373698,-0.001272635878801,0.0266235430414477,-0.0456621771057446,1.6886862796721367e+18,77.1481366373698,-0.0023416501353494,0.0312050326416889,-0.0431678108870982,,,,,,,,,,,,1.6886862796738522e+18,77.14985200195312,-10.596919822692872,43.23679962158203,1.556719970703125,1.6886862796738522e+18,77.14985200195312,-265.9429138183594,138.2625946044922,-131.16707763671874,1.6886862796764618e+18,77.15246166992188,-0.6554134090741476,0.7488829493522644,-0.0251594614237546,0.0947338243325551,2.4165383179982505,1.4058234294255574,0.554715613524119
2.2,1.6886862797283704e+18,77.20437052408853,0.1118065516153971,-0.0050306320190429,0.0102341969807942,1.6886862797197238e+18,77.19572379557292,-1.1170493761698406,-9.700104077657064,-1.01176518201828,1.6886862797283704e+18,77.20437052408853,-1.2093778848648071,-9.676173210144045,-1.070130427678426,1.6886862797240532e+18,77.20005322265625,0.0008653923917639,-0.0491237466533978,0.0104865198954939,1.6886862797240532e+18,77.20005322265625,-0.0001018109226909,-0.0445931628346442,0.0129299812639753,,,,,,,,,,,,1.6886862797238472e+18,77.19984702148437,-10.71891975402832,43.51007843017578,1.3224799633026123,1.6886862797238472e+18,77.19984702148437,-266.0649108886719,138.53587646484374,-131.401318359375,1.6886862797283704e+18,77.20437052408853,-0.6552071968714396,0.748990019162496,-0.0255816591282685,0.0951996594667434,2.4172110557556152,1.405430277188619,0.5527758797009786
2.25,1.6886862797802885e+18,77.25628857421874,-0.0464680194854736,0.0003433227539062,0.0283317963282266,1.6886862797716375e+18,77.24763745117188,-1.1856436332066853,-9.696913719177246,-0.9770692388216654,1.6886862797802885e+18,77.25628857421874,-1.1894882520039876,-9.678157170613607,-1.0744693676630657,1.688686279775962e+18,77.25196207682292,0.0095702221927542,0.0037670020634928,0.0392480914791424,1.688686279775962e+18,77.25196207682292,0.0085521135479211,0.0083484919741749,0.0417424589395522,,,,,,,,,,,,1.688686279773848e+18,77.24984799804687,-10.955599594116212,43.26607894897461,1.6421199560165405,1.688686279773848e+18,77.24984799804687,-266.3015930175781,138.29187622070313,-131.08168029785156,1.6886862797802885e+18,77.25628857421874,-0.6559068163235983,0.7483092149098715,-0.0256944385667641,0.0957044288516044,2.406961758931478,1.4066630204518635,0.5621538360913595
2.3,1.6886862798235525e+18,77.29955249023438,-0.1395072937011718,0.0530829429626464,0.0259677767753601,1.6886862798235476e+18,77.29954785156251,-1.313260833422343,-9.65523878733317,-0.9886345664660136,1.6886862798235525e+18,77.29955249023438,-1.1829894185066223,-9.678653240203856,-1.0771900415420532,1.6886862798278802e+18,77.30388037109374,0.0040724349673836,-0.011810061133777,0.0018835011530124,1.6886862798278802e+18,77.30388037109374,0.0031561371094236,-0.007228571960392,0.0043778674832234,,,,,,,,,,,,1.688686279823846e+18,77.29984619140626,-10.857999992370605,43.246559143066406,1.4542399406433106,1.688686279823846e+18,77.29984619140626,-266.20399780273436,138.27235412597656,-131.26955871582032,1.6886862798235525e+18,77.29955249023438,-0.656146377325058,0.7480930089950562,-0.0255433479323982,0.0957932285964488,2.4029802083969116,1.4069721698760986,0.5662261545658112
2.35,1.6886862798668145e+18,77.34281429036459,-0.0012605985005696,0.0016117095947265,0.0686620871225992,1.6886862798754665e+18,77.35146663411457,-1.1603196064631145,-9.705288569132486,-0.945164958635966,1.6886862798668145e+18,77.34281429036459,-1.1872380177179973,-9.678029696146648,-1.078109661738078,1.6886862798797888e+18,77.35578873697916,0.0009162978967651,0.0186822957669694,-0.0203112695987025,1.6886862798797888e+18,77.35578873697916,-5.090547104676666e-05,0.0232128798961638,-0.0178678088511029,,,,,,,,,,,,1.688686279873849e+18,77.34984926757812,-10.992199897766112,43.19043884277344,1.4078799724578857,1.688686279873849e+18,77.34984926757812,-266.33818969726565,138.21623840332032,-131.31591796875,1.6886862798668145e+18,77.34281429036459,-0.6559686660766602,0.7482357621192932,-0.025599306449294,0.0958806946873664,2.404337247212728,1.4065839052200315,0.5646625558535258
2.4,1.6886862799187244e+18,77.39472460937499,0.0889022747675577,-0.0120105743408202,0.0054863293965657,1.6886862799273812e+18,77.40338134765625,-1.0833504597345989,-9.700303713480633,-1.0209376414616902,1.6886862799187244e+18,77.39472460937499,-1.195646087328593,-9.67716916402181,-1.0765490929285686,1.6886862799230513e+18,77.39905126953124,0.0011453724000603,0.0138971838168799,0.0008399398066103,1.6886862799230513e+18,77.39905126953124,0.0001527164131402,0.0184023156762122,0.0032834005542099,1.688686279923006e+18,77.399005859375,0.0,0.4275752902030945,0.9395712614059448,9.975000381469728,0.021191431209445,0.0,40.20000076293945,-122.7531708,49.1902078,1.688686279923846e+18,77.39984580078125,-11.165439796447751,43.1001594543457,1.654319977760315,1.688686279923846e+18,77.39984580078125,-266.5114379882813,138.12595825195314,-131.06947631835936,1.6886862799187244e+18,77.39472460937499,-0.6557014981905619,0.7485320170720419,-0.0253079055498043,0.0954720030228296,2.4085706869761148,1.406047224998474,0.5614221890767416
2.45,1.6886862799706437e+18,77.44664371744791,0.1050537824630736,-0.0012356440226237,-0.0204042593638101,1.6886862799792955e+18,77.45529549153646,-1.0979067881902058,-9.698509216308594,-1.0402796268463137,1.6886862799706437e+18,77.44664371744791,-1.1832831700642903,-9.678373018900553,-1.0793723265329995,1.6886862799663186e+18,77.44231868489584,0.009519316566487,0.018580484514435,0.0324267627050478,1.6886862799663186e+18,77.44231868489584,0.0084503026058275,0.0231110680227477,0.0349211295445759,,,,,,,,,,,,1.6886862799738496e+18,77.4498494140625,-10.953159713745118,43.28071823120117,1.5835599660873414,1.6886862799738496e+18,77.4498494140625,-266.2991577148438,138.3065185546875,-131.14024047851564,1.6886862799706437e+18,77.44664371744791,-0.6562004685401917,0.7481261293093363,-0.0248621776700019,0.0953420475125312,2.402094602584839,1.4067973295847576,0.5687237779299418
2.5,1.6886862800225554e+18,77.49855525716146,-0.0424348513285318,0.0551344553629557,-0.0436510245005289,1.688686280031207e+18,77.50720670572916,-1.2015957832336426,-9.637491861979166,-1.069192926088969,1.6886862800225554e+18,77.49855525716146,-1.1681973536809285,-9.679907162984213,-1.0820478200912476,1.6886862800182285e+18,77.49422851562501,0.0039706241029004,0.0071267609794934,0.0290670047203699,1.6886862800182285e+18,77.49422851562501,0.002952515380457,0.0117082508125652,0.031510464226206,,,,,,,,,,,,1.6886862800238502e+18,77.4998501953125,-11.277679634094238,43.02695846557617,1.6079599618911744,1.6886862800238502e+18,77.4998501953125,-266.62367553710936,138.0527587890625,-131.11583862304687,1.6886862800225554e+18,77.49855525716146,-0.6568086942036947,0.7476279139518738,-0.024381819491585,0.0951862707734107,2.3944698174794516,1.4077579975128174,0.5772613485654196
2.55,1.6886862800744722e+18,77.55047200520833,-0.0488274892171223,0.031270662943522,-0.0281651020050048,1.6886862800744724e+18,77.55047241210937,-1.222732424736023,-9.6670036315918,-1.038485050201416,1.6886862800744722e+18,77.55047200520833,-1.1693820158640544,-9.679971694946287,-1.0801857709884644,1.688686280070148e+18,77.54614803059896,-0.010639236619075,-0.0235183124120036,-0.0181223354302346,1.688686280070148e+18,77.54614803059896,-0.0116573451086878,-0.0189877282828092,-0.0155261582694947,,,,,,,,,,,,1.688686280073848e+18,77.549848046875,-10.909239768981934,43.16360015869141,1.720199990272522,1.688686280073848e+18,77.549848046875,-266.25523681640624,138.18939514160155,-131.00359802246095,1.6886862800744722e+18,77.55047200520833,-0.6567350228627523,0.7476560473442078,-0.0247510919968286,0.0953776960571606,2.3958330949147544,1.4077985286712646,0.5750994086265564
2.6,1.6886862801263862e+18,77.60238631184896,0.102773626645406,-0.0354226430257161,-0.0256741046905517,1.6886862801177352e+18,77.59373502604167,-1.1118649244308472,-9.72582721710205,-1.0247263312339785,1.6886862801263862e+18,77.60238631184896,-1.1790090004603069,-9.679280916849772,-1.0758970975875854,1.6886862801220662e+18,77.59806616210938,-0.0134390350431203,-0.0384336039423942,-0.0264708269387483,1.6886862801220662e+18,77.59806616210938,-0.0144062383721271,-0.0338521152734756,-0.0240273661911487,,,,,,,,,,,,1.6886862801238502e+18,77.59985043945314,-11.041000175476077,43.14164047241211,1.8031599521636963,1.6886862801238502e+18,77.59985043945314,-266.3869873046875,138.1674346923828,-130.92063903808594,1.6886862801263862e+18,77.60238631184896,-0.6562855243682861,0.7479509313901266,-0.0257365523527065,0.0958976944287617,2.401899576187134,1.407365600268046,0.5668862263361613
2.65,1.6886862801783e+18,77.65429980468751,0.0682511329650878,-0.0039043426513671,-0.0025283098220825,1.6886862801696438e+18,77.64564371744791,-1.0721839269002278,-9.706684430440268,-1.0372885862986247,1.6886862801783e+18,77.65429980468751,-1.1799800395965576,-9.678894678751629,-1.0783051252365112,1.6886862801739766e+18,77.6499765625,0.0113010072770217,-0.0012726359224567,0.0156788751482963,1.6886862801739766e+18,77.6499765625,0.0103847092638412,0.0033088534886094,0.0181732413669427,,,,,,,,,,,,1.68868628017385e+18,77.64984995117189,-11.092239952087402,43.37343902587891,1.33711998462677,1.68868628017385e+18,77.64984995117189,-266.4382385253906,138.39923706054688,-131.3866760253906,1.6886862801783e+18,77.65429980468751,-0.6562057336171468,0.7479792634646097,-0.0258819671968618,0.0961830665667851,2.40119735399882,1.4071227312088013,0.5669729312260946
2.7,1.6886862802302188e+18,77.70621866861978,-0.1034310261408487,0.0473276774088541,0.0393712917963663,1.688686280221553e+18,77.69755305989582,-1.241675575574239,-9.660223960876465,-0.9659027258555094,1.6886862802302188e+18,77.70621866861978,-1.1632330814997356,-9.680475552876793,-1.082318385442098,1.6886862802258852e+18,77.70188525390626,0.0009162978191549,-0.0211766619856158,0.0255036239201823,1.6886862802258852e+18,77.70188525390626,-5.09054710467668e-05,-0.0165951730062563,0.0279470852886636,,,,,,,,,,,,1.6886862802238395e+18,77.69983974609374,-11.02391986846924,43.19287948608398,1.703119945526123,1.6886862802238395e+18,77.69983974609374,-266.3699096679687,138.2186767578125,-131.0206756591797,1.6886862802302188e+18,77.70621866861978,-0.6568015217781067,0.7474083304405212,-0.0258849523961543,0.0965535094340641,2.392224629720052,1.4081144332885742,0.5754210154215494
2.75,1.688686280273472e+18,77.74947192382812,-0.1141095757484436,0.0507349967956542,-0.0446407794952392,1.6886862802734776e+18,77.74947753906251,-1.2729816436767578,-9.656235694885254,-1.0522437890370686,1.688686280273472e+18,77.74947192382812,-1.1623253226280212,-9.680792331695557,-1.0804598927497864,1.6886862802777997e+18,77.7537997233073,-0.0108428578823804,-0.03441207545499,-0.015118914656341,1.6886862802777997e+18,77.7537997233073,-0.0119118724639216,-0.0298305861651896,-0.0126245483697857,,,,,,,,,,,,1.6886862802738522e+18,77.74985224609375,-11.128839683532714,43.30267868041992,1.205359959602356,1.6886862802738522e+18,77.74985224609375,-266.47483520507814,138.32847900390624,-131.5184356689453,1.688686280273472e+18,77.74947192382812,-0.656768262386322,0.7473537921905518,-0.0265527088195084,0.0970193929970264,2.3926916122436523,1.4083141088485718,0.5733408331871033
2.8,1.6886862803167386e+18,77.79273844401041,-0.0143515666325887,0.0161403020222981,0.0501946608225504,1.6886862803253916e+18,77.80139152018229,-1.1617153485616047,-9.685946782430014,-0.960718274116516,1.6886862803167386e+18,77.79273844401041,-1.1739476521809895,-9.67959721883138,-1.0785853862762451,1.6886862803297196e+18,77.80571940104166,-0.0046833002318938,-0.0010690141595356,-0.0359392377237478,1.6886862803297196e+18,77.80571940104166,-0.0056505034056801,0.0035124752078748,-0.0333939654131729,,,,,,,,,,,,1.6886862803238497e+18,77.79984965820313,-11.141039848327638,43.26851959228516,1.4542399883270265,1.6886862803238497e+18,77.79984965820313,-266.4870361328125,138.29432067871093,-131.2695556640625,1.6886862803167386e+18,77.79273844401041,-0.6562931736310323,0.7477351824442545,-0.0269600631048281,0.097182718416055,2.398509422938029,1.4075636863708496,0.5667040944099426
2.85,1.6886862803686513e+18,77.84465120442708,0.100560426712036,-0.03169314066569,-0.0198523600896199,1.6886862803773018e+18,77.8533017578125,-1.0799606243769329,-9.725826899210611,-1.024526874224345,1.6886862803686513e+18,77.84465120442708,-1.1881616910298665,-9.678224563598633,-1.0753380060195925,1.6886862803816294e+18,77.85762955729166,-0.0059559360767403,-0.0292197205126285,-0.0009162980131804,1.6886862803816294e+18,77.85762955729166,-0.0069740447215735,-0.0246891370043157,0.0015780689039578,,,,,,,,,,,,1.68868628037385e+18,77.84984995117188,-10.660359954833984,43.15871963500977,1.3224799633026123,1.68868628037385e+18,77.84984995117188,-266.00635986328126,138.18451538085938,-131.401318359375,1.6886862803686513e+18,77.84465120442708,-0.6557374795277914,0.7482059995333353,-0.027332227056225,0.0972065652410188,2.4060068130493164,1.4067051410675049,0.5586368640263876
2.9,1.6886862804205647e+18,77.8965645345052,0.0037599007288614,0.0064605077107747,0.0674813787142435,1.6886862804292216e+18,77.90522151692709,-1.197009523709615,-9.684351285298666,-0.9465607603391012,1.6886862804205647e+18,77.8965645345052,-1.1747111479441326,-9.679887453715006,-1.07513431708018,1.6886862804248945e+18,77.90089440917968,-0.0001527162967249,-0.0100029179593547,0.045280385762453,1.6886862804248945e+18,77.90089440917968,-0.0010690141280065,-0.0055741453543305,0.0477238483726977,,,,,,,,,,,,1.688686280423848e+18,77.89984794921875,-10.977559661865234,43.153839111328125,1.466439962387085,1.688686280423848e+18,77.89984794921875,-266.3235595703125,138.17963562011718,-131.25735778808593,1.6886862804205647e+18,77.8965645345052,-0.6561907331148783,0.7477308511734009,-0.0277902632951736,0.0976729691028594,2.4004270235697427,1.4077468315760295,0.5629074176152548
2.95,1.6886862804724828e+18,77.94848274739583,-0.1125048796335855,0.0437695185343424,-0.0610339641571044,1.6886862804811374e+18,77.95713720703124,-1.2506486177444458,-9.66102123260498,-1.0907283226648967,1.6886862804724828e+18,77.94848274739583,-1.16951318581899,-9.68090534210205,-1.0716439882914226,1.6886862804681585e+18,77.94415861002604,-0.0126754539087414,-0.0241800827595094,-0.0096720329796274,1.6886862804681585e+18,77.94415861002604,-0.0136935630192358,-0.0196494993385081,-0.0072285722320278,,,,,,,,,,,,1.6886862804738486e+18,77.94984848632812,-11.189839744567871,43.0562385559082,1.151679992675781,1.6886862804738486e+18,77.94984848632812,-266.53583984375,138.08203735351563,-131.57211303710938,1.6886862804724828e+18,77.94848274739583,-0.6563714543978373,0.74753870566686,-0.0281875940660635,0.0978155533472696,2.399844249089559,1.4083867867787678,0.5627258817354838
3.0,1.6886862805243968e+18,78.00039680989583,0.0833327770233154,-0.0267279942830403,-0.0394288698832194,1.6886862805243963e+18,78.00039660644532,-1.0839486718177795,-9.741479873657228,-1.0474581122398376,1.6886862805243968e+18,78.00039680989583,-1.1771154801050825,-9.679799715677898,-1.0733089049657183,1.688686280520072e+18,77.99607177734374,0.0045814891539824,-0.0174096589908003,-0.0171551322564482,1.688686280520072e+18,77.99607177734374,0.0036651915094504,-0.012828169701,-0.0147116715088486,,,,,,,,,,,,1.6886862805238472e+18,77.99984702148438,-11.18251953125,43.200199127197266,1.3249199867248536,1.6886862805238472e+18,77.99984702148438,-266.528515625,138.2259979248047,-131.3988800048828,1.6886862805243968e+18,78.00039680989583,-0.6559929649035136,0.7477766275405884,-0.0287449794510999,0.098372663060824,2.402298132578532,1.4076913197835286,0.5586791038513184
3.05,1.688686280576311e+18,78.05231095377604,0.0490198135375976,0.0269912083943684,0.0165615876515706,1.6886862805676593e+18,78.0436591796875,-1.1012966235478718,-9.678169886271158,-0.9892327586809794,1.688686280576311e+18,78.05231095377604,-1.178495446840922,-9.67928155263265,-1.0764578580856323,1.6886862805719867e+18,78.04798673502604,0.0050905438450474,-0.0005090545552472,0.0057014085662861,1.6886862805719867e+18,78.04798673502604,0.0040724348897734,0.0040724352002143,0.0081957757162551,,,,,,,,,,,,1.6886862805738486e+18,78.04984858398437,-11.02147979736328,43.170919799804686,1.278559970855713,1.6886862805738486e+18,78.04984858398437,-266.3674743652344,138.19671630859375,-131.4452362060547,1.688686280576311e+18,78.05231095377604,-0.6559293667475382,0.7478299736976624,-0.0285850763320922,0.0984376097718874,2.4014240900675454,1.407366196314494,0.559685488541921
3.1,1.6886862806282222e+18,78.10422216796876,-0.0399111906687418,-0.005043347676595,0.0279843807220458,1.6886862806195732e+18,78.0955733235677,-1.2043873866399128,-9.70329443613688,-0.9962118268013,1.6886862806282222e+18,78.10422216796876,-1.1641407410303752,-9.68074639638265,-1.078907569249471,1.6886862806239014e+18,78.09990128580729,0.0006108652645101,-0.0419460795819759,0.0276416533937056,1.6886862806239014e+18,78.09990128580729,-0.000407243487037,-0.0374154957632223,0.0301360189914702,,,,,,,,,,,,1.688686280623853e+18,78.09985312500001,-11.043439865112305,43.16847915649414,1.3664000034332275,1.688686280623853e+18,78.09985312500001,-266.3894348144531,138.19427795410155,-131.3573974609375,1.6886862806282222e+18,78.10422216796876,-0.6563864151636759,0.7473224401473999,-0.0290577920774618,0.0991042430202165,2.394184112548828,1.4082856973012288,0.5653090675671896
3.15,1.6886862806801395e+18,78.15613948567709,-0.0506951411565144,0.0338207880655924,-0.0248479843139648,1.688686280671485e+18,78.14748494466146,-1.1856435934702556,-9.6554381052653,-1.0181460579236348,1.6886862806801395e+18,78.15613948567709,-1.161332885424296,-9.680926640828451,-1.0803124904632568,1.6886862806758134e+18,78.15181323242187,0.0012217304562606,-0.001934406425183,-0.0045305837508445,1.6886862806758134e+18,78.15181323242187,0.0002545271854614,0.0026470826123841,-0.0020871228383233,,,,,,,,,,,,1.6886862806738478e+18,78.14984770507813,-11.28011989593506,42.91959991455078,1.6445599794387815,1.6886862806738478e+18,78.14984770507813,-266.62611694335936,137.94539794921874,-131.07923583984376,1.6886862806801395e+18,78.15613948567709,-0.6564481457074484,0.7472178141276041,-0.0292861815541982,0.099416896700859,2.392334540685018,1.4083993037541709,0.5663886268933614
3.2,1.688686280723404e+18,78.19940405273437,-0.026620864868164,0.0096755027770995,-0.0664232373237609,1.6886862807234025e+18,78.1994024251302,-1.1786645650863647,-9.69491990407308,-1.0775677760442095,1.688686280723404e+18,78.19940405273437,-1.161279559135437,-9.680410385131836,-1.0849984288215635,1.6886862807277302e+18,78.20373022460937,0.0119627776245275,-0.0496328013638655,-0.0009672033096042,1.6886862807277302e+18,78.20373022460937,0.0109955744507411,-0.0451022175451119,0.0015780685547118,,,,,,,,,,,,1.6886862807238508e+18,78.19985068359375,-11.006839752197266,42.943999481201175,1.4761999607086185,1.6886862807238508e+18,78.19985068359375,-266.35283813476565,137.9697998046875,-131.24759521484376,1.688686280723404e+18,78.19940405273437,-0.6563660502433777,0.7472056150436401,-0.0295537430793046,0.0999699905514716,2.3901554346084595,1.4080737233161926,0.5673962831497192
3.25,1.688686280766663e+18,78.24266300455729,0.1019156376520791,-0.0418211619059244,0.0770315527915954,1.6886862807753132e+18,78.25131306966146,-1.0500503381093342,-9.734401067097982,-0.934995452562968,1.688686280766663e+18,78.24266300455729,-1.159207820892334,-9.679661432902018,-1.093856970469157,1.6886862807796408e+18,78.25564078776041,0.0254527181386946,0.0188350118696689,0.0109446687468637,1.6886862807796408e+18,78.25564078776041,0.0245364209016163,0.0234165005385875,0.0134390353535611,,,,,,,,,,,,1.688686280773848e+18,78.249848046875,-11.206919860839845,43.28315963745117,1.2907599687576294,1.688686280773848e+18,78.249848046875,-266.55291137695315,138.3089569091797,-131.43303527832032,1.688686280766663e+18,78.24266300455729,-0.656325101852417,0.7471270362536112,-0.0297576940308014,0.1007624690731366,2.385209321975708,1.4076021512349446,0.5709186792373657
