seconds_elapsed_rounded,accelerometer_time,accelerometer_seconds_elapsed,accelerometer_z,accelerometer_y,accelerometer_x,accelerometeruncalibrated_time,accelerometeruncalibrated_seconds_elapsed,accelerometeruncalibrated_z,accelerometeruncalibrated_y,accelerometeruncalibrated_x,gravity_time,gravity_seconds_elapsed,gravity_z,gravity_y,gravity_x,gyroscope_time,gyroscope_seconds_elapsed,gyroscope_z,gyroscope_y,gyroscope_x,gyroscopeuncalibrated_time,gyroscopeuncalibrated_seconds_elapsed,gyroscopeuncalibrated_z,gyroscopeuncalibrated_y,gyroscopeuncalibrated_x,location_time,location_seconds_elapsed,location_bearingAccuracy,location_speedAccuracy,location_verticalAccuracy,location_horizontalAccuracy,location_speed,location_bearing,location_altitude,location_longitude,location_latitude,magnetometer_time,magnetometer_seconds_elapsed,magnetometer_z,magnetometer_y,magnetometer_x,magnetometeruncalibrated_time,magnetometeruncalibrated_seconds_elapsed,magnetometeruncalibrated_z,magnetometeruncalibrated_y,magnetometeruncalibrated_x,orientation_time,orientation_seconds_elapsed,orientation_qz,orientation_qy,orientation_qx,orientation_qw,orientation_roll,orientation_pitch,orientation_yaw
0.0,1.6886862475240174e+18,45.00001741536459,-0.0830456813176472,0.066023826599121,0.0955296953519185,1.688686247524021e+18,45.000020996093745,-0.8718847334384918,-9.661619186401367,-0.9358927607536316,1.6886862475240174e+18,45.00001741536459,-0.7913949489593506,-9.716519991556805,-1.0950071811676023,1.6886862475196948e+18,44.99569498697917,0.0201076474040746,0.0164933614432811,-0.0086539244900147,1.6886862475196948e+18,44.99569498697917,0.0190386337538559,0.0210239455724755,-0.0063631795346736,,,,,,,,,,,,1.6886862475238523e+18,44.99985239257812,-13.33947982788086,42.02655944824219,2.762079954147339,1.6886862475238523e+18,44.99985239257812,-268.6854736328125,137.05235595703124,-129.9617156982422,1.6886862475240174e+18,45.00001741536459,-0.674261192480723,0.7350536187489828,0.005385521488885,0.0709860200683275,2.1965829531351724,1.4326410293579102,0.8519817193349203
0.05,1.6886862475759322e+18,45.05193212890625,0.0793580611546833,-0.0340372721354166,0.0560384591420491,1.6886862475672837e+18,45.04328336588542,-0.7278168996175131,-9.742975552876793,-0.9764710466066996,1.6886862475759322e+18,45.05193212890625,-0.7984646360079447,-9.715561230977375,-1.098387360572815,1.6886862475716114e+18,45.04761132812501,0.002952515380457,0.0088066404374936,-0.0047342055477201,1.6886862475716114e+18,45.04761132812501,0.0018835012742783,0.0133372247219085,-0.0024434610580404,,,,,,,,,,,,1.6886862475738504e+18,45.04985029296875,-13.136959648132324,42.25835952758789,2.7157199382781982,1.6886862475738504e+18,45.04985029296875,-268.4829528808594,137.2841583251953,-130.0080780029297,1.6886862475759322e+18,45.05193212890625,-0.6740074555079142,0.73529581228892,0.0057566418933371,0.0708585878213246,2.1993451913197837,1.43193256855011,0.8499248623847961
0.1,1.6886862476278505e+18,45.1038505859375,0.1016328732172647,0.0196752548217773,0.0147137641906738,1.688686247619198e+18,45.09519791666667,-0.6658028960227966,-9.727222760518393,-0.9984052777290344,1.6886862476278505e+18,45.1038505859375,-0.7906297445297241,-9.716431935628256,-1.096344828605652,1.6886862476235256e+18,45.09952563476563,0.0013744468063425,0.0688241484264532,0.0226529197146494,1.6886862476235256e+18,45.09952563476563,0.0003054326225537,0.0733038273950417,0.0249436640491087,,,,,,,,,,,,1.6886862476238523e+18,45.09985239257812,-13.156479644775391,42.08755874633789,2.8962799549102782,1.6886862476238523e+18,45.09985239257812,-268.5024780273437,137.1133544921875,-129.8275177001953,1.6886862476278505e+18,45.1038505859375,-0.6743884682655334,0.7350179155667623,0.0065164398401975,0.0700434918204943,2.195547342300415,1.4325755039850872,0.8559601306915283
0.15,1.6886862476797652e+18,45.15576529947917,-0.0718835989634195,0.0166778564453124,-0.1186817487080891,1.6886862476711048e+18,45.14710498046875,-0.8388837377230326,-9.7176513671875,-1.1509476502736409,1.6886862476797652e+18,45.15576529947917,-0.7810216148694357,-9.716824531555176,-1.0997389952341716,1.688686247675441e+18,45.15144083658854,0.0158315907853344,0.0323249516853441,0.0306450743228196,1.688686247675441e+18,45.15144083658854,0.0147625771351158,0.0368046302658815,0.032935818657279,,,,,,,,,,,,1.68868624767385e+18,45.14984975585937,-12.997879791259766,42.124158477783205,2.727919960021973,1.68868624767385e+18,45.14984975585937,-268.3438781738281,137.14996032714845,-129.99588012695312,1.6886862476797652e+18,45.15576529947917,-0.6748432517051697,0.7346724271774292,0.0077695579578478,0.0691568180918693,2.1882954438527427,1.4328665335973103,0.8662493427594503
0.2,1.6886862477316774e+18,45.20767740885416,-0.0130375226338703,0.0144497553507486,0.0538546244303385,1.6886862477230244e+18,45.19902449544271,-0.7930213014284769,-9.712068557739258,-1.029312551021576,1.6886862477316774e+18,45.20767740885416,-0.7716722885767618,-9.715792973836264,-1.1153460741043089,1.6886862477273526e+18,45.203352457682286,0.0379754565656184,0.0305432627598444,0.0112501014179239,1.6886862477273526e+18,45.203352457682286,0.036906442294518,0.0350738465785979,0.0135408464508751,,,,,,,,,,,,1.6886862477238523e+18,45.19985249023438,-13.00519962310791,42.214440155029294,2.96215991973877,1.6886862477238523e+18,45.19985249023438,-268.3511962890625,137.2402374267578,-129.7616394042969,1.6886862477316774e+18,45.20767740885416,-0.6751760443051656,0.7343366543451945,0.0087632148837049,0.0693545664350191,2.1760154565175376,1.4321037530899048,0.8796555598576864
0.25,1.6886862477749414e+18,45.25094140625,0.0126614570617675,-0.1095719337463378,0.1540483832359313,1.6886862477749425e+18,45.25094270833333,-0.7563313643137614,-9.805787086486816,-0.9178468783696494,1.6886862477749414e+18,45.25094140625,-0.769853800535202,-9.714602947235107,-1.1269056797027588,1.688686247779271e+18,45.2552705078125,0.0273871247967083,0.0490219357113043,0.0234674063200751,1.688686247779271e+18,45.2552705078125,0.0263181111464897,0.0536034243802229,0.0258090567464629,,,,,,,,,,,,1.6886862477738524e+18,45.249852490234375,-12.949079513549805,42.1680793762207,3.0207199573516847,1.6886862477738524e+18,45.249852490234375,-268.2950744628906,137.19387512207032,-129.703076171875,1.6886862477749414e+18,45.25094140625,-0.6752813458442688,0.7342575490474701,0.0100330612622201,0.068995326757431,2.1700985431671143,1.4312303066253662,0.8878824710845947
0.3,1.6886862478182065e+18,45.294206705729174,-0.0540085633595784,0.0500793457031249,0.1628122131029764,1.6886862478268529e+18,45.30285294596354,-0.8161519169807434,-9.69073232014974,-0.8967102766036987,1.6886862478182065e+18,45.294206705729174,-0.7536324461301168,-9.715330759684244,-1.1315817832946775,1.6886862478311772e+18,45.30717732747396,0.0098247497032085,0.0611883352200189,0.0608829023937384,1.6886862478311772e+18,45.30717732747396,0.0088066402822732,0.0657698238889375,0.0633263637622197,,,,,,,,,,,,1.6886862478238543e+18,45.29985444335937,-13.422439765930177,42.11927871704101,3.125639963150024,1.6886862478238543e+18,45.29985444335937,-268.7684387207031,137.14507751464845,-129.59815673828126,1.6886862478182065e+18,45.294206705729174,-0.6759384075800577,0.7336816787719727,0.0109179752568403,0.0685499310493469,2.158292055130005,1.4317628542582197,0.9015776713689168
0.35,1.6886862478701176e+18,45.34611751302083,-0.1043711304664611,-0.0027955373128255,0.1976998051007588,1.688686247878773e+18,45.35477303059896,-0.8426723678906759,-9.745169003804524,-0.8781659205754598,1.6886862478701176e+18,45.34611751302083,-0.7347753842671713,-9.716892878214518,-1.1305770476659138,1.6886862478744484e+18,45.3504482421875,0.0152716310694813,0.2282345220446586,0.036499198526144,1.6886862478744484e+18,45.3504482421875,0.0142789748497306,0.2328160181641578,0.0390190184116363,,,,,,,,,,,,1.6886862478738504e+18,45.34985034179688,-13.088159561157228,42.033879089355466,3.350119972229004,1.6886862478738504e+18,45.34985034179688,-268.4341552734375,137.05967712402344,-129.37367553710936,1.6886862478701176e+18,45.34611751302083,-0.67687060435613,0.7329859932263693,0.0133176986128091,0.0663151616851488,2.1470793088277182,1.4329171975453694,0.919368306795756
0.4,1.6886862479220347e+18,45.39803466796875,-0.0840617020924886,-0.0587946573893228,0.0383759140968322,1.6886862479306836e+18,45.40668359375,-0.7830511927604675,-9.777471860249838,-1.067797104517619,1.6886862479220347e+18,45.39803466796875,-0.7335493961970011,-9.717124938964844,-1.1293788353602092,1.6886862479177093e+18,45.39370930989583,0.0209221349408228,0.2356412708759307,0.0374154957632223,1.6886862479177093e+18,45.39370930989583,0.0198531200488407,0.2402227520942688,0.0399607680737971,1.688686247922617e+18,45.3986171875,0.0,0.4662324786186218,0.9957798719406128,7.883999824523926,0.5483835339546204,168.290771484375,40.20000076293945,-122.7531549,49.1902247,1.68868624792385e+18,45.39985009765625,-13.183319664001464,42.06803817749024,3.7502799034118657,1.68868624792385e+18,45.39985009765625,-268.52931518554686,137.09383544921874,-128.97351989746093,1.6886862479220347e+18,45.39803466796875,-0.6773379445075989,0.7328422864278158,0.0180443326632181,0.0618675661583741,2.1468001206715903,1.433088978131612,0.9326605002085367
0.45,1.6886862479739494e+18,45.44994946289063,-0.0121094385782878,0.0487645467122395,-0.0755302508672078,1.6886862479739492e+18,45.44994921875001,-0.7013961374759674,-9.689735412597656,-1.127019464969635,1.6886862479739494e+18,45.44994946289063,-0.7085923353830973,-9.719001134236654,-1.1291317145029705,1.6886862479696243e+18,45.44562443033854,0.0057523141925532,0.1353066513935724,0.0797179167469342,1.6886862479696243e+18,45.44562443033854,0.0047342056253303,0.1398881375789642,0.0822631865739822,,,,,,,,,,,,1.6886862479738527e+18,45.44985249023438,-13.581039810180664,41.93871841430664,3.867399930953979,1.6886862479738527e+18,45.44985249023438,-268.9270324707031,136.9645202636719,-128.85639343261718,1.6886862479739494e+18,45.44994946289063,-0.6785247127215067,0.7318932016690572,0.0210827949146429,0.059084165841341,2.1311793327331543,1.434490958849589,0.956541935602824
0.5,1.6886862480258609e+18,45.50186059570313,-0.1129482587178547,0.0911865234374999,-0.2597908178965251,1.6886862480172122e+18,45.4932119140625,-0.8261220256487528,-9.648459116617838,-1.282951752344767,1.6886862480258609e+18,45.50186059570313,-0.6903059283892313,-9.720346450805664,-1.1289191246032717,1.6886862480215396e+18,45.497539632161455,0.0030543261673301,0.1208495100339253,0.0320704256494839,1.6886862480215396e+18,45.497539632161455,0.0020362175224969,0.1254309987028439,0.0345647912472486,,,,,,,,,,,,1.6886862480238505e+18,45.499850585937494,-13.659119796752927,41.9997200012207,3.7258798599243166,1.6886862480238505e+18,45.499850585937494,-269.00511474609374,137.0255157470703,-128.99791564941407,1.6886862480258609e+18,45.50186059570313,-0.6794225374857584,0.7311739524205526,0.0237695258110761,0.0566056904693444,2.119577725728353,1.4355018536249795,0.9754670659701028
0.55,1.6886862480777828e+18,45.55378271484375,0.2808489501476287,0.0540046691894531,-0.3566222588221232,1.688686248069126e+18,45.54512573242187,-0.4384847482045491,-9.68494955698649,-1.4358930190404255,1.6886862480777828e+18,45.55378271484375,-0.6916802326838175,-9.720053990681969,-1.1305921872456868,1.6886862480734538e+18,45.54945393880208,0.0011199195190177,0.0419969875365495,-0.000356337831666,1.6886862480734538e+18,45.54945393880208,0.0001527163549326,0.0465784762054681,0.0021889340132475,,,,,,,,,,,,1.6886862480738573e+18,45.5498572265625,-14.11783962249756,41.777678680419925,3.4623600006103517,1.6886862480738573e+18,45.5498572265625,-269.4638366699219,136.80347900390626,-129.26143798828124,1.6886862480777828e+18,45.55378271484375,-0.6794426043828329,0.7311870257059733,0.0248241871595382,0.055740687996149,2.1198057333628335,1.4352818330128987,0.9779613415400188
0.6,1.6886862481296916e+18,45.6056914876302,0.0362876653671264,0.0256471633911133,-0.2341742118199666,1.688686248121041e+18,45.59704109700521,-0.5962116420269012,-9.717252731323242,-1.29810627301534,1.6886862481296916e+18,45.6056914876302,-0.6798209150632223,-9.720609664916992,-1.133000334103902,1.688686248125369e+18,45.60136930338541,0.0004072434579332,0.0297796813150246,0.0303396396338939,1.688686248125369e+18,45.60136930338541,-0.0005599597158531,0.0343611699839432,0.0328849119444687,,,,,,,,,,,,1.6886862481238515e+18,45.59985151367188,-13.859199714660644,41.97775955200195,3.784439897537231,1.6886862481238515e+18,45.59985151367188,-269.2052001953125,137.00355834960936,-128.93935852050782,1.6886862481296916e+18,45.6056914876302,-0.6799528201421102,0.7307368318239847,0.0258925333619117,0.0549316157897313,2.1111998558044434,1.4357010920842488,0.989229698975881
0.65,1.6886862481816095e+18,45.657609537760415,0.0130727887153625,0.0840641657511393,-0.3221811850865682,1.6886862481729495e+18,45.648949300130205,-0.6823532382647196,-9.647861162821451,-1.4017952680587769,1.6886862481816095e+18,45.657609537760415,-0.6773438254992167,-9.72100067138672,-1.1311349471410117,1.6886862481772838e+18,45.65328393554688,-0.0233655953779815,-0.1946114848057428,-0.0269289767990509,1.6886862481772838e+18,45.65328393554688,-0.0243327987069884,-0.1900809009869893,-0.0244346099595228,,,,,,,,,,,,1.6886862481738524e+18,45.64985244140625,-13.966559600830076,41.81671905517578,3.674639940261841,1.6886862481738524e+18,45.64985244140625,-269.31255493164065,136.84251403808594,-129.04915771484374,1.6886862481816095e+18,45.657609537760415,-0.679870069026947,0.7307311693827311,0.0234770793467759,0.0570519107083479,2.1103208859761557,1.4359968503316245,0.9836783210436504
0.7,1.688686248224871e+18,45.70087109375,0.1731821000576019,0.0421857833862305,-0.0075418949127197,1.6886862482248712e+18,45.7008711751302,-0.5128616690635681,-9.701499938964844,-1.0913265148798623,1.688686248224871e+18,45.70087109375,-0.6797262728214264,-9.71980047225952,-1.1399915218353271,1.6886862482291958e+18,45.70519588216146,0.0175114699328938,-0.1186605753997961,-0.0370082532366116,1.6886862482291958e+18,45.70519588216146,0.0164933620641628,-0.1140790842473506,-0.0345138857762018,,,,,,,,,,,,1.6886862482238528e+18,45.699852734375,-13.912879753112794,41.623959350585935,3.579479932785034,1.6886862482238528e+18,45.699852734375,-269.2588806152344,136.6497589111328,-129.14432373046876,1.688686248224871e+18,45.70087109375,-0.6795028746128082,0.7309000790119171,0.0206691194325685,0.0602788142859935,2.10843563079834,1.4350887537002563,0.9770048260688782
0.75,1.688686248268132e+18,45.74413199869792,-0.0411394238471984,-0.0431445439656575,0.1949315667152404,1.688686248276785e+18,45.75278466796875,-0.7405785918235779,-9.76271629333496,-0.8999007145563761,1.688686248268132e+18,45.74413199869792,-0.6943180958429972,-9.718019485473633,-1.1463531653086343,1.6886862482811095e+18,45.75710945638021,-0.0060577470964441,-0.1545489082733789,-0.0353792794048785,1.6886862482811095e+18,45.75710945638021,-0.0070249500373999,-0.1499674146374066,-0.0329358174155155,,,,,,,,,,,,1.6886862482738524e+18,45.74985234375,-14.100759696960449,41.84355926513672,3.38427996635437,1.6886862482738524e+18,45.74985234375,-269.4467529296875,136.86935424804688,-129.33951416015626,1.688686248268132e+18,45.74413199869792,-0.6788314382235209,0.7314370274543762,0.0196348087241251,0.0616564787924289,2.115352233250936,1.433753768603007,0.966665188471476
0.8,1.688686248320048e+18,45.79604809570313,0.0884607235590616,0.0244255065917968,0.0993516445159911,1.688686248328698e+18,45.8046983235677,-0.5912266174952189,-9.711669921875,-0.9832507173220316,1.688686248320048e+18,45.79604809570313,-0.6935094197591146,-9.718390782674154,-1.143694559733073,1.688686248324376e+18,45.80037609863281,-0.024434609338641,-0.1934152096509933,-0.0058032197412102,1.688686248324376e+18,45.80037609863281,-0.025427266024053,-0.188833713531494,-0.0033597588771953,,,,,,,,,,,,1.6886862483238502e+18,45.79985024414062,-13.834799766540527,42.04363861083984,3.333039951324463,1.6886862483238502e+18,45.79985024414062,-269.18079833984376,137.06943969726564,-129.39075927734376,1.688686248320048e+18,45.79604809570313,-0.6785517334938049,0.7315000891685486,0.0158590770636995,0.0649762550989786,2.115870952606201,1.4340314865112305,0.9560841917991638
0.85,1.6886862483719598e+18,45.84795979817708,-0.1815213759740193,0.0516608556111653,0.0756554603576659,1.6886862483806085e+18,45.856608398437494,-0.916052261988322,-9.692925771077476,-1.013759235541026,1.6886862483719598e+18,45.84795979817708,-0.6991007328033447,-9.71910572052002,-1.1341558694839478,1.6886862483676332e+18,45.843633138020834,-0.0240782716621954,-0.0528398441771665,-0.0352265629917382,1.6886862483676332e+18,45.843633138020834,-0.025045475612084,-0.0482583548873662,-0.0327831010023752,,,,,,,,,,,,1.688686248373851e+18,45.8498509765625,-13.539559745788576,41.946038818359376,3.2012799739837647,1.688686248373851e+18,45.8498509765625,-268.885546875,136.97183837890626,-129.52251281738282,1.6886862483719598e+18,45.84795979817708,-0.6782173117001852,0.7317383289337158,0.0137336424862344,0.0662675475080807,2.123169740041097,1.434566617012024,0.9439392487208048
0.9,1.6886862484238776e+18,45.89987768554688,0.0816416939099629,0.0096966425577799,0.005405306816101,1.6886862484238776e+18,45.89987780761719,-0.5796612650156021,-9.740283966064451,-1.0567302703857422,1.6886862484238776e+18,45.89987768554688,-0.7197910944620768,-9.719015757242838,-1.1219316323598223,1.6886862484195492e+18,45.895549235026046,-0.0380772662659485,-0.1954259723424911,-0.0594575504461923,1.6886862484195492e+18,45.895549235026046,-0.0390953769286473,-0.1908953885237375,-0.056963184227546,,,,,,,,,,,,1.688686248423851e+18,45.89985092773438,-13.561519813537595,41.90211944580078,2.842599964141846,1.688686248423851e+18,45.89985092773438,-268.9075134277344,136.92791748046875,-129.88119812011718,1.6886862484238776e+18,45.89987768554688,-0.6772096157073975,0.732514500617981,0.0102646412948767,0.0685722182194391,2.1411991914113364,1.434499462445577,0.917719821135203
0.95,1.688686248475789e+18,45.951789062500005,-0.0275118350982665,-0.06520144144694,0.0398492415746052,1.6886862484671355e+18,45.94313590494792,-0.7084749142328898,-9.762118021647137,-1.0259227355321248,1.688686248475789e+18,45.951789062500005,-0.7326715389887491,-9.719093004862469,-1.112905979156494,1.688686248471465e+18,45.94746492513021,-0.0203112695987025,-0.087862784663836,-0.0304923572887976,1.688686248471465e+18,45.94746492513021,-0.0212784726172684,-0.0832812935113906,-0.0279979904492695,,,,,,,,,,,,1.6886862484738504e+18,45.94985024414062,-13.539559745788576,42.216878509521486,2.859679937362671,1.6886862484738504e+18,45.94985024414062,-268.88555908203125,137.2426788330078,-129.8641143798828,1.688686248475789e+18,45.951789062500005,-0.6765332619349161,0.7329965432484945,0.0075224080743888,0.0704404215017954,2.152994235356649,1.4345563650131226,0.8993830482165018
1.0,1.6886862485277012e+18,46.00370133463542,0.1063491106033324,-0.075387954711914,0.1739126046498616,1.6886862485190546e+18,45.99505485026041,-0.6815556486447653,-9.805787404378256,-0.9046863714853922,1.6886862485277012e+18,46.00370133463542,-0.7444985111554464,-9.718278249104818,-1.1121736764907837,1.6886862485233836e+18,45.99938354492187,0.0012217304126049,-0.0821104682981967,-0.0328849125653504,1.6886862485233836e+18,45.99938354492187,0.0002036218065768,-0.0775798844794431,-0.0303905469675857,,,,,,,,,,,,1.68868624852385e+18,45.99984985351563,-14.003159713745116,41.86795883178711,2.7571999549865724,1.68868624852385e+18,45.99984985351563,-269.3491516113281,136.8937530517578,-129.9665985107422,1.6886862485277012e+18,46.00370133463542,-0.675920565923055,0.7334241271018982,0.0057103623015184,0.0720247402787208,2.1606760025024414,1.4339455366134644,0.8868790666262308
1.05,1.6886862485796188e+18,46.05561865234375,-0.0099409421284993,-0.0025154749552409,0.3039266268412271,1.68868624857097e+18,46.04696988932292,-0.6791628201802572,-9.754142125447592,-0.7605188091595968,1.6886862485796188e+18,46.05561865234375,-0.7374807000160217,-9.718169530232746,-1.1177609364191692,1.6886862485752978e+18,46.051297770182295,0.0251472859332958,0.091477067520221,0.0388917544235785,1.6886862485752978e+18,46.051297770182295,0.0240782716621954,0.096007652580738,0.0413352151711781,,,,,,,,,,,,1.6886862485738506e+18,46.04985053710938,-13.781119537353517,42.01923828125,2.9963199615478517,1.6886862485738506e+18,46.04985053710938,-269.1271118164062,137.04503784179687,-129.72747497558595,1.6886862485796188e+18,46.05561865234375,-0.6762238542238871,0.7331731716791788,0.0065541844815015,0.0716569597522417,2.1540016333262124,1.4338665803273518,0.8952743808428446
1.1,1.6886862486315336e+18,46.10753377278646,-0.2040459712346394,0.0760393142700194,0.2474801937739054,1.688686248622881e+18,46.09888110351562,-0.926620582739512,-9.680164019266764,-0.7615157961845398,1.6886862486315336e+18,46.10753377278646,-0.7314116557439169,-9.719157218933104,-1.1131589810053508,1.688686248627205e+18,46.103205240885416,-0.0107919527217745,0.0889827050268649,0.0119118723087012,1.688686248627205e+18,46.103205240885416,-0.0117591560507814,0.0935641961793104,0.0144062385855552,,,,,,,,,,,,1.6886862486238523e+18,46.09985234375,-13.312639808654785,42.13391952514648,2.835279941558838,1.6886862486238523e+18,46.09985234375,-268.65863647460935,137.15971984863282,-129.88851928710938,1.6886862486315336e+18,46.10753377278646,-0.676672637462616,0.7329421639442444,0.0085091687118013,0.069550946354866,2.1521072387695312,1.434605836868286,0.9029329419136048
1.15,1.6886862486747996e+18,46.15079956054687,-0.0326862633228302,0.0353908538818358,-0.2350157499313354,1.6886862486747996e+18,46.150799479166665,-0.7541379332542419,-9.707681655883787,-1.2526426315307615,1.6886862486747996e+18,46.15079956054687,-0.7385638952255249,-9.720782279968262,-1.0940730571746826,1.6886862486791283e+18,46.15512825520833,-0.0480547336240608,0.0010690141158799,-0.0261144886414209,1.6886862486791283e+18,46.15512825520833,-0.0490219357113043,0.0055995983226845,-0.0235692169517278,,,,,,,,,,,,1.6886862486738545e+18,46.149854443359374,-13.49563980102539,42.097319793701175,2.998759937286377,1.6886862486738545e+18,46.149854443359374,-268.8416320800781,137.12311706542968,-129.72503662109375,1.6886862486747996e+18,46.15079956054687,-0.6765163838863373,0.7331936061382294,0.0082458374090492,0.0684450231492519,2.164569854736328,1.4358322620391846,0.8916684687137604
1.2,1.6886862487180616e+18,46.19406176757813,0.2066541214783986,-0.0265731811523437,-0.3853177229563395,1.6886862487267103e+18,46.20271044921875,-0.5258227586746216,-9.737990379333496,-1.3439687093098958,1.6886862487180616e+18,46.19406176757813,-0.7506858507792155,-9.720632870992024,-1.0871409972508748,1.6886862487310418e+18,46.2070419921875,0.0163915505011876,0.055588737130165,-0.0131336025272806,1.6886862487310418e+18,46.2070419921875,0.0153734426324566,0.0601702261095245,-0.0105883308375875,,,,,,,,,,,,1.6886862487238548e+18,46.19985493164062,-13.446839904785156,42.09731903076172,3.02315993309021,1.6886862487238548e+18,46.19985493164062,-268.79283447265624,137.12311706542968,-129.7006378173828,1.6886862487180616e+18,46.19406176757813,-0.6760932405789694,0.7336169481277466,0.0080460400010148,0.0681128402551014,2.1751039028167725,1.4357190529505413,0.8813228805859884
1.25,1.6886862487699766e+18,46.24597672526042,-0.008465031782786,-0.0018135706583658,0.077204684416453,1.6886862487786258e+18,46.25462556966145,-0.7946165204048157,-9.767302831013998,-0.9146564404169718,1.6886862487699766e+18,46.24597672526042,-0.7539117534955343,-9.71907107035319,-1.0988157590230303,1.6886862487743045e+18,46.250304321289065,0.0253509078174829,0.0385608687065541,0.0043524149295989,1.6886862487743045e+18,46.250304321289065,0.0242818938568234,0.043142357841134,0.0068722339347004,,,,,,,,,,,,1.6886862487738504e+18,46.249850195312504,-13.329719734191894,42.190039825439456,2.9841198921203613,1.6886862487738504e+18,46.249850195312504,-268.67572021484375,137.21583557128906,-129.73968200683595,1.6886862487699766e+18,46.24597672526042,-0.6760409077008566,0.7337094148000082,0.0096672158688306,0.0674220497409502,2.17212184270223,1.434541662534078,0.8875817656517029
1.3,1.6886862488218867e+18,46.29788663736979,0.0787181258201599,-0.0254519780476888,0.1974461674690246,1.688686248830544e+18,46.30654386393229,-0.6390830477078756,-9.743972460428871,-0.8608179489771525,1.6886862488218867e+18,46.29788663736979,-0.7555514971415201,-9.718762715657553,-1.1004131237665813,1.6886862488175665e+18,46.293566569010416,-0.0065668014964709,-0.0556396432220935,-0.0102828984769681,1.6886862488175665e+18,46.293566569010416,-0.0075849100636939,-0.0511090569198131,-0.0077885318702707,,,,,,,,,,,,1.6886862488238508e+18,46.29985083007813,-12.897839546203612,42.06315994262695,3.0182799816131594,1.6886862488238508e+18,46.29985083007813,-268.24383544921875,137.08895568847657,-129.705517578125,1.6886862488218867e+18,46.29788663736979,-0.6759201089541117,0.7337730526924133,0.009144464197258,0.0680102656284967,2.1724563439687095,1.4343104362487793,0.8856696089108785
1.35,1.688686248873806e+18,46.34980615234375,-0.0206578969955444,-0.000838279724121,0.0297323465347289,1.688686248873806e+18,46.349806030273434,-0.7731808125972748,-9.723534107208252,-1.0172487497329712,1.688686248873806e+18,46.34980615234375,-0.7528853813807169,-9.719647725423178,-1.094414234161377,1.6886862488694815e+18,46.34548185221354,-0.0086539243347942,0.0253509078174829,0.0115046291612088,1.6886862488694815e+18,46.34548185221354,-0.0096211273533601,0.0299323971072832,0.0139989955350756,,,,,,,,,,,,1.688686248873848e+18,46.34984794921875,-13.5127197265625,42.13147811889648,2.915799951553345,1.688686248873848e+18,46.34984794921875,-268.8587158203125,137.15727844238282,-129.80799560546876,1.688686248873806e+18,46.34980615234375,-0.6760405699412028,0.7336836059888204,0.0089184660464524,0.0678085883458455,2.1733619372049966,1.4349740743637085,0.8847315510114034
1.4,1.6886862489257144e+18,46.40171459960937,-0.0770416259765624,0.0370400746663411,-0.0160054365793863,1.6886862489170678e+18,46.39306778971354,-0.8360921144485474,-9.72482999165853,-1.0311071475346882,1.6886862489257144e+18,46.40171459960937,-0.7459533214569092,-9.720437367757162,-1.0921460787455242,1.688686248921398e+18,46.39739803059896,0.0020871229935437,0.0128281701666612,0.0157806851590672,1.688686248921398e+18,46.39739803059896,0.0011199195869266,0.0174096593012411,0.0183259574696421,1.688686248922709e+18,46.398708984375,0.0,0.4605934619903564,0.9668830037117004,7.078999996185303,0.5770392417907715,169.34100341796875,40.20000076293945,-122.7531546,49.1902131,1.6886862489238502e+18,46.399850146484376,-13.263839721679688,41.96555938720703,2.9523999214172365,1.6886862489238502e+18,46.399850146484376,-268.6098327636719,136.9913543701172,-129.77139892578126,1.6886862489257144e+18,46.40171459960937,-0.6763380567232767,0.7334396243095398,0.0091585951546827,0.0674484247962633,2.1700127919514975,1.4355697631835938,0.8889337579409281
1.45,1.6886862489776364e+18,46.45363631184896,-0.0920013785362243,-0.0058339436848958,-0.1095768610636392,1.6886862489689843e+18,46.44498421223958,-0.8420741756757101,-9.72582721710205,-1.133400321006775,1.6886862489776364e+18,46.45363631184896,-0.7477433284123739,-9.720035870869957,-1.094486951828003,1.688686248973311e+18,46.449310872395834,0.0013744466996286,0.0073303825532396,-0.0059050306833038,1.688686248973311e+18,46.449310872395834,0.0003563381421069,0.0118609673033158,-0.0033597587947345,,,,,,,,,,,,1.6886862489738522e+18,46.44985234375,-13.493199729919434,42.18027954101562,2.796239900588989,1.6886862489738522e+18,46.44985234375,-268.8391906738281,137.2060791015625,-129.92755737304688,1.6886862489776364e+18,46.45363631184896,-0.6762921810150146,0.7334965268770853,0.0095630840708811,0.0672334780295689,2.1701292196909585,1.4352675676345823,0.8896955450375875
1.5,1.6886862490295514e+18,46.505551269531246,0.0348655780156453,0.0352780024210611,-0.0876084168752033,1.6886862490208952e+18,46.49689518229167,-0.7036892771720886,-9.732606569925943,-1.1326027711232505,1.6886862490295514e+18,46.505551269531246,-0.744600256284078,-9.720070838928224,-1.0963157812754314,1.6886862490252214e+18,46.50122135416667,0.0054468817543238,-0.0063122746845086,0.0157297796880205,1.6886862490252214e+18,46.50122135416667,0.0044287728960625,-0.0017307858603696,0.0182750520374004,,,,,,,,,,,,1.6886862490238536e+18,46.49985361328125,-13.415119743347168,41.946038818359376,3.11343994140625,1.6886862490238536e+18,46.49985361328125,-268.7611145019531,136.97183837890626,-129.6103546142578,1.6886862490295514e+18,46.505551269531246,-0.6763777931531271,0.7333899537722269,0.0093533589194218,0.0675626397132873,2.167391061782837,1.4352929989496868,0.891668419043223
1.55,1.6886862490814597e+18,46.55745939127604,-0.259921113650004,0.0517228444417317,0.1278382539749145,1.6886862490728128e+18,46.548812825520834,-0.9433703223864236,-9.654840151468912,-0.9515458146731058,1.6886862490814597e+18,46.55745939127604,-0.7371516823768616,-9.719566663106283,-1.1057803233464558,1.688686249077136e+18,46.553136149088544,0.0248927591989437,0.0647517169515291,0.0164424563214803,1.688686249077136e+18,46.553136149088544,0.0239764607201019,0.0693332081039746,0.0188859171466901,,,,,,,,,,,,1.6886862490738504e+18,46.54985029296874,-13.620079803466798,41.97043838500976,2.8670000076293944,1.6886862490738504e+18,46.54985029296874,-268.9660705566406,136.9962371826172,-129.85679931640624,1.6886862490814597e+18,46.55745939127604,-0.6767132878303528,0.733112653096517,0.0106855447714527,0.0670122777422268,2.1587514877319336,1.4349143505096436,0.902979016304016
1.6,1.688686249124729e+18,46.60072937011719,-0.0288559794425964,0.0384669303894042,0.0770255327224731,1.6886862491247268e+18,46.600726969401045,-0.7724829117457072,-9.719047546386715,-0.9732806086540222,1.688686249124729e+18,46.60072937011719,-0.750469982624054,-9.7184739112854,-1.1064133048057556,1.6886862491290532e+18,46.605053222656245,-0.0066686123609542,-0.0203112699091434,-0.0476983947058518,1.6886862491290532e+18,46.605053222656245,-0.0076358155347406,-0.0157297806193431,-0.0452040284872054,,,,,,,,,,,,1.6886862491238487e+18,46.59984848632813,-13.288239860534668,41.98507919311523,3.1402799606323244,1.6886862491238487e+18,46.59984848632813,-268.6342346191406,137.01087646484376,-129.5835205078125,1.688686249124729e+18,46.60072937011719,-0.6762477457523346,0.7335692644119263,0.0110883684828877,0.0666498839855193,2.166768431663513,1.4340960383415222,0.8960458040237427
1.65,1.6886862491679903e+18,46.64399039713542,0.3255282342433929,-0.0722983678181965,-0.1502538124720255,1.688686249176643e+18,46.652643147786456,-0.4464608232180277,-9.809576034545898,-1.174676537513733,1.6886862491679903e+18,46.64399039713542,-0.757097323735555,-9.717978159586588,-1.106252710024516,1.688686249180967e+18,46.65696663411458,0.0141517114437495,0.0200058370828628,0.040368010289967,1.688686249180967e+18,46.65696663411458,0.0131845083087682,0.0245873276144266,0.0428623771683002,,,,,,,,,,,,1.6886862491738465e+18,46.64984653320312,-13.385839653015136,42.321798706054686,3.6404799461364745,1.6886862491738465e+18,46.64984653320312,-268.7318359375,137.34759521484375,-129.08332214355468,1.6886862491679903e+18,46.64399039713542,-0.6759534478187561,0.7338072657585144,0.010571320230762,0.0670978600780169,2.170931259791056,1.4337249994277954,0.8905126253763834
1.7,1.6886862492199094e+18,46.69590934244792,-0.1296179294586181,0.0174220403035481,0.109519084294637,1.6886862492285563e+18,46.70455647786458,-0.9176474809646606,-9.712666511535645,-0.9230313499768577,1.6886862492199094e+18,46.69590934244792,-0.7302663922309875,-9.71896489461263,-1.1155768235524497,1.688686249224231e+18,46.70023107910156,0.0248163994401692,0.0510072503238916,0.0548251550644636,1.688686249224231e+18,46.70023107910156,0.0239001028239726,0.0555887389928101,0.0573449749499559,,,,,,,,,,,,1.6886862492238464e+18,46.69984624023438,-13.520039749145509,42.077799224853514,2.7889199256896973,1.6886862492238464e+18,46.69984624023438,-268.8660400390625,137.1035949707031,-129.93488159179688,1.6886862492199094e+18,46.69590934244792,-0.6770064234733582,0.7328558961550394,0.0118153961375355,0.0666688308119773,2.1503737767537436,1.4344619909922285,0.9134449164072672
1.75,1.6886862492718203e+18,46.7478203125,-0.0240056713422139,0.0288511912027994,0.0332878629366556,1.6886862492804718e+18,46.7564716796875,-0.6705885529518127,-9.70927651723226,-1.0636096596717834,1.6886862492718203e+18,46.7478203125,-0.727403998374939,-9.719027837117514,-1.1169129212697346,1.6886862492674952e+18,46.74349527994792,-0.003410664309437,0.008806640903155,-0.0111991957140465,1.6886862492674952e+18,46.74349527994792,-0.00442877287666,0.0133372246442983,-0.0087048293401797,,,,,,,,,,,,1.688686249273847e+18,46.74984697265625,-13.7079195022583,42.21443862915039,3.093919944763184,1.688686249273847e+18,46.74984697265625,-269.0539184570313,137.2402374267578,-129.62987670898437,1.6886862492718203e+18,46.7478203125,-0.6771437724431356,0.7327491839726766,0.0122473454102873,0.0663702388604481,2.1480281352996826,1.4345098733901978,0.916827122370402
1.8,1.6886862493237345e+18,46.79973445638021,0.050832450389862,0.0347824096679687,-0.1620856523513793,1.6886862493237356e+18,46.799735351562504,-0.6843473017215729,-9.688838005065918,-1.2251251935958862,1.6886862493237345e+18,46.79973445638021,-0.7298592527707418,-9.718976974487305,-1.115756869316101,1.6886862493194074e+18,46.79540738932292,0.0012726358836516,0.0551305885116258,0.0133881300377348,1.6886862493194074e+18,46.79540738932292,0.0003054326371056,0.0596611723303794,0.0158824962563812,,,,,,,,,,,,1.6886862493238487e+18,46.79984873046875,-13.734759521484374,42.109518432617186,2.957279920578003,1.6886862493238487e+18,46.79984873046875,-269.08076171875,137.13531799316405,-129.76651611328126,1.6886862493237345e+18,46.79973445638021,-0.6771347721417745,0.7328201532363892,0.0130810486152767,0.0655131042003631,2.1500449180603027,1.434471646944682,0.917208969593048
1.85,1.688686249375649e+18,46.851649251302085,-0.0035365621248881,0.0125382741292317,-0.0946560700734456,1.6886862493669962e+18,46.84299633789063,-0.7479564944903055,-9.716256141662598,-1.1551351149876912,1.688686249375649e+18,46.851649251302085,-0.7219508687655131,-9.719265619913736,-1.1183808247248332,1.6886862493713216e+18,46.84732169596354,0.0043778675220285,-0.0363464814921219,0.0035124750866089,1.6886862493713216e+18,46.84732169596354,0.0034106642318268,-0.0317649922023216,0.0060068413925667,,,,,,,,,,,,1.6886862493738522e+18,46.849852246093754,-13.68351993560791,41.93871994018555,3.074399948120117,1.6886862493738522e+18,46.849852246093754,-269.0295166015625,136.96451416015626,-129.64939880371094,1.688686249375649e+18,46.851649251302085,-0.6774046421051025,0.7325466871261597,0.0129907621691623,0.0657988712191581,2.14399520556132,1.4346883296966553,0.9227251410484314
1.9,1.6886862494275643e+18,46.90356412760417,0.0572967926661172,0.0037304560343424,0.061365266640981,1.6886862494189169e+18,46.8949169108073,-0.6590232451756796,-9.75553830464681,-1.0542377829551697,1.6886862494275643e+18,46.90356412760417,-0.7225648562113444,-9.718034744262695,-1.1286393404006958,1.6886862494232412e+18,46.8992412109375,0.024892758578062,0.0134899409022181,0.0031052315607666,1.6886862494232412e+18,46.8992412109375,0.0239255552490551,0.0180205249538023,0.0055486924635867,,,,,,,,,,,,1.6886862494238518e+18,46.8998517578125,-13.844559860229491,41.96799926757812,3.0353599548339845,1.6886862494238518e+18,46.8998517578125,-269.1905517578125,136.9937957763672,-129.68843994140624,1.6886862494275643e+18,46.90356412760417,-0.6773370305697123,0.7325632174809774,0.0132695132245619,0.066254623234272,2.1402343114217124,1.4337663650512695,0.926233967145284
1.95,1.6886862494794772e+18,46.955477132161455,-0.0635568896929423,0.0109663009643554,0.1822704672813415,1.6886862494708265e+18,46.946826660156255,-0.7637092272440592,-9.702297846476236,-0.8677970170974731,1.6886862494794772e+18,46.955477132161455,-0.7215516964594523,-9.71789296468099,-1.130501667658488,1.6886862494751547e+18,46.95115437825521,-0.0064140853161612,-0.0180205240224798,-0.0033088534449537,1.6886862494751547e+18,46.95115437825521,-0.0074321934953331,-0.0134899411350488,-0.0008144869934767,,,,,,,,,,,,1.6886862494738511e+18,46.94985112304688,-13.676199913024902,41.89479904174805,3.5111599445343016,1.6886862494738511e+18,46.94985112304688,-269.0221923828125,136.92059631347655,-129.21263732910157,1.6886862494794772e+18,46.955477132161455,-0.6773701906204224,0.7325264016787211,0.0133590822418529,0.0663041174411773,2.1388493378957114,1.4336605072021484,0.9276747504870096
2.0,1.6886862495313902e+18,47.007390462239584,0.0510004560152689,0.0073019663492838,-0.0972891251246134,1.6886862495227384e+18,46.99873844401041,-0.6763711969057719,-9.74556795756022,-1.1102697054545083,1.6886862495313902e+18,47.007390462239584,-0.7204559445381165,-9.719014167785645,-1.1215303738911946,1.688686249527068e+18,47.00306795247396,-0.0170024160761385,-0.032579480165926,0.0027997990449269,1.688686249527068e+18,47.00306795247396,-0.01807143073529,-0.02799799060449,0.0052941654187937,,,,,,,,,,,,1.6886862495238492e+18,46.99984912109375,-13.493199920654297,41.84843826293945,3.4672399520874024,1.6886862495238492e+18,46.99984912109375,-268.8391967773438,136.87424011230468,-129.25655517578124,1.6886862495313902e+18,47.007390462239584,-0.6773709654808044,0.7325078646341959,0.0122405386840303,0.0667159135142961,2.141774892807007,1.43449870745341,0.9225803017616272
2.05,1.688686249574656e+18,47.050656127929685,0.0316934287548065,0.020914077758789,-0.1317502856254577,1.688686249574656e+18,47.05065608723959,-0.6811568339665731,-9.709874788920084,-1.1786645253499348,1.688686249574656e+18,47.050656127929685,-0.7171010971069336,-9.718867301940918,-1.124955654144287,1.6886862495789847e+18,47.05498486328125,0.0150680098061759,0.0253000017255544,0.0013235413158933,1.6886862495789847e+18,47.05498486328125,0.0141008061667282,0.0298305855443079,0.0038179079225907,,,,,,,,,,,,1.6886862495738532e+18,47.049853125,-13.236999702453613,42.094879913330075,3.1671199798583984,1.6886862495738532e+18,47.049853125,-268.5830017089844,137.1206787109375,-129.55667724609376,1.688686249574656e+18,47.050656127929685,-0.6774999797344208,0.73238605260849,0.0125380582176147,0.0666879564523696,2.1382720470428467,1.4343880414962769,0.9265449345111848
2.1,1.688686249617918e+18,47.093918131510414,-0.0529993772506713,0.0054257710774739,0.1114132006963093,1.6886862496265715e+18,47.10257137044271,-0.7822535832722982,-9.73200829823812,-0.9527422388394674,1.688686249617918e+18,47.093918131510414,-0.7191480994224548,-9.718334515889486,-1.1282386382420857,1.688686249630901e+18,47.10690096028645,-0.0059559360767404,-0.0205148910172283,0.0011199195869266,1.688686249630901e+18,47.10690096028645,-0.0069231395609676,-0.0159334021930892,0.0036651915676581,,,,,,,,,,,,1.688686249623854e+18,47.09985405273437,-13.385839653015136,42.277879333496095,3.1573599338531495,1.688686249623854e+18,47.09985405273437,-268.7318420410156,137.30367736816407,-129.56643676757812,1.688686249617918e+18,47.093918131510414,-0.6774322787920634,0.7324512998263041,0.0128820575773715,0.0665935054421424,2.13824200630188,1.4339899619420369,0.9271954298019408
2.15,1.6886862496698324e+18,47.14583243815105,0.0430394212404886,0.048678716023763,-0.0716874599456787,1.6886862496784824e+18,47.1544825032552,-0.6321039994557699,-9.692726453145346,-1.1623135805130005,1.6886862496698324e+18,47.14583243815105,-0.7194739977518717,-9.718915303548178,-1.12300443649292,1.6886862496741606e+18,47.15016076660156,-0.0172569430433213,-0.0430659987032413,-0.0167987938039004,1.6886862496741606e+18,47.15016076660156,-0.0182495992630719,-0.0385608691722154,-0.0142789748497306,,,,,,,,,,,,1.6886862496738476e+18,47.14984765625,-13.649359893798827,42.080239868164064,3.2500799179077147,1.6886862496738476e+18,47.14984765625,-268.9953552246094,137.10603942871094,-129.47371520996094,1.6886862496698324e+18,47.14583243815105,-0.6773756543795267,0.7324775060017904,0.0119997241223851,0.0670438359181086,2.140556732813517,1.4344255129496255,0.9229914347330728
2.2,1.6886862497217454e+18,47.19774527994792,0.0902037819226582,-0.04048220316569,-0.0014673471450805,1.6886862497304013e+18,47.206401285807296,-0.6669993201891581,-9.774680455525717,-1.017747203509013,1.6886862497217454e+18,47.19774527994792,-0.7247639695803324,-9.718289057413736,-1.1250290870666504,1.6886862497174167e+18,47.19341642252604,0.0167478889537353,0.0441350126639008,-0.002647082787007,1.6886862497174167e+18,47.19341642252604,0.015678874333389,0.0487165041267871,-0.0002036219811998,,,,,,,,,,,,1.688686249723848e+18,47.19984794921875,-13.790879821777343,41.819158935546874,3.3379198551177978,1.688686249723848e+18,47.19984794921875,-269.1368713378906,136.84495849609374,-129.38587951660156,1.6886862497217454e+18,47.19774527994792,-0.67718905210495,0.7326570153236389,0.0122746567552288,0.0669172157843907,2.1430721282958984,1.433956305185954,0.9210449655850728
2.25,1.688686249773663e+18,47.24966284179688,-0.0536669492721557,0.030315081278483,0.1483868161837259,1.6886862497736627e+18,47.249662597656254,-0.7809574902057648,-9.698110103607178,-0.9044869542121888,1.688686249773663e+18,47.24966284179688,-0.7220697601636251,-9.717899640401203,-1.1301175355911257,1.688686249769338e+18,47.245337890625,0.0058541254450877,0.0154243470169603,0.0064140848505,1.688686249769338e+18,47.245337890625,0.0048360164898136,0.0199549319998671,0.0089084518452485,,,,,,,,,,,,1.68868624977385e+18,47.249850195312504,-13.856759834289551,42.0216796875,3.1841999530792235,1.68868624977385e+18,47.249850195312504,-269.2027526855469,137.04747924804687,-129.539599609375,1.688686249773663e+18,47.24966284179688,-0.6773356397946676,0.7325480779012045,0.0131638618186115,0.0664565861225127,2.139328718185425,1.4336647192637126,0.9267013867696124
2.3,1.6886862498255775e+18,47.301577636718754,0.0865158240000406,-0.0266094207763671,-0.115804632504781,1.688686249816922e+18,47.292921875,-0.6460621158281962,-9.750353495279947,-1.1276176770528157,1.6886862498255775e+18,47.301577636718754,-0.7268586357434591,-9.718602180480955,-1.12096107006073,1.6886862498212498e+18,47.29724983723958,-0.0272344090044498,-0.024638231533269,-0.0133372241010268,1.6886862498212498e+18,47.29724983723958,-0.0282525171836216,-0.0200567422434687,-0.0107919523337234,,,,,,,,,,,,1.68868624982385e+18,47.29985009765625,-13.717679595947263,42.01191864013672,3.350119924545288,1.68868624982385e+18,47.29985009765625,-269.0636779785156,137.0377166748047,-129.37367553710936,1.6886862498255775e+18,47.301577636718754,-0.6771595279375712,0.7327262163162231,0.0125062773004173,0.0664143736163774,2.146043539047241,1.4341906309127808,0.9191155433654784
2.35,1.6886862498774917e+18,47.35349145507812,-0.0656664172808329,0.0866069793701171,-0.1384948889414469,1.688686249868841e+18,47.3448408203125,-0.7401797970136007,-9.682357470194498,-1.2267204125722249,1.6886862498774917e+18,47.35349145507812,-0.7170493404070536,-9.719555219014486,-1.1190085808436077,1.6886862498731674e+18,47.34916748046874,0.0045814896002411,-0.0030034208515038,0.0267253542939821,1.6886862498731674e+18,47.34916748046874,0.003614285805573,0.0015271632000803,0.0292706259836752,,,,,,,,,,,,1.6886862498738506e+18,47.349850537109376,-13.89091968536377,41.987519073486325,3.2232399463653563,1.6886862498738506e+18,47.349850537109376,-269.23692016601564,137.01331787109376,-129.50055541992188,1.6886862498774917e+18,47.35349145507812,-0.6775078773498535,0.7323909203211466,0.0121585770199695,0.0666246314843495,2.1406482060750327,1.4349056879679365,0.923721969127655
2.4,1.6886862499294072e+18,47.405407226562495,-0.1063997944196065,-0.0069894790649413,0.0535233418146769,1.6886862499207514e+18,47.39675122070312,-0.8584251205126444,-9.716853777567543,-1.024925708770752,1.6886862499294072e+18,47.405407226562495,-0.7275622685750326,-9.718082745869957,-1.124984900156657,1.688686249925083e+18,47.401082682291666,0.0083993973094038,-0.0029525153028468,-0.040927971402804,1.688686249925083e+18,47.401082682291666,0.00738128843174,0.0015780686711271,-0.0384845094134409,1.688686249922657e+18,47.39865698242187,0.0,0.4587715864181518,0.97648423910141,6.0289998054504395,0.574263334274292,170.77285766601562,40.20000076293945,-122.7531577,49.190208,1.688686249923847e+18,47.39984697265625,-13.986079788208007,41.975318908691406,2.9938799858093263,1.688686249923847e+18,47.39984697265625,-269.3320739746094,137.0011199951172,-129.72991943359375,1.6886862499294072e+18,47.405407226562495,-0.6771039168039957,0.7327509721120199,0.0124868303537368,0.0667109464605649,2.1448333263397217,1.4338030020395915,0.9198772509892782
2.45,1.6886862499813184e+18,47.457318603515624,0.1159033377965291,-0.0255530675252278,0.0736257632573445,1.6886862499726664e+18,47.44866625976562,-0.6019942959149679,-9.77527872721354,-0.9932207862536112,1.6886862499813184e+18,47.457318603515624,-0.7333149512608846,-9.71786403656006,-1.1231530904769895,1.6886862499769928e+18,47.45299275716146,-0.0086539241795737,-0.0407243482768535,0.0069231394057472,1.6886862499769928e+18,47.45299275716146,-0.009621127663801,-0.0361428606168677,0.009468411716322,,,,,,,,,,,,1.6886862499738496e+18,47.44984951171875,-13.563959693908693,42.15344009399414,3.35743989944458,1.6886862499738496e+18,47.44984951171875,-268.9099548339844,137.17923583984376,-129.36636047363282,1.6886862499813184e+18,47.457318603515624,-0.6768211921056112,0.7329654296239217,0.0116091358164945,0.0673794051011403,2.1491847038269043,1.4336393276850383,0.9133314490318298
2.5,1.6886862500245786e+18,47.50057861328125,-0.0835501849651336,0.0628113746643066,0.0687950253486632,1.6886862500245844e+18,47.50058455403646,-0.7856434186299642,-9.688538869222006,-0.9956136345863342,1.6886862500245786e+18,47.50057861328125,-0.7247887253761292,-9.718591213226318,-1.1224101185798645,1.6886862500289134e+18,47.504913248697925,0.0061595579609274,0.0240273661911487,0.0047851113292078,1.6886862500289134e+18,47.504913248697925,0.0051923544767001,0.0285579500099022,0.0073303830189009,,,,,,,,,,,,1.6886862500238513e+18,47.49985122070312,-13.383399772644044,42.08755874633789,3.25251989364624,1.6886862500238513e+18,47.49985122070312,-268.72939453125,137.1133544921875,-129.47127990722657,1.6886862500245786e+18,47.50057861328125,-0.6771524548530579,0.7326677143573761,0.0116892559453844,0.0672757737338542,2.1441497802734375,1.4341816306114197,0.9186285734176636
2.55,1.6886862500678464e+18,47.54384659830729,0.0310555299123127,-0.002386728922526,0.0200488567352294,1.6886862500765033e+18,47.55250333658855,-0.6642076770464579,-9.722237904866535,-1.0237292846043904,1.6886862500678464e+18,47.54384659830729,-0.7312189141909281,-9.717899640401203,-1.1242123047510784,1.6886862500808282e+18,47.556828125,0.0006617706191415,0.0217366212358076,-0.0061086526451011,1.6886862500808282e+18,47.556828125,-0.0003563379868865,0.0263181105256079,-0.0036651918975015,,,,,,,,,,,,1.6886862500738486e+18,47.54984848632812,-13.324839782714845,42.124159240722655,3.1890799045562743,1.6886862500738486e+18,47.54984848632812,-268.67083129882815,137.14995727539062,-129.534716796875,1.6886862500678464e+18,47.54384659830729,-0.6769354939460754,0.73288494348526,0.0120805573339263,0.0670232598980267,2.147446950276693,1.4336655139923096,0.9162432551383972
2.6,1.6886862501197617e+18,47.59576147460937,-0.005335251490275,-0.0132939020792643,0.0299725135167439,1.688686250128411e+18,47.60441097005208,-0.7736793160438538,-9.756734212239584,-1.0646066864331565,1.6886862501197617e+18,47.59576147460937,-0.7313186923662821,-9.718358357747396,-1.1201778252919514,1.688686250124089e+18,47.600089233398435,-0.0122173046693205,0.0175623761024326,0.0062613687478005,1.688686250124089e+18,47.600089233398435,-0.0131336022168397,0.0221438651060453,0.0087048294954001,,,,,,,,,,,,1.688686250123849e+18,47.59984873046875,-13.829919624328614,41.933837890625,3.1573599338531495,1.688686250123849e+18,47.59984873046875,-269.17591552734376,136.9596374511719,-129.56643676757812,1.6886862501197617e+18,47.59576147460937,-0.6769887407620748,0.7328829964001974,0.0124014488731821,0.0664455369114875,2.1491548220316568,1.434008002281189,0.9158113797505696
2.65,1.6886862501716726e+18,47.64767268880208,0.061268150806427,0.0032361348470052,-0.2068934043248494,1.6886862501803246e+18,47.65632486979166,-0.6251249114672343,-9.712666511535645,-1.2518450419108074,1.6886862501716726e+18,47.64767268880208,-0.7273338238398234,-9.719135920206703,-1.1160139242808025,1.6886862501673516e+18,47.64335172526042,-0.0110973855480551,-0.0695877323547999,0.0024434609610276,1.6886862501673516e+18,47.64335172526042,-0.0121663995087146,-0.0650062436858812,0.0048869220384706,,,,,,,,,,,,1.6886862501738511e+18,47.649851269531254,-13.485879707336426,41.94603958129883,3.0939199924468994,1.6886862501738511e+18,47.649851269531254,-268.8318664550781,136.97183532714843,-129.62987670898437,1.6886862501716726e+18,47.64767268880208,-0.6770714720090231,0.7327610651652018,0.011360208193461,0.0671276748180388,2.1483546098073325,1.434590498606364,0.9141669074694316
2.7,1.6886862502235912e+18,47.69959098307291,-0.1055706938107808,0.0536397298177082,0.0630947748819987,1.688686250223591e+18,47.69959106445313,-0.8288139402866364,-9.687641620635986,-0.9909276962280272,1.6886862502235912e+18,47.69959098307291,-0.7226086854934692,-9.718292872111002,-1.1263808409372966,1.688686250219266e+18,47.69526611328124,0.0316631818811098,0.0708094624181587,0.0159843070432543,1.688686250219266e+18,47.69526611328124,0.030746883402268,0.0753909548123677,0.0184277687221765,,,,,,,,,,,,1.688686250223856e+18,47.69985610351563,-13.288239860534668,41.946038818359376,2.8645598888397217,1.688686250223856e+18,47.69985610351563,-268.6342346191406,136.97183837890626,-129.85923767089844,1.6886862502235912e+18,47.69959098307291,-0.6772547761599222,0.7325829267501831,0.0122147373234231,0.0670723567406336,2.1411723295847573,1.433959166208903,0.9226399660110476
2.75,1.688686250275509e+18,47.751508789062505,-0.1453362504641215,0.0296777089436849,0.0323161880175272,1.688686250266849e+18,47.74284895833333,-0.9399805068969728,-9.69791062672933,-0.9742776155471802,1.688686250275509e+18,47.751508789062505,-0.7285061875979105,-9.717860221862791,-1.126310149828593,1.688686250271175e+18,47.74717447916667,-0.0233146897517144,-0.1163698273400465,-0.029576058499515,1.688686250271175e+18,47.74717447916667,-0.0242818928478906,-0.1117883436381816,-0.0271325988384583,,,,,,,,,,,,1.6886862502738522e+18,47.749852148437505,-13.476119804382323,42.09975814819336,3.1671199798583984,1.6886862502738522e+18,47.749852148437505,-268.822119140625,137.12555847167968,-129.55668029785156,1.688686250275509e+18,47.751508789062505,-0.6769714752833048,0.7327986756960551,0.011528021035095,0.0676864931980768,2.144899606704712,1.4336361487706502,0.9170653422673544
2.8,1.688686250327421e+18,47.80342057291667,0.2270572582880655,-0.0327730178833007,-0.1000115474065144,1.6886862503187653e+18,47.79476529947917,-0.4817549586296081,-9.7599245707194,-1.1906286478042605,1.688686250327421e+18,47.80342057291667,-0.7338008284568787,-9.717822710673014,-1.1231948534647624,1.6886862503230956e+18,47.799095703125,0.0054468813662727,-0.0171551316355665,-0.0093156948375205,1.6886862503230956e+18,47.799095703125,0.0044287733423213,-0.012573642656207,-0.00687223377948,,,,,,,,,,,,1.6886862503238523e+18,47.79985219726562,-13.441959762573244,41.92651824951171,2.949959897994995,1.6886862503238523e+18,47.79985219726562,-268.7879577636719,136.9523162841797,-129.77384033203126,1.688686250327421e+18,47.80342057291667,-0.6766217350959778,0.733010470867157,0.0096664757778246,0.0691745256384213,2.1494770844777427,1.433607776959737,0.9077351093292236
2.85,1.688686250379335e+18,47.855334716796875,-0.1366453369458516,0.0477787653605143,0.3256048560142517,1.688686250370678e+18,47.84667797851563,-0.8370891213417053,-9.708877881368002,-0.7932206988334656,1.688686250379335e+18,47.855334716796875,-0.7336078683535258,-9.717018445332846,-1.1302666664123535,1.6886862503750103e+18,47.85101033528645,0.0125736432770888,0.0457130810245871,0.0072285721156125,1.6886862503750103e+18,47.85101033528645,0.0115046290059884,0.0502436645328998,0.0097738438829158,,,,,,,,,,,,1.6886862503738527e+18,47.84985263671875,-13.959239959716797,42.08755874633789,3.0207199573516847,1.6886862503738527e+18,47.84985263671875,-269.30523071289065,137.1133544921875,-129.7030792236328,1.688686250379335e+18,47.855334716796875,-0.6767144997914633,0.7329834302266439,0.0111127303292353,0.0683324262499808,2.1464874744415283,1.4330090284347534,0.9139705499013264
2.9,1.6886862504312463e+18,47.90724641927083,0.0609179337819417,-0.0651343663533528,-0.1219210028648376,1.6886862504225976e+18,47.89859757486979,-0.7226324280103048,-9.776076316833496,-1.0530413389205933,1.6886862504312463e+18,47.90724641927083,-0.7363555034001669,-9.7183624903361,-1.1168387333552043,1.6886862504269233e+18,47.902923339843746,-0.0355829000473022,-0.0654134849707285,-0.0132354136245945,1.6886862504269233e+18,47.902923339843746,-0.036550103376309,-0.0608319963018099,-0.0107919527993847,,,,,,,,,,,,1.688686250423851e+18,47.899851025390625,-13.929959678649904,41.78743896484375,2.9206799507141112,1.688686250423851e+18,47.899851025390625,-269.2759582519531,136.81324157714843,-129.80311279296876,1.6886862504312463e+18,47.90724641927083,-0.676582912604014,0.7330978115399679,0.0097928556303182,0.0686082740624745,2.153680960337321,1.4340105056762695,0.9045165181159972
2.95,1.688686250474513e+18,47.95051293945312,0.1795365810394287,0.0642991065979003,-0.2595763802528381,1.6886862504745073e+18,47.95050724283854,-0.575673242410024,-9.688738505045572,-1.2977075179417927,1.688686250474513e+18,47.95051293945312,-0.7309461534023285,-9.71888256072998,-1.1158733367919922,1.688686250478841e+18,47.95484130859375,0.0169006055220961,0.0451531220848361,0.0232637847463289,1.688686250478841e+18,47.95484130859375,0.0159334025035302,0.0497346109865854,0.0257072461148102,,,,,,,,,,,,1.6886862504738468e+18,47.949846875000006,-13.776239776611328,42.036318969726565,2.954839897155762,1.6886862504738468e+18,47.949846875000006,-269.1222351074219,137.06211547851564,-129.76895446777343,1.688686250474513e+18,47.95051293945312,-0.6767639815807343,0.7329139411449432,0.0094972462393343,0.0688289068639278,2.1506943702697754,1.4343982934951782,0.9067704379558564
3.0,1.6886862505177723e+18,47.99377229817708,-0.1850090821584065,0.0683685938517252,0.0547485748926798,1.6886862505264233e+18,48.00242350260417,-0.9254241585731506,-9.697511990865072,-1.0173484285672505,1.6886862505177723e+18,47.99377229817708,-0.7257227102915446,-9.718266169230144,-1.124614953994751,1.6886862505307543e+18,48.006754231770834,0.0012726359806644,-0.0261144898831844,-0.0075340044374267,1.6886862505307543e+18,48.006754231770834,0.0002545273891883,-0.0215329981098571,-0.005039638839662,,,,,,,,,,,,1.6886862505238474e+18,47.999847412109375,-14.11051959991455,41.85087890625,2.8401599884033204,1.6886862505238474e+18,47.999847412109375,-269.4565124511719,136.87667541503907,-129.88363342285157,1.6886862505177723e+18,47.99377229817708,-0.6770172317822775,0.7327146132787069,0.0107770928492148,0.068269928296407,2.143850485483805,1.4339370330174763,0.9162216385205588
3.05,1.688686250569687e+18,48.04568725585938,0.0421197414398193,-0.0144678751627603,-0.1355002721150716,1.6886862505783386e+18,48.05433846028646,-0.6237291097640991,-9.741978645324709,-1.1832507848739624,1.688686250569687e+18,48.04568725585938,-0.7335094610850016,-9.717982292175291,-1.1220032771428423,1.688686250574018e+18,48.050017944335934,-0.0216093575581907,-0.1479821056127548,-0.0329867238178848,1.688686250574018e+18,48.050017944335934,-0.0226020142436027,-0.1434006132185459,-0.0305432621389627,,,,,,,,,,,,1.6886862505738522e+18,48.04985224609375,-13.405359840393066,42.275438690185545,3.052439975738525,1.6886862505738522e+18,48.04985224609375,-268.75135498046876,137.30123596191407,-129.67135925292968,1.688686250569687e+18,48.04568725585938,-0.6765710711479187,0.7330096960067749,0.0089355961730082,0.0697669386863708,2.149786631266276,1.433725913365682,0.9055490295092264
3.1,1.6886862506216046e+18,48.09760432942708,0.0727789799372355,-0.0044759114583333,0.1958983143170674,1.6886862506302556e+18,48.10625553385416,-0.7126623392105103,-9.74736245473226,-0.8037890195846558,1.6886862506216046e+18,48.09760432942708,-0.7352554202079773,-9.717206319173178,-1.127579132715861,1.6886862506172795e+18,48.093279785156255,0.0263181114569306,0.0490728399405876,0.0001018108644833,1.6886862506172795e+18,48.093279785156255,0.0252490968753893,0.0536543310930331,0.0025452717673033,,,,,,,,,,,,1.6886862506238502e+18,48.0998501953125,-13.5712797164917,41.97531967163086,2.9279999256134035,1.6886862506238502e+18,48.0998501953125,-268.9172790527344,137.0011199951172,-129.7957977294922,1.6886862506216046e+18,48.09760432942708,-0.6764378348986307,0.7330742279688517,0.008642830265065,0.0704205284516016,2.1486079692840576,1.4331480662027996,0.9053839047749838
3.15,1.6886862506735186e+18,48.14951871744791,-0.04800945520401,0.0028441747029622,0.3045653502146403,1.6886862506735206e+18,48.149520629882815,-0.7839485108852386,-9.718149662017822,-0.7202396094799042,1.6886862506735186e+18,48.14951871744791,-0.7422835826873779,-9.716949144999186,-1.1251793305079143,1.68868625066919e+18,48.14518969726563,-0.01374446755896,0.0183768632511297,-0.007890342802663,1.68868625066919e+18,48.14518969726563,-0.014711670577526,0.0229074458281199,-0.0053450708898405,,,,,,,,,,,,1.688686250673851e+18,48.14985092773437,-13.602999877929689,42.0582778930664,2.913360023498535,1.688686250673851e+18,48.14985092773437,-268.94899291992186,137.08407897949218,-129.81043701171876,1.6886862506735186e+18,48.14951871744791,-0.6762733062108358,0.7333081364631653,0.0094902925193309,0.0694516624013582,2.1539510091145835,1.4329571723937988,0.9026168982187908
3.2,1.6886862507254346e+18,48.2014345703125,0.1076122721036274,-0.0493081410725911,-0.2818656762440999,1.6886862507167803e+18,48.19278068033854,-0.6356932322184244,-9.797412554423014,-1.2620145877202351,1.6886862507254346e+18,48.2014345703125,-0.736190398534139,-9.71883487701416,-1.1128263473510742,1.688686250721106e+18,48.19710595703125,-0.0216348102937141,-0.0264708269387483,0.0161879289274413,1.688686250721106e+18,48.19710595703125,-0.0226020140883822,-0.0218893379593888,0.0186822954565285,,,,,,,,,,,,1.688686250723848e+18,48.19984790039062,-13.33947982788086,42.13391952514648,2.8377199172973633,1.688686250723848e+18,48.19984790039062,-268.6854675292969,137.159716796875,-129.88608093261718,1.6886862507254346e+18,48.2014345703125,-0.6765067179997762,0.7331071893374125,0.008618377149105,0.0694134881099064,2.1552294890085855,1.4343632459640503,0.9001593391100565
3.25,1.6886862507773478e+18,48.25334773763021,-0.0481786330540974,0.0888026555379231,-0.0870911677678425,1.6886862507686943e+18,48.24469474283854,-0.7194420099258423,-9.663414001464844,-1.216949701309204,1.6886862507773478e+18,48.25334773763021,-0.7223736246426901,-9.71895949045817,-1.1207612752914429,1.6886862507730235e+18,48.2490235188802,0.0264199220885832,0.0467820971583326,0.0312050326416889,1.6886862507730235e+18,48.2490235188802,0.025503624541064,0.051363586137692,0.033699399481217,,,,,,,,,,,,1.6886862507738524e+18,48.24985229492187,-13.683519554138185,42.12659912109375,2.9401998996734617,1.6886862507738524e+18,48.24985229492187,-269.0295166015625,137.15239562988282,-129.78359985351562,1.6886862507773478e+18,48.25334773763021,-0.6770315368970236,0.7326181729634603,0.0093067570899922,0.069369393090407,2.1433111826578775,1.4344567855199175,0.9131178657213846
