seconds_elapsed_rounded,accelerometer_time,accelerometer_seconds_elapsed,accelerometer_z,accelerometer_y,accelerometer_x,accelerometeruncalibrated_time,accelerometeruncalibrated_seconds_elapsed,accelerometeruncalibrated_z,accelerometeruncalibrated_y,accelerometeruncalibrated_x,gravity_time,gravity_seconds_elapsed,gravity_z,gravity_y,gravity_x,gyroscope_time,gyroscope_seconds_elapsed,gyroscope_z,gyroscope_y,gyroscope_x,gyroscopeuncalibrated_time,gyroscopeuncalibrated_seconds_elapsed,gyroscopeuncalibrated_z,gyroscopeuncalibrated_y,gyroscopeuncalibrated_x,location_time,location_seconds_elapsed,location_bearingAccuracy,location_speedAccuracy,location_verticalAccuracy,location_horizontalAccuracy,location_speed,location_bearing,location_altitude,location_longitude,location_latitude,magnetometer_time,magnetometer_seconds_elapsed,magnetometer_z,magnetometer_y,magnetometer_x,magnetometeruncalibrated_time,magnetometeruncalibrated_seconds_elapsed,magnetometeruncalibrated_z,magnetometeruncalibrated_y,magnetometeruncalibrated_x,orientation_time,orientation_seconds_elapsed,orientation_qz,orientation_qy,orientation_qx,orientation_qw,orientation_roll,orientation_pitch,orientation_yaw
0.0,,,,,,,,,,,,,,,,1.688686202587022e+18,0.06302197265625,-0.1898263692855835,-0.3430008292198181,-0.6768386960029602,,,,,,,,,,,,,,,,,,,,,,,,,,,,,,,,,,,
0.05,,,,,,1.688686202634604e+18,0.1106038818359375,9.2051887512207,2.940180778503418,-0.7304090857505798,,,,,,1.688686202621621e+18,0.0976207682291666,0.0418442686398823,-0.1230384341130654,-0.8066475590070089,1.6886862026259494e+18,0.10194921875,0.076510872070988,-0.085622942696015,-0.8187121351559957,,,,,,,,,,,,1.688686202623845e+18,0.0998452636718749,-42.69023895263672,-21.37683982849121,-13.615199661254882,1.688686202623845e+18,0.0998452636718749,-298.03623046875,73.64895782470703,-146.33899841308593,,,,,,,,,
0.1,1.6886862026865114e+18,0.162511474609375,0.1467504501342773,-0.3070497512817383,0.0105311274528503,1.6886862026778744e+18,0.1538741861979166,9.473383903503418,2.4526432355244956,-0.7158527771631876,1.6886862026865114e+18,0.162511474609375,9.388185501098633,2.7323319911956787,-0.7952527403831482,1.6886862026735444e+18,0.149544677734375,0.1694132934014002,0.0193440656488139,-0.6438519656658173,1.6886862026778744e+18,0.1538741861979166,0.1589776799082756,0.024892758578062,-0.5978334446748098,,,,,,,,,,,,1.68868620267385e+18,0.1498501953125,-42.99524002075195,-19.393119430541994,-13.38583984375,1.68868620267385e+18,0.1498501953125,-298.3412353515625,75.63267974853515,-146.1096405029297,1.6886862026865114e+18,0.162511474609375,-0.8367787003517151,-0.0972072184085846,0.1097722351551055,0.5275435447692871,0.0845917165279388,-0.2822331190109253,2.0286052227020264
0.15,1.688686202721142e+18,0.1971419270833333,0.280040423075358,-0.4428846836090088,0.274582952260971,1.6886862027297902e+18,0.2057902018229166,9.72762139638265,2.1210378805796304,-0.4065804382165273,1.688686202721142e+18,0.1971419270833333,9.41621176401774,2.6330721378326416,-0.7978887359301249,1.68868620272546e+18,0.2014599609375,0.007788531947881,0.0183768629406888,-0.2783000270525614,1.6886862027297902e+18,0.2057902018229166,-0.0001527167235811,0.0203112699091434,-0.2710205515225728,,,,,,,,,,,,1.6886862027238523e+18,0.19985224609375,-43.83947830200195,-18.439080047607423,-14.039759635925291,1.6886862027238523e+18,0.19985224609375,-299.1854675292969,76.58671722412109,-146.76355590820313,1.688686202721142e+18,0.1971419270833333,-0.836864153544108,-0.0926348641514778,0.1071737234791119,0.5287602543830872,0.084618995587031,-0.2717161178588867,2.0261677900950112
0.2,1.6886862027730511e+18,0.2490511067708333,0.445344607035319,-0.4992301066716512,0.4322969218095143,1.688686202773058e+18,0.249057861328125,9.933205127716064,2.0213369131088257,-0.3197409361600875,1.6886862027730511e+18,0.2490511067708333,9.447118759155272,2.52032470703125,-0.7972776095072428,1.6886862027773747e+18,0.253374755859375,-0.013337224566688,-0.0313577484339475,-0.1391754671931266,1.688686202773058e+18,0.249057861328125,-0.0097738439217209,-0.0235183122567832,-0.1571450866758822,,,,,,,,,,,,1.688686202773853e+18,0.2498530273437499,-44.37627944946289,-17.86811943054199,-14.33743953704834,1.688686202773853e+18,0.2498530273437499,-299.72227172851564,77.15767822265624,-147.0612335205078,1.6886862027730511e+18,0.2490511067708333,-0.837527851263682,-0.0876715704798698,0.1039643312493959,0.5291988452275594,0.0842796340584754,-0.2598034739494324,2.025577942530314
0.25,1.688686202824966e+18,0.3009662272135416,0.2479225794474283,-0.6410661141077677,0.5883919994036356,1.688686202816314e+18,0.2923140462239583,9.759126981099447,1.8338991800944011,-0.1748754555980364,1.688686202824966e+18,0.3009662272135416,9.457502047220864,2.4860889116923013,-0.7816876570383707,1.6886862028292938e+18,0.3052940266927083,-0.0237728394567966,-0.0316631818811098,-0.0593048346539337,1.688686202816314e+18,0.2923140462239583,-0.0273362193256616,-0.0316631818811098,-0.0468330023189385,,,,,,,,,,,,1.6886862028238492e+18,0.299849169921875,-44.56903991699219,-17.28495979309082,-14.466759490966798,1.6886862028238492e+18,0.299849169921875,-299.9150329589844,77.74083862304687,-147.19055786132813,1.688686202824966e+18,0.3009662272135416,-0.838094154993693,-0.086653413871924,0.1022619853417078,0.5288020372390747,0.0825502648949622,-0.2561936179796855,2.026487112045288
0.3,1.6886862028768778e+18,0.3528779296875,0.1192744572957356,-0.4742447932561238,0.8229067126909891,1.6886862028682227e+18,0.3442224934895834,9.593424479166666,1.9445672035217283,0.077168530706937,1.6886862028768778e+18,0.3528779296875,9.466309547424316,2.4550602436065674,-0.7731314698855082,1.6886862028812022e+18,0.3572023925781249,-0.0411315939078728,-0.0158824964116016,-0.0517708299060662,1.6886862028682227e+18,0.3442224934895834,-0.0313068435837824,-0.0167987945800025,-0.0537561401724814,,,,,,,,,,,,1.688686202873853e+18,0.34985263671875,-44.60807876586914,-17.25567970275879,-14.63511962890625,1.688686202873853e+18,0.34985263671875,-299.9540771484375,77.7701202392578,-147.35891723632812,1.6886862028768778e+18,0.3528779296875,-0.8386497497558594,-0.0855885297060012,0.1009561518828073,0.5283453265825907,0.0815758729974428,-0.2529251277446746,2.0276033083597818
0.35,1.688686202928796e+18,0.4047958984374999,0.2712167104085286,-0.5549768209457397,0.841848353544871,1.688686202920143e+18,0.3961431477864583,9.70648511250814,1.887937068939209,0.1525424445668856,1.688686202928796e+18,0.4047958984374999,9.476082483927408,2.4155529340108237,-0.7777161796887716,1.688686202924474e+18,0.400473876953125,-0.0481819957494735,0.0070249504497041,-0.1025490015745162,1.688686202920143e+18,0.3961431477864583,-0.0503963828086852,0.0083484917413443,-0.0893390427033106,,,,,,,,,,,,1.6886862029238487e+18,0.399848779296875,-44.573919677734374,-17.09219970703125,-14.393559646606445,1.6886862029238487e+18,0.399848779296875,-299.91990966796874,77.93359832763672,-147.1173553466797,1.688686202928796e+18,0.4047958984374999,-0.839492678642273,-0.0838421608010927,0.0999474053581555,0.5274774432182312,0.0819725493590036,-0.2487677931785583,2.029867966969808
0.4,1.6886862029807153e+18,0.456715087890625,0.3357674280802409,-0.7178336381912231,0.6868932247161865,1.688686202972061e+18,0.4480609537760416,9.834500948588053,1.6572291056315105,-0.0173479641477266,1.6886862029807153e+18,0.456715087890625,9.484911600748696,2.3816000620524087,-0.774904708067576,1.688686202967736e+18,0.4437359212239584,-0.0149152929273743,-0.0163915511220693,-0.0534507098297277,1.688686202972061e+18,0.4480609537760416,-0.0156788748378554,-0.0206676078960299,-0.0444404470423856,,,,,,,,,,,,1.68868620297385e+18,0.4498498535156249,-44.986279296875,-17.04339942932129,-14.786399841308594,1.68868620297385e+18,0.4498498535156249,-300.332275390625,77.9823989868164,-147.51019592285155,1.6886862029807153e+18,0.456715087890625,-0.8399411042531332,-0.0824702531099318,0.0988334516684213,0.5271900097529093,0.0816021859645843,-0.2451980561017989,2.030646006266276
0.45,1.6886862030239764e+18,0.4999765625,0.3015522956848144,-0.7358075380325317,0.7295769453048706,1.6886862030239764e+18,0.4999764811197916,9.794820149739584,1.623530109723409,0.0542373132581511,1.6886862030239764e+18,0.4999765625,9.48881769180298,2.377440333366394,-0.7390240728855133,1.6886862030196508e+18,0.4956507161458334,-0.0296269642810026,-0.1053742542862891,0.0041233406712611,1.6886862030239764e+18,0.4999764811197916,-0.0316122757891813,-0.0998764683802922,0.0094175059348344,,,,,,,,,,,,1.6886862030238538e+18,0.4998537109375,-45.013119506835935,-17.082439041137697,-14.954759788513185,1.6886862030238538e+18,0.4998537109375,-300.35911254882814,77.943359375,-147.67855834960938,1.6886862030239764e+18,0.4999765625,-0.840432733297348,-0.0833359658718108,0.0970836393535136,0.5265951752662659,0.0778112187981605,-0.2447608187794685,2.03170382976532
0.5,1.6886862030672394e+18,0.543239501953125,0.1529506047566731,-0.6875958442687988,0.7542615930239359,1.6886862030758884e+18,0.551888671875,9.618947664896648,1.7034902969996135,0.0821535773575305,1.6886862030672394e+18,0.543239501953125,9.48886489868164,2.3844629923502603,-0.7154534459114075,1.688686203071567e+18,0.5475673014322916,-0.0676024183630943,-0.0377718346814314,0.0304923572887976,1.6886862030758884e+18,0.551888671875,-0.0743728453914323,-0.0287106664230425,0.0359901431947946,,,,,,,,,,,,1.6886862030738486e+18,0.5498485351562501,-44.639800262451175,-16.911639785766603,-14.801039505004884,1.6886862030738486e+18,0.5498485351562501,-299.9858032226563,78.11416015625,-147.52484130859375,1.6886862030672394e+18,0.543239501953125,-0.8410699566205343,-0.0844012051820754,0.0961465612053871,0.5255791147549947,0.0753412370880444,-0.2454986770947773,2.033846457799276
0.55,1.6886862031191503e+18,0.5951502278645834,0.0419508616129556,-0.5228813091913859,0.6165700554847717,1.688686203127805e+18,0.603804443359375,9.532207806905111,1.9008982181549072,-0.0512462854385375,1.6886862031191503e+18,0.5951502278645834,9.484410603841146,2.402799367904663,-0.7131558060646057,1.6886862031234788e+18,0.5994789225260416,-0.1269072542587915,-0.044491351271669,0.0436259588847557,1.688686203127805e+18,0.603804443359375,-0.1282817001144091,-0.0467820974687734,0.0391971847663322,,,,,,,,,,,,1.6886862031238546e+18,0.5998545898437501,-44.76911849975586,-16.950679779052734,-14.969399642944335,1.6886862031238546e+18,0.5998545898437501,-300.1151123046875,78.07512054443359,-147.6931945800781,1.6886862031191503e+18,0.5951502278645834,-0.8424327969551086,-0.0855412433544794,0.096318706870079,0.5231743256251017,0.0751353750626245,-0.2474256207545598,2.0394641558329263
0.6,1.688686203171066e+18,0.647066162109375,0.0758775075276692,-0.4234384695688883,0.587958554426829,1.6886862031797207e+18,0.6557205403645834,9.590632756551107,1.9387845198313396,-0.0187437770267327,1.688686203171066e+18,0.647066162109375,9.489566802978516,2.392688592274984,-0.6773658394813538,1.6886862031753992e+18,0.6513990885416666,-0.0633772686123847,-0.14014266928037,-0.0631227418780326,1.6886862031797207e+18,0.6557205403645834,-0.0585412519673506,-0.1363247632980346,-0.0637845136225223,,,,,,,,,,,,1.6886862031738532e+18,0.649853125,-44.35919876098633,-17.26787986755371,-14.883999824523926,1.6886862031738532e+18,0.649853125,-299.7052001953125,77.75791931152344,-147.60779724121093,1.688686203171066e+18,0.647066162109375,-0.8440681099891663,-0.0863330761591593,0.0942180107037226,0.5207850535710653,0.0713436479369798,-0.2463623285293578,2.0447871685028076
0.65,1.6886862032229868e+18,0.6989868164062499,0.1738656361897786,-0.453442374865214,0.6059503753980001,1.6886862032316393e+18,0.7076390787760417,9.684351603190104,1.8951155344645183,0.0488534631828467,1.6886862032229868e+18,0.6989868164062499,9.500053723653158,2.364467144012451,-0.6279598077138265,1.6886862032273142e+18,0.7033141276041667,-0.0226529190937677,-0.0458657975929479,-0.0302887341628471,1.6886862032316393e+18,0.7076390787760417,-0.024180082604289,-0.0288124767442544,-0.0273362202569841,,,,,,,,,,,,1.6886862032238528e+18,0.699852880859375,-44.244519805908205,-17.09463996887207,-15.042599868774412,1.6886862032238528e+18,0.699852880859375,-299.59051513671875,77.93115844726563,-147.76639709472656,1.6886862032229868e+18,0.6989868164062499,-0.8449386556943258,-0.0865213945508002,0.091164211432139,0.5198862155278524,0.066088393330574,-0.2433967888355255,2.0464990933736167
0.7,1.6886862032749025e+18,0.750902099609375,0.3141625722249349,-0.5852710405985514,0.4705250163873036,1.6886862032748997e+18,0.7508997802734375,9.829416275024414,1.7566308975219729,-0.0966102131642401,1.6886862032749025e+18,0.750902099609375,9.506317138671877,2.334182103474935,-0.6458745002746582,1.6886862032792325e+18,0.7552323404947917,-0.0840448774397372,0.0893899463117122,-0.0976366276542345,1.6886862032748997e+18,0.7508997802734375,-0.0804814957082271,0.0859792828559875,-0.0969748571515083,,,,,,,,,,,,1.6886862032738463e+18,0.7498463378906249,-45.017999267578126,-17.10195960998535,-15.18899974822998,1.6886862032738463e+18,0.7498463378906249,-300.3639892578125,77.92383880615235,-147.9127990722656,1.6886862032749025e+18,0.750902099609375,-0.8456107576688131,-0.0847942382097243,0.0910310720403988,0.5190995931625366,0.0679202005267142,-0.2402172883351644,2.048672596613566
0.75,1.6886862033268175e+18,0.8028177897135417,0.4305489857991536,-0.7355029185612997,0.0969423254330952,1.6886862033181647e+18,0.7941649576822917,9.958329518636068,1.5166507164637248,-0.5252245664596558,1.6886862033268175e+18,0.8028177897135417,9.509173075358072,2.303157647450765,-0.7119729320208231,1.6886862033311457e+18,0.8071455078124999,-0.0945313970247904,0.0883209320406118,0.0508545339107512,1.6886862033181647e+18,0.7941649576822917,-0.1064941758910814,0.1155044337113698,-0.0145589547852675,1.688686203343e+18,0.819,0.0,0.0,1.0,12.098999977111816,0.0,0.0,40.20000076293945,-122.753201,49.190391,1.6886862033238543e+18,0.799854248046875,-44.683718872070315,-17.08975944519043,-14.852279663085938,1.6886862033238543e+18,0.799854248046875,-300.02971801757815,77.93603820800782,-147.57607421875,1.6886862033268175e+18,0.8028177897135417,-0.846830427646637,-0.0818616598844527,0.0929008598128954,0.5172478755315145,0.0748161872227986,-0.2369619558254877,2.0538511276245117
0.8,1.6886862033787348e+18,0.8547347005208333,0.0214856465657552,-0.3245929479598998,0.4231859743595123,1.688686203370081e+18,0.8460808919270834,9.586844126383465,1.9501504500706992,-0.3204388370116551,1.6886862033787348e+18,0.8547347005208333,9.491915067036947,2.368818203608195,-0.7265514731407166,1.6886862033744082e+18,0.8504080810546875,0.0104610677808523,-0.0218384333420544,0.1739438772201538,1.688686203370081e+18,0.8460808919270834,-0.0050905432241658,-0.0060068412373462,0.1671225478251775,,,,,,,,,,,,1.688686203373849e+18,0.84984931640625,-44.47631912231445,-17.319119262695313,-14.618039894104005,1.688686203373849e+18,0.84984931640625,-299.8223083496094,77.70667877197266,-147.3418395996094,1.6886862033787348e+18,0.8547347005208333,-0.8469719489415487,-0.0844825307528177,0.0952555512388547,0.5161650776863098,0.0764780963460603,-0.2438535739978154,2.0563274224599204
0.85,1.6886862034306463e+18,0.9066464029947916,-0.0848417282104492,-0.3433248996734619,0.6692001422246298,1.688686203421993e+18,0.897992919921875,9.392227490743002,2.0666011969248452,0.0287138726562261,1.6886862034306463e+18,0.9066464029947916,9.488770802815756,2.392136335372925,-0.6906113823254904,1.6886862034176684e+18,0.8936680501302083,0.1320487037301063,-0.045407649129629,0.0048360157137116,1.688686203421993e+18,0.897992919921875,0.1352557465434073,-0.0346666016460706,-0.0067704239239295,,,,,,,,,,,,1.6886862034238548e+18,0.89985478515625,-44.67639923095703,-17.66072006225586,-14.783959770202635,1.6886862034238548e+18,0.89985478515625,-300.0223876953125,77.36508026123047,-147.50775756835938,1.6886862034306463e+18,0.9066464029947916,-0.84551868836085,-0.0862217148145039,0.0945405761400858,0.5183867812156677,0.0727373361587524,-0.2463036179542541,2.050609032313029
0.9,1.6886862034739067e+18,0.9499068603515626,0.0635256767272949,-0.4376304745674133,0.633767306804657,1.688686203473912e+18,0.949912109375,9.56052303314209,1.9212371508280437,-0.0095712911958495,1.6886862034739067e+18,0.9499068603515626,9.493544101715088,2.3723840713500977,-0.693164587020874,1.6886862034695872e+18,0.9455870768229168,0.0459167050818602,0.0559959808985391,-0.0547742495934168,1.688686203473912e+18,0.949912109375,0.0306450718392928,0.0655662032465139,-0.0522289785246054,,,,,,,,,,,,1.688686203473852e+18,0.949851904296875,-44.625159454345706,-17.40695991516113,-14.517999839782714,1.688686203473852e+18,0.949851904296875,-299.9711547851563,77.61884002685547,-147.24179382324218,1.6886862034739067e+18,0.9499068603515626,-0.8445605337619781,-0.0850840471684932,0.0942847244441509,0.5201811194419861,0.0729683004319667,-0.2442282885313034,2.0464659929275513
0.95,1.688686203517176e+18,0.9931760253906252,0.2331600189208984,-0.4950925906499226,0.4919747908910115,1.6886862035258245e+18,1.0018240559895837,9.759326299031576,1.8197416067123413,-0.2229313105344771,1.688686203517176e+18,0.9931760253906252,9.495993296305338,2.3514812787373858,-0.7297370632489523,1.6886862035214963e+18,0.9974963378906252,-0.051312681287527,0.0968730474511781,-0.0333939669653772,1.6886862035258245e+18,1.0018240559895837,-0.0536543304721513,0.104967010517915,-0.0262672048993408,,,,,,,,,,,,1.688686203523851e+18,0.999850927734375,-44.33235855102539,-16.9970401763916,-14.325239944458009,1.688686203523851e+18,0.999850927734375,-299.6783508300781,78.0287582397461,-147.04903564453124,1.688686203517176e+18,0.9931760253906252,-0.8448442220687866,-0.0832209860285123,0.0952788094679514,0.5198402802149454,0.0767791221539179,-0.2420328557491302,2.047733624776205
1.0,1.6886862035690906e+18,1.0450906575520833,0.2851943969726562,-0.485019048055013,0.2787201801935831,1.688686203577737e+18,1.05373681640625,9.7710911432902,1.86939271291097,-0.4526422818501789,1.6886862035690906e+18,1.0450906575520833,9.492812474568684,2.347788572311402,-0.7812881668408712,1.6886862035734182e+18,1.0494183756510418,-0.052890750269095,0.0548251564614474,0.024892758578062,1.688686203577737e+18,1.05373681640625,-0.0529925599694251,0.0475965836085379,0.0292197211335102,,,,,,,,,,,,1.6886862035738486e+18,1.0498486816406252,-44.588558959960935,-17.143439865112306,-14.332559585571287,1.6886862035738486e+18,1.0498486816406252,-299.9345458984375,77.88235778808594,-147.05635681152344,1.6886862035690906e+18,1.0450906575520833,-0.8453315099080404,-0.0817824403444925,0.0973553930719692,0.5188910762468973,0.0822011455893516,-0.2416448046763737,2.050523519515991
1.05,1.688686203621005e+18,1.0970048828125,0.1803226470947265,-0.3434172074000041,0.344738374153773,1.6886862036296594e+18,1.1056592610677085,9.664610544840494,2.025524377822876,-0.3754737575848897,1.688686203621005e+18,1.0970048828125,9.489608764648438,2.359127998352051,-0.7860899766286215,1.688686203625334e+18,1.1013339029947915,-0.0403171057502428,-0.0214820940357942,0.023518311480681,1.6886862036296594e+18,1.1056592610677085,-0.0412843103210131,-0.0130826973666747,0.0241291771332422,,,,,,,,,,,,1.688686203623853e+18,1.09985302734375,-44.99359970092773,-17.243479537963868,-14.486279678344726,1.688686203623853e+18,1.09985302734375,-300.339599609375,77.78231811523438,-147.21007690429687,1.688686203621005e+18,1.0970048828125,-0.8458815415700277,-0.0822736223538716,0.0977800140778222,0.517836312452952,0.082731045782566,-0.2428352584441502,2.0530307292938232
1.1,1.688686203672921e+18,1.1489212239583333,0.1243292490641275,-0.30275559425354,0.2532876332600911,1.688686203681576e+18,1.1575760091145832,9.599605560302734,2.0472591718037925,-0.5100700159867605,1.688686203672921e+18,1.1489212239583333,9.486778259277344,2.367319822311402,-0.7955365777015686,1.6886862036772442e+18,1.1532441406249998,-0.0419460795819759,0.0388917544235785,0.0352774672210216,1.688686203681576e+18,1.1575760091145832,-0.0421497014661629,0.0459167038400967,0.0430150944739579,,,,,,,,,,,,1.6886862036738516e+18,1.149851708984375,-44.83255920410157,-17.46307945251465,-14.249599838256836,1.6886862036738516e+18,1.149851708984375,-300.1785583496094,77.56271667480469,-146.97339782714843,1.688686203672921e+18,1.1489212239583333,-0.8463590542475382,-0.0824879432717959,0.0983350699146588,0.5169159968694051,0.083744429051876,-0.2436955372492472,2.0552770296732583
1.15,1.688686203724838e+18,1.20083837890625,0.1200691858927408,-0.3396695454915364,0.1609359979629516,1.6886862037248376e+18,1.2008376464843749,9.609276294708252,2.0380866527557373,-0.5898307859897614,1.688686203724838e+18,1.20083837890625,9.47708002726237,2.3954601287841797,-0.8262158830960592,1.688686203729165e+18,1.205164794921875,-0.0150680089524636,0.067551515996456,0.071623949954907,1.6886862037248376e+18,1.2008376464843749,-0.0222965809516608,0.0747546330094336,0.0771980918943881,,,,,,,,,,,,1.6886862037238528e+18,1.199852783203125,-44.61783981323242,-17.470399475097658,-14.291079711914062,1.6886862037238528e+18,1.199852783203125,-299.9638366699219,77.5553970336914,-147.01487731933594,1.688686203724838e+18,1.20083837890625,-0.8464928070704142,-0.0829885751008987,0.1004040166735648,0.516218344370524,0.0870433424909909,-0.2466525733470916,2.057154417037964
1.2,1.688686203776752e+18,1.2527518717447916,0.1056184768676757,-0.3839174111684163,0.1487992207209268,1.688686203768096e+18,1.2440960286458334,9.582855860392252,2.0131614208221436,-0.64765731493632,1.688686203776752e+18,1.2527518717447916,9.46820100148519,2.423955202102661,-0.8447870214780172,1.6886862037810778e+18,1.2570778808593752,0.0403680118421712,0.0043269620897869,0.0483092591166496,1.688686203768096e+18,1.2440960286458334,0.0295251527180273,0.0286088557913899,0.0545706289509931,,,,,,,,,,,,1.688686203773849e+18,1.24984892578125,-44.25671920776367,-17.73391990661621,-13.912879943847656,1.688686203773849e+18,1.24984892578125,-299.60272216796875,77.29187927246093,-146.6366760253906,1.688686203776752e+18,1.2527518717447916,-0.8460385203361511,-0.0837102308869361,0.1020473192135492,0.5165245135625204,0.0890702828764915,-0.2496491968631744,2.0565364360809326
1.25,1.6886862038286656e+18,1.3046656901041669,0.1020889282226562,-0.4722578128178914,0.2391869028409321,1.6886862038200136e+18,1.2960136718750002,9.584451039632162,1.9647067785263064,-0.5471587975819906,1.6886862038286656e+18,1.3046656901041669,9.463555018107096,2.4448978106180825,-0.8364707628885905,1.688686203824344e+18,1.3003441162109377,0.0617737472057342,0.0056505037937313,0.0335975885391235,1.6886862038200136e+18,1.2960136718750002,0.0575740486383437,0.0061086524122704,0.0387390380104382,,,,,,,,,,,,1.6886862038238495e+18,1.299849609375,-44.73495788574219,-17.733919525146483,-14.034879684448242,1.6886862038238495e+18,1.299849609375,-300.08095703125,77.29187927246093,-146.75867919921876,1.6886862038286656e+18,1.3046656901041669,-0.8452361822128296,-0.084723874926567,0.1023706619938214,0.5176076491673788,0.0882417807976404,-0.251853197813034,2.053822120030721
1.3,1.688686203880581e+18,1.3565811360677085,0.0419225692749022,-0.4348643620808919,0.3210145533084869,1.6886862038719322e+18,1.347931966145833,9.50409253438314,2.008973995844523,-0.4739782909552256,1.688686203880581e+18,1.3565811360677085,9.457719484965006,2.466128428777059,-0.8401328921318054,1.6886862038676068e+18,1.3436066080729168,0.0692313921948273,0.0296778697520494,0.0413352139294147,1.6886862038719322e+18,1.347931966145833,0.0659225396811962,0.0343102657546599,0.0429641890029112,,,,,,,,,,,,1.688686203873853e+18,1.349852978515625,-44.878919219970705,-17.763199615478516,-14.4350399017334,1.688686203873853e+18,1.349852978515625,-300.22491455078125,77.26259918212891,-147.1588348388672,1.688686203880581e+18,1.3565811360677085,-0.8441240588823954,-0.0853737692038217,0.1032793223857879,0.5191329518953959,0.0886799792448679,-0.2540888686974843,2.050181150436402
1.35,1.6886862039238472e+18,1.3998472900390624,0.0556802749633789,-0.4387547969818115,0.37725929915905,1.6886862039238474e+18,1.3998474121093751,9.511669476826986,2.026122530301412,-0.4005983968575795,1.6886862039238472e+18,1.3998472900390624,9.454131126403809,2.476997971534729,-0.8485212028026581,1.688686203919521e+18,1.39552099609375,0.0632245528201261,0.0407243507603803,0.0192931607986489,1.6886862039238474e+18,1.3998474121093751,0.0639881367484727,0.0452549333373705,0.0213293780883152,,,,,,,,,,,,1.688686203923854e+18,1.3998541015625,-44.83255844116211,-17.78271903991699,-14.498479461669922,1.688686203923854e+18,1.3998541015625,-300.1785461425781,77.24307861328126,-147.22227783203124,1.6886862039238472e+18,1.3998472900390624,-0.8433083891868591,-0.0854845978319644,0.1040706932544707,0.5202812552452087,0.0895936526358127,-0.2552340924739837,2.0475136041641235
1.4,1.68868620396711e+18,1.443109619140625,0.0263938903808593,-0.3856058915456136,0.4721865554650624,1.6886862039757588e+18,1.4517588704427082,9.483952522277832,2.087737798690796,-0.3074777026971181,1.68868620396711e+18,1.443109619140625,9.450316747029625,2.4892528851826987,-0.8551134069760641,1.6886862039714383e+18,1.4474382324218749,0.0592030237118402,0.0391462817788123,0.0281507062415281,1.6886862039757588e+18,1.4517588704427082,0.0569122793773809,0.0460694208741187,0.0287106664230425,,,,,,,,,,,,1.6886862039738496e+18,1.44984951171875,-45.091199493408205,-17.94375991821289,-14.315479850769044,1.6886862039738496e+18,1.44984951171875,-300.43718872070315,77.08204040527343,-147.03927307128907,1.68868620396711e+18,1.443109619140625,-0.8424186706542969,-0.0856894180178641,0.1048334961136181,0.5215340058008829,0.090321642657121,-0.256525586048762,2.044571320215861
1.45,1.6886862040190272e+18,1.49502734375,0.0336186091105142,-0.4288601080576579,0.5017269651095072,1.6886862040276795e+18,1.5036796061197917,9.493723233540852,2.039681911468506,-0.2869393229484557,1.6886862040190272e+18,1.49502734375,9.447877566019692,2.4942219257354736,-0.8675052722295126,1.688686204023348e+18,1.4993478190104168,0.0643444719413916,0.038077267507712,-0.015118914656341,1.6886862040276795e+18,1.5036796061197917,0.0629191199938455,0.0414370261132716,-0.0147116708879668,,,,,,,,,,,,1.688686204023853e+18,1.4998529296875,-44.837439727783206,-17.58751983642578,-14.27399959564209,1.688686204023853e+18,1.4998529296875,-300.1834350585938,77.43827819824219,-146.99779663085937,1.6886862040190272e+18,1.49502734375,-0.8414493799209595,-0.085391563673814,0.1056666101018587,0.5229775309562683,0.0916457052032152,-0.2570494413375854,2.0412591298421225
1.5,1.6886862040709345e+18,1.5469347330729166,0.0221719741821289,-0.4735281864802043,0.547500729560852,1.6886862040795945e+18,1.555594401041667,9.44626553853353,2.0045871337254844,-0.2827518781026204,1.6886862040709345e+18,1.5469347330729166,9.446961402893066,2.4910335540771484,-0.8863597512245178,1.688686204075266e+18,1.5512658691406251,0.0293724369257688,0.0947859262426693,0.0148643876115481,1.6886862040795945e+18,1.555594401041667,0.0261144886414209,0.1074613779783248,0.0220929599987963,,,,,,,,,,,,1.6886862040738496e+18,1.5498496582031251,-45.02775955200195,-17.66072006225586,-14.21787986755371,1.6886862040738496e+18,1.5498496582031251,-300.3737487792969,77.36507873535156,-146.9416748046875,1.6886862040709345e+18,1.5469347330729166,-0.840619424978892,-0.0845773592591285,0.1065375035007794,0.5242661039034525,0.0936336219310759,-0.2567134698232015,2.0384068489074707
1.55,1.6886862041228562e+18,1.5988560384114583,-0.1455523173014322,-0.5005494753519694,0.6418071985244751,1.68868620413151e+18,1.6075099283854168,9.278967221577965,2.000200311342875,-0.2614158739646275,1.6886862041228562e+18,1.5988560384114583,9.43482526143392,2.5102782249450684,-0.9579344193140664,1.6886862041271852e+18,1.603185302734375,0.0740165052314599,0.2511674265066783,0.0584903471171855,1.68868620413151e+18,1.6075099283854168,0.079972439755996,0.2781473100185394,0.0660752567152181,,,,,,,,,,,,1.688686204123852e+18,1.599851953125,-45.09851913452148,-17.726599502563477,-13.95191993713379,1.688686204123852e+18,1.599851953125,-300.44451293945315,77.29919738769532,-146.67571716308595,1.6886862041228562e+18,1.5988560384114583,-0.8395182092984518,-0.0833181887865066,0.1103535269697506,0.5254386067390442,0.1012688477834065,-0.258742223183314,2.0363144874572754
1.6,1.6886862041747722e+18,1.6507723795572915,-0.4152228037516276,-0.3318302631378174,0.7285421093304952,1.6886862041747743e+18,1.650774169921875,8.947959899902344,2.224726915359497,-0.2814557701349258,1.6886862041747722e+18,1.6507723795572915,9.402003288269045,2.56309445699056,-1.1248288949330647,1.6886862041791035e+18,1.6551039225260418,0.1356629853447277,0.4639521539211272,0.1258382399876912,1.6886862041747743e+18,1.650774169921875,0.1470658034086227,0.468228206038475,0.1321759670972824,1.688686204175e+18,1.651,0.0,0.0,0.9921245574951172,11.836000442504885,0.0544905252754688,0.0,40.20000076293945,-122.7532054,49.1903883,1.688686204173848e+18,1.64984814453125,-45.34007873535156,-17.81443977355957,-12.910039901733398,1.688686204173848e+18,1.64984814453125,-300.6860717773437,77.21135864257812,-145.633837890625,1.6886862041747722e+18,1.6507723795572915,-0.8365549643834432,-0.0806222210327784,0.1195231204231579,0.528561552365621,0.1191588789224624,-0.2643162906169891,2.030463933944702
1.65,1.688686204226688e+18,1.7026880696614584,-0.746387799580892,-0.4413135846455892,0.7361536423365275,1.6886862042180362e+18,1.6940362141927086,8.692526499430338,2.233101765314738,-0.5126622418562571,1.688686204226688e+18,1.7026880696614584,9.360087076822916,2.6237243016560874,-1.3186817566553752,1.6886862042310116e+18,1.707011800130208,0.0927497074007987,0.3334815154472986,0.1221730460723241,1.6886862042180362e+18,1.6940362141927086,0.0837394446134567,0.4093306263287862,0.1031853208939234,,,,,,,,,,,,1.6886862042238528e+18,1.6998527343749998,-45.44743881225586,-18.190199661254884,-12.302479934692382,1.6886862042238528e+18,1.6998527343749998,-300.79343872070314,76.83560028076172,-145.02627868652343,1.688686204226688e+18,1.7026880696614584,-0.8334634105364481,-0.0774820894002914,0.1300943593184153,0.5314173301060995,0.1400497208038965,-0.270724465449651,2.0254815419514975
1.7,1.6886862042785974e+18,1.7545971679687498,-0.5491228103637695,-0.2716536521911621,0.7918567458788554,1.6886862042699482e+18,1.7459484049479166,8.667601267496744,2.410768826802572,-0.5788636803627014,1.6886862042785974e+18,1.7545971679687498,9.2962220509847,2.7810835043589273,-1.4401874939600627,1.6886862042742804e+18,1.7502805175781249,0.1416443809866905,0.3151300996541976,0.4822781085968017,1.6886862042699482e+18,1.7459484049479166,0.1294016204774379,0.2966768840948739,0.4197153250376383,,,,,,,,,,,,1.6886862042738496e+18,1.7498495605468751,-45.36935958862305,-18.71479949951172,-11.60463981628418,1.6886862042738496e+18,1.7498495605468751,-300.71535034179686,76.31099853515624,-144.32843627929688,1.6886862042785974e+18,1.7545971679687498,-0.8300779461860657,-0.080565129717191,0.1402805894613265,0.533648153146108,0.1537983864545822,-0.2874187926451365,2.021190404891968
1.75,1.6886862043305193e+18,1.8065192057291668,0.0990594228108723,-0.6270649433135986,0.8348019321759542,1.6886862043218665e+18,1.7978662109375,9.227322260538736,2.3256242275238037,-0.7148557504018148,1.6886862043305193e+18,1.8065192057291668,9.17805004119873,3.0310111840566,-1.6723650693893433,1.6886862043175424e+18,1.7935425618489582,0.1058833062027891,0.5682064990202585,0.4886412819226582,1.6886862043218665e+18,1.7978662109375,0.1472694339851538,0.6043493549029032,0.5143485367298126,,,,,,,,,,,,1.6886862043238543e+18,1.7998542480468749,-45.06679916381836,-19.661519622802736,-10.552999687194824,1.6886862043238543e+18,1.7998542480468749,-300.41279296875,75.3642791748047,-143.27679748535155,1.6886862043305193e+18,1.8065192057291668,-0.8253910740216573,-0.084563449025154,0.1581810414791107,0.5352644721666971,0.1803526530663172,-0.3140999575455983,2.019629160563151
1.8,1.6886862043737846e+18,1.8497844238281251,0.027472972869873,-0.3960845470428467,0.3113745450973511,1.6886862043737843e+18,1.8497840983072915,9.134002049763998,3.0317063331604004,-1.310269792874654,1.6886862043737846e+18,1.8497844238281251,9.001680374145508,3.4378178119659424,-1.838170289993286,1.6886862043694548e+18,1.8454546712239583,0.7274387081464132,0.5676974356174469,0.9625709255536398,1.6886862043737843e+18,1.8497840983072915,0.7257079283396403,0.5548183719317118,0.9501499931017556,,,,,,,,,,,,1.688686204373855e+18,1.849855078125,-44.93259963989258,-21.059639358520503,-9.847839736938475,1.688686204373855e+18,1.849855078125,-300.2785888671875,73.96616058349609,-142.57163696289064,1.6886862043737846e+18,1.8497844238281251,-0.8138251900672913,-0.0954815112054347,0.1790736317634582,0.5444952547550201,0.2015273422002791,-0.358032152056694,1.9988670945167544
1.85,1.6886862044170452e+18,1.8930452473958332,-0.158203125,-0.3829715251922607,0.8792584935824076,1.688686204425703e+18,1.90170263671875,9.076574643452965,3.3748769760131836,-1.038485050201416,1.6886862044170452e+18,1.8930452473958332,8.912281354268393,3.655711809794108,-1.8554059267044067,1.68868620442137e+18,1.897369873046875,0.3552181323369344,0.0585921543339888,0.0402662009000778,1.688686204425703e+18,1.90170263671875,0.3423899710178375,0.0324267633259296,-0.0331394424041111,,,,,,,,,,,,1.6886862044238536e+18,1.899853662109375,-44.19328002929687,-22.201559829711915,-9.730719757080076,1.6886862044238536e+18,1.899853662109375,-299.5392761230469,72.82423858642578,-142.45451965332032,1.6886862044170452e+18,1.8930452473958332,-0.8059129516283671,-0.1026222134629885,0.1876903225978215,0.5520321528116862,0.2053478757540384,-0.381840964158376,1.9802712599436445
1.9,1.6886862044689644e+18,1.9449642740885416,0.2750304539998372,-0.2772759596506755,0.3478121360143025,1.6886862044776118e+18,1.9536117350260416,9.164909362792969,3.219144105911255,-1.3936197757720947,1.6886862044689644e+18,1.9449642740885416,8.945448875427246,3.610833724339803,-1.7821851174036665,1.6886862044732854e+18,1.9492852376302083,0.473776896794637,-0.0052941665053367,-0.153276270876328,1.6886862044776118e+18,1.9536117350260416,0.4794783095518748,-0.0109446700662374,-0.134288544456164,,,,,,,,,,,,1.6886862044738522e+18,1.949852001953125,-44.38359832763672,-21.284119415283204,-9.820999717712402,1.6886862044738522e+18,1.949852001953125,-299.72959594726564,73.74167938232422,-142.5447998046875,1.6886862044689644e+18,1.9449642740885416,-0.8007999857266744,-0.1008410652478535,0.1841181715329488,0.5609257817268372,0.1967497567335764,-0.3769170343875885,1.9571714401245115
1.95,1.6886862045208717e+18,1.9968716634114585,0.8964799245198568,-1.1228851079940796,0.2632300456364949,1.6886862045295255e+18,2.005525227864583,10.006784121195476,2.3130618731180825,-1.315653642018636,1.6886862045208717e+18,1.9968716634114585,8.974847157796225,3.5786758263905845,-1.6972042322158811,1.6886862045252022e+18,2.001202067057292,0.3078251828749974,0.1351030295093853,-0.2053016275167465,1.6886862045295255e+18,2.005525227864583,0.2943352411190668,0.1943569630384445,-0.2027054578065872,,,,,,,,,,,,1.688686204523854e+18,1.99985400390625,-44.76667938232422,-20.78147964477539,-10.204079818725583,1.688686204523854e+18,1.99985400390625,-300.1126770019531,74.24431915283203,-142.927880859375,1.6886862045208717e+18,1.9968716634114585,-0.7951093316078186,-0.0999181692798931,0.1805119017759958,0.5702851812044779,0.1869956056276957,-0.3733975092569987,1.9326092004776
2.0,1.688686204572792e+18,2.048792154947917,0.678370475769043,-1.102254311243693,0.3762003183364868,1.688686204581446e+18,2.057446044921875,9.46600659688314,2.5020949045817056,-1.4612170457839966,1.688686204572792e+18,2.048792154947917,8.931740125020346,3.5991218090057373,-1.8691974480946856,1.6886862045771154e+18,2.0531155598958333,0.1696678201357523,0.7204646468162537,0.409992395589749,1.688686204581446e+18,2.057446044921875,0.1487456858158111,0.7387906312942505,0.4940372755130132,,,,,,,,,,,,1.688686204573853e+18,2.04985283203125,-44.864279174804686,-20.81807975769043,-9.352519989013672,1.688686204573853e+18,2.04985283203125,-300.21027221679685,74.20771789550781,-142.0763153076172,1.688686204572792e+18,2.048792154947917,-0.7891360918680826,-0.0939911231398582,0.1894756754239399,0.576620082060496,0.2064200540383657,-0.3756452302138011,1.9189260005950928
2.05,1.6886862046247096e+18,2.1007096354166666,0.6914567947387695,-0.5750765005747477,-0.348335305849711,1.6886862046247096e+18,2.1007097167968753,9.34487009048462,3.0194430351257324,-1.9363917112350464,1.6886862046247096e+18,2.1007096354166666,8.725234031677246,3.9341578483581543,-2.148251533508301,1.6886862046296338e+18,2.1056337890625,-0.0039197181661923,0.2034181157747904,0.6148358791445693,1.688686204632518e+18,2.1085179850260416,-0.0164933614432811,0.160097599029541,0.5980879937609037,,,,,,,,,,,,1.6886862046238523e+18,2.099852587890625,-43.97855911254883,-22.39675979614258,-8.510719871520996,1.6886862046238523e+18,2.099852587890625,-299.3245483398438,72.62903747558593,-141.2345184326172,1.6886862046247096e+18,2.1007096354166666,-0.7830962340037028,-0.0994591166575749,0.2130007992188135,0.5757278998692831,0.2415348092714945,-0.4126513600349426,1.9245044787724812
2.1,1.6886862046766252e+18,2.1526251627604167,0.8783254623413086,0.6891967455546061,-0.3159790833791097,1.6886862046679693e+18,2.1439692382812496,9.82213815053304,4.44726022084554,-2.305085817972819,1.6886862046766252e+18,2.1526251627604167,8.684726397196451,4.05413277943929,-2.0914750893910727,1.6886862046766252e+18,2.1526251627604167,0.7076873878637949,0.1783217390378315,-0.0138462806741396,1.6886862046766252e+18,2.1526251627604167,0.7066183785597483,0.1828523303071657,-0.0115555338561534,,,,,,,,,,,,1.688686204673854e+18,2.1498541015625,-44.029798126220705,-22.77495880126953,-8.13007984161377,1.688686204673854e+18,2.1498541015625,-299.37579345703125,72.25083923339844,-140.85387573242187,1.6886862046766252e+18,2.1526251627604167,-0.777975598971049,-0.1048168763518333,0.2153388559818267,0.580822209517161,0.2364183664321899,-0.4260215262571971,1.910333037376404
2.15,1.688686204728537e+18,2.2045372721354166,1.219468116760254,-0.8824309508005778,0.6972300211588541,1.6886862047198843e+18,2.1958843587239585,9.749156951904297,3.6039896806081138,-1.6510476271311445,1.688686204728537e+18,2.2045372721354166,8.538000424702963,4.241312821706136,-2.308871269226074,1.688686204728537e+18,2.2045372721354166,0.6925684809684753,1.257720669110616,0.2225076680382092,1.688686204728537e+18,2.2045372721354166,0.6914994517962137,1.2622512181599934,0.2247984086473782,,,,,,,,,,,,1.6886862047238528e+18,2.1998530273437504,-44.16155853271484,-22.77007942199707,-7.734799766540528,1.6886862047238528e+18,2.1998530273437504,-299.50755004882814,72.25571746826172,-140.4585968017578,1.688686204728537e+18,2.2045372721354166,-0.7593362331390381,-0.1001000156005223,0.2339953780174255,0.5987721085548401,0.2642351488272349,-0.4470825692017872,1.8665800094604492
2.2,1.688686204780455e+18,2.256454833984375,-0.9134729703267416,-0.6445008118947347,0.1742180188496907,1.6886862047718031e+18,2.247802978515625,7.863213857014974,3.786043643951416,-2.6771697203318277,1.688686204780455e+18,2.256454833984375,8.335746129353842,4.412555535634358,-2.6965277194976807,1.688686204780455e+18,2.256454833984375,0.5394958257675171,0.7332419206698736,0.3421354393164317,1.688686204780455e+18,2.256454833984375,0.538426806529363,0.7376706947882968,0.3444261799256007,,,,,,,,,,,,1.6886862047738516e+18,2.2498517578125,-44.5202392578125,-23.099479293823244,-5.350920009613037,1.6886862047738516e+18,2.2498517578125,-299.8662353515625,71.926318359375,-138.07471618652343,1.688686204780455e+18,2.256454833984375,-0.7430208325386047,-0.0899039457241693,0.2589298288027445,0.6105309327443441,0.3129912912845611,-0.466547538836797,1.8409016529719036
2.25,1.6886862048237194e+18,2.299719482421875,0.0731275081634521,-1.785419225692749,0.2952111363410949,1.688686204823719e+18,2.299718424479167,8.177471478780111,2.7320052782694497,-2.1816560427347818,1.6886862048237194e+18,2.299719482421875,8.323422908782959,4.510701656341553,-2.57006299495697,1.6886862048237194e+18,2.299719482421875,1.0389290750026705,-0.279776282608509,-0.4428009390830993,1.6886862048237194e+18,2.299719482421875,1.0378600358963013,-0.2753475084900856,-0.4404338523745537,,,,,,,,,,,,1.6886862048238513e+18,2.299851171875,-44.25427932739258,-23.2361198425293,-5.570519924163818,1.6886862048238513e+18,2.299851171875,-299.60027465820315,71.78967895507813,-138.29431762695313,1.6886862048237194e+18,2.299719482421875,-0.7320587337017059,-0.0937679782509803,0.2588024884462356,0.6231284737586975,0.2995981872081756,-0.4777692407369613,1.8047103881835935
2.3,1.688686204866982e+18,2.3429820963541665,1.1254253387451172,-0.8384160200754801,1.509534279505412,1.688686204875634e+18,2.3516341145833333,9.697312355041504,3.5956149101257324,-0.1120638468613227,1.688686204866982e+18,2.3429820963541665,8.518184979756674,4.303778648376465,-2.2665390968322754,1.688686204866982e+18,2.3429820963541665,0.8380053043365479,-0.1730275799830754,-0.942819615205129,1.688686204866982e+18,2.3429820963541665,0.8369363149007162,-0.1684969961643219,-0.9405288497606912,,,,,,,,,,,,1.688686204873853e+18,2.349852734375,-45.20587921142578,-21.206039428710938,-7.1174798011779785,1.688686204873853e+18,2.349852734375,-300.5518737792969,73.81975860595703,-139.84127807617188,1.688686204866982e+18,2.3429820963541665,-0.721562922000885,-0.0899306833744048,0.2402592698733011,0.6430059274037679,0.2602037787437439,-0.4541876117388407,1.7463314533233645
2.35,1.6886862049188948e+18,2.3948949381510416,1.5269076029459636,-1.4538171291351318,3.086068630218506,1.6886862049275497e+18,2.4035498860677085,9.958728472391764,2.226920207341512,0.659023235241572,1.6886862049188948e+18,2.3948949381510416,8.653093655904135,3.960255940755209,-2.3796629905700684,1.6886862049188948e+18,2.3948949381510416,-0.4755076852937539,0.5107342302799225,-0.4403829301397006,1.6886862049188948e+18,2.3948949381510416,-0.476576695839564,0.5152139266331991,-0.4380921882887681,,,,,,,,,,,,1.6886862049238528e+18,2.39985283203125,-46.316079711914064,-19.39555931091309,-6.417199993133545,1.6886862049238528e+18,2.39985283203125,-301.6620727539063,75.63023986816407,-139.1409942626953,1.6886862049188948e+18,2.3948949381510416,-0.7202893098195394,-0.0707219392061233,0.2322673002878824,0.6497646570205688,0.2684569656848907,-0.4155589540799458,1.7305445273717244
2.4,1.688686204970813e+18,2.4468128255208335,-1.0209784507751465,-2.717103958129883,2.474440097808838,1.688686204979465e+18,2.4554649251302085,7.248258590698242,1.2677971919377644,0.0267198527387032,1.688686204970813e+18,2.4468128255208335,8.62650203704834,3.9549480279286704,-2.484286069869995,1.688686204970813e+18,2.4468128255208335,-0.7003060976664225,-0.6583091293772062,0.4832453032334645,1.688686204970813e+18,2.4468128255208335,-0.7013751069704691,-0.6538803353905678,0.4855360587437947,,,,,,,,,,,,1.6886862049738524e+18,2.449852392578125,-45.576759338378906,-19.77863998413086,-5.880399894714356,1.6886862049738524e+18,2.449852392578125,-300.92275390625,75.24715881347656,-138.60419921875,1.688686204970813e+18,2.4468128255208335,-0.7326246500015259,-0.0715796252091725,0.2349027295907338,0.6347347299257914,0.280513862768809,-0.4149525860945384,1.7731407086054485
2.45,1.6886862050227249e+18,2.4987246907552083,-1.4574488004048665,-2.7993878523508706,1.6693565448125205,1.688686205031378e+18,2.5073778483072915,7.422137101491292,0.7844470056394736,-0.5290132140119871,1.6886862050227249e+18,2.4987246907552083,8.764467557271322,3.882695436477661,-2.0780062675476074,1.6886862050227249e+18,2.4987246907552083,-0.7220427195231119,-1.171894073486328,-0.4901684435705344,1.6886862050227249e+18,2.4987246907552083,-0.7231117288271586,-1.1674652894337971,-0.4878777116537094,,,,,,,,,,,,1.6886862050238543e+18,2.499854345703125,-44.895999908447266,-20.59847984313965,-7.851919937133789,1.6886862050238543e+18,2.499854345703125,-300.2419921875,74.42732086181641,-140.57571716308593,1.6886862050227249e+18,2.4987246907552083,-0.7503916422526041,-0.0874707574645677,0.2134817292292912,0.6193297902743021,0.2329989423354466,-0.406937966744105,1.8099228938420613
2.5,1.688686205074644e+18,2.55064404296875,-2.1516969998677573,-3.962167978286743,0.7653759717941284,1.6886862050746404e+18,2.550640258789062,6.7932233810424805,-0.8045866191387177,-1.0935199856758118,1.688686205074644e+18,2.55064404296875,9.056921005249023,3.199014107386271,-1.9764188528060913,1.688686205074644e+18,2.55064404296875,-0.8422813415527344,-0.2416481177012125,-1.627243200937907,1.688686205074644e+18,2.55064404296875,-0.843350370724996,-0.2372193386157353,-1.6249524752298992,,,,,,,,,,,,1.68868620507385e+18,2.549849755859375,-45.39863967895508,-18.661119842529295,-8.925519943237305,1.68868620507385e+18,2.549849755859375,-300.7446350097656,76.36467742919922,-141.64931640625,1.688686205074644e+18,2.55064404296875,-0.7689041892687479,-0.0665563556055227,0.1838523745536804,0.6085763374964396,0.2149943709373473,-0.3322712083657582,1.8387162288029988
2.55,1.6886862051265585e+18,2.6025585123697916,-1.9418090184529624,-4.353718280792236,-0.650849183400472,1.6886862051179026e+18,2.593902587890625,7.410771210988362,-1.995414773623149,-2.2751755317052207,1.6886862051265585e+18,2.6025585123697916,9.34733231862386,2.203923463821411,-1.978938142458598,1.6886862051265585e+18,2.6025585123697916,-1.0516554315884907,-0.2925026466449101,-1.9162333408991497,1.6886862051265585e+18,2.6025585123697916,-1.0527244408925374,-0.2880229651927947,-1.913942575454712,,,,,,,,,,,,1.688686205123854e+18,2.5998541015625003,-46.87971878051758,-14.608279991149905,-8.783999633789062,1.688686205123854e+18,2.5998541015625003,-302.2257141113281,80.41751861572266,-141.50780029296874,1.6886862051265585e+18,2.6025585123697916,-0.7875723441441854,-0.028877797226111,0.1501426597436268,0.5967366496721903,0.2087601423263549,-0.2266790022452671,1.8686355352401731
2.6,1.6886862051784748e+18,2.654474853515625,-1.6044034957885742,-4.131621281305949,-1.8310004075368245,1.6886862051698235e+18,2.64582373046875,7.617949644724528,-2.9752755165100098,-3.5716866652170816,1.6886862051784748e+18,2.654474853515625,9.54910945892334,1.044637680053711,-1.96050226688385,1.6886862051784748e+18,2.654474853515625,-1.051960865656535,-0.1691587641835213,-2.2205970287323,1.6886862051784748e+18,2.654474853515625,-1.0530298550923665,-0.1647299999992052,-2.218306303024292,,,,,,,,,,,,1.6886862051738514e+18,2.6498513671875,-47.448239135742185,-9.820999717712402,-9.049959945678712,1.6886862051738514e+18,2.6498513671875,-302.7942260742187,85.20479888916016,-141.7737579345703,1.6886862051784748e+18,2.654474853515625,-0.8053664366404215,0.0155041045315253,0.1130572905143101,0.5814167062441508,0.2025910466909407,-0.1067336772878964,1.901875416437785
2.65,1.688686205230391e+18,2.706390869140625,0.968065897623698,-2.183532396952311,-2.325029532114665,1.6886862052217344e+18,2.6977342122395833,9.90249729156494,-2.5986053943634033,-4.26480754216512,1.688686205230391e+18,2.706390869140625,9.542344093322754,-0.3674587408701579,-2.1980786323547363,1.688686205230391e+18,2.706390869140625,-1.5340862274169922,0.9894998868306478,-2.772564649581909,1.688686205230391e+18,2.706390869140625,-1.5351552963256836,0.9939795434474944,-2.7702229817708335,,,,,,,,,,,,1.688686205223852e+18,2.6998520507812502,-48.12411880493164,-4.52131986618042,-7.851919937133789,1.688686205223852e+18,2.6998520507812502,-303.4701171875,90.50447845458984,-140.57571716308593,1.688686205230391e+18,2.706390869140625,-0.8196620941162109,0.0793694257736205,0.0826870227853456,0.5607247948646545,0.2265027662118276,0.0375200187166531,1.93706218401591
2.7,1.6886862052736538e+18,2.7496539306640626,2.755765914916992,-2.2209811210632324,-3.6281121969223022,1.688686205273654e+18,2.749654052734375,11.695120175679524,-3.958127419153849,-6.450252215067546,1.6886862052736538e+18,2.7496539306640626,9.18874216079712,-1.7374882102012634,-2.941557288169861,1.6886862052736538e+18,2.7496539306640626,-2.2169063091278076,2.833040237426758,-2.7290403842926025,1.6886862052736538e+18,2.7496539306640626,-2.217975378036499,2.8374691009521484,-2.7267496585845947,,,,,,,,,,,,1.6886862052738524e+18,2.749852587890625,-48.0777587890625,1.5347599625587462,-3.969879841804505,1.6886862052738524e+18,2.749852587890625,-303.4237487792969,96.56055755615236,-136.6936767578125,1.6886862052736538e+18,2.7496539306640626,-0.8326815068721771,0.1573881804943084,0.081175222992897,0.5242861807346344,0.3100045323371887,0.1781398355960846,1.9895266890525816
2.75,1.688686205316916e+18,2.792915934244792,0.9702625274658204,-2.442488670349121,-4.7099043528238935,1.688686205325572e+18,2.8015721842447916,9.612367312113443,-5.407180945078532,-8.539386113484701,1.688686205316916e+18,2.792915934244792,8.614723523457846,-2.9055126508076987,-3.667044242223104,1.688686205316916e+18,2.792915934244792,-1.4485142230987549,1.6258178353309631,-2.075974623362223,1.688686205316916e+18,2.792915934244792,-1.4495832324028015,1.6302466591199238,-2.0736838976542153,,,,,,,,,,,,1.6886862053238508e+18,2.79985078125,-47.09199981689453,6.2854398727417,1.122399951517582,1.6886862053238508e+18,2.79985078125,-302.43800048828126,101.31123962402344,-131.60140075683594,1.688686205316916e+18,2.792915934244792,-0.8382089336713155,0.2290652940670648,0.0903160050511359,0.4862066308657328,0.4026687939961751,0.3008688390254974,2.0282227198282876
2.8,1.68868620536883e+18,2.844830078125,4.3275190989176435,-0.0303393205006917,-4.42621390024821,1.6886862053774856e+18,2.8534852701822917,12.471790631612144,-3.369493087132772,-7.9334031740824384,1.68868620536883e+18,2.844830078125,8.103529930114746,-3.808787981669108,-3.993207534154256,1.68868620536883e+18,2.844830078125,-0.4281656245390574,1.4829262693723042,-1.6931148767471311,1.68868620536883e+18,2.844830078125,-0.4292346437772115,1.487405925989151,-1.6908241113026936,,,,,,,,,,,,1.688686205373851e+18,2.849850732421875,-45.618238830566405,9.713639831542968,2.874319911003113,1.688686205373851e+18,2.849850732421875,-300.9642272949219,104.73943786621092,-129.84947662353517,1.68868620536883e+18,2.844830078125,-0.8331984678904215,0.2815137604872385,0.0863675897320111,0.4677208364009857,0.4581621785958608,0.3988600671291351,2.024013042449951
2.85,1.6886862054207508e+18,2.896750895182292,0.3806743621826172,2.023875633875529,-1.2212297121683755,1.6886862054293972e+18,2.905397216796875,7.5708909034729,-2.7341986497243247,-6.00139840443929,1.6886862054207508e+18,2.896750895182292,7.238807042439778,-4.584836959838867,-4.7696757316589355,1.6886862054207508e+18,2.896750895182292,-0.7111998796463013,1.6633351345856984,-1.3306172092755637,1.6886862054207508e+18,2.896750895182292,-0.7122688889503479,1.6677639683087666,-1.3283264835675557,,,,,,,,,,,,1.68868620542385e+18,2.899849853515625,-43.517399597167966,13.327279663085935,7.707959842681885,1.68868620542385e+18,2.899849853515625,-298.8633972167969,108.3530776977539,-125.01583709716796,1.6886862054207508e+18,2.896750895182292,-0.8211161295572916,0.344329833984375,0.1111582989494005,0.4412081638971964,0.5828408996264139,0.4864133497079213,2.006706873575846
2.9,1.6886862054726638e+18,2.948663981119792,3.1558615366617837,2.1660563945770264,-1.9351522127787273,1.6886862054813156e+18,2.9573155110677085,9.44187879562378,-2.870789051055908,-6.629713853200276,1.6886862054726638e+18,2.948663981119792,6.858436902364095,-4.982850392659505,-4.932323932647705,1.6886862054726638e+18,2.948663981119792,-0.420682539542516,1.2305371661980946,-0.5429064830144247,1.6886862054726638e+18,2.948663981119792,-0.4218024512132008,1.2350168228149414,-0.5406157573064169,,,,,,,,,,,,1.688686205473851e+18,2.949850830078125,-42.4462387084961,14.600959777832031,8.993839836120605,1.688686205473851e+18,2.949850830078125,-297.792236328125,109.6267578125,-123.7299591064453,1.6886862054726638e+18,2.948663981119792,-0.818342129389445,0.3701539635658264,0.115469309190909,0.4240651528040568,0.6236311594645182,0.5328168670336405,2.0098230044047036
2.95,1.6886862055245793e+18,3.000579345703125,-0.9969070752461752,1.795836289723714,-0.0451149940490722,1.6886862055245793e+18,3.000579345703125,4.760221481323242,-3.4414771795272827,-5.2680981159210205,1.6886862055245793e+18,3.000579345703125,6.273615678151448,-5.249719301859538,-5.412589867909749,1.6886862055245793e+18,3.000579345703125,-0.2119702423612276,1.0361292536060016,-0.6766859690348307,1.6886862055245793e+18,3.000579345703125,-0.2130392541488011,1.0406598150730133,-0.6743952433268229,,,,,,,,,,,,1.6886862055238497e+18,2.999849755859375,-40.74067916870117,15.608679580688475,12.378119659423827,1.6886862055238497e+18,2.999849755859375,-296.0866760253906,110.63447723388671,-120.3456771850586,1.6886862055245793e+18,3.000579345703125,-0.8102977275848389,0.4004529317220052,0.1408858845631281,0.4039123555024465,0.7119832038879395,0.5647079348564148,2.001752018928528
3.0,1.688686205576495e+18,3.0524951985677085,1.8720262845357256,0.7047457695007324,-0.5918426513671875,1.6886862055678423e+18,3.04384228515625,7.387839794158936,-4.667200565338135,-5.892525355021159,1.688686205576495e+18,3.0524951985677085,6.046159108479817,-5.510174592336019,-5.41381851832072,1.688686205576495e+18,3.0524951985677085,0.3624976153175036,-0.2664390554030736,-1.0734938581784566,1.688686205576495e+18,3.0524951985677085,0.3614286035299301,-0.2619593739509583,-1.071203092734019,,,,,,,,,,,,1.6886862055738486e+18,3.04984853515625,-39.67928009033203,17.016559600830078,12.483039665222169,1.6886862055738486e+18,3.04984853515625,-295.0252746582031,112.0423583984375,-120.24075622558594,1.688686205576495e+18,3.0524951985677085,-0.7997920711835226,0.4180952012538909,0.1304361422856648,0.4104167520999908,0.730366031328837,0.5964516003926595,1.9593202273050945
3.05,1.688686205628409e+18,3.104409342447917,2.306989828745524,1.762849489847819,1.377089897791545,1.688686205619758e+18,3.0957582194010413,8.00359296798706,-4.165306091308594,-4.536592245101929,1.688686205628409e+18,3.104409342447917,5.719271659851074,-5.625705560048421,-5.645362377166748,1.688686205628409e+18,3.104409342447917,0.4875213851531346,0.4133521417776744,-0.5105306456486384,1.688686205628409e+18,3.104409342447917,0.4864523708820343,0.4177809258302052,-0.5082398951053619,,,,,,,,,,,,1.6886862056238515e+18,3.0998515625,-38.25919952392578,18.785559463500977,13.166239547729491,1.6886862056238515e+18,3.0998515625,-293.6051940917969,113.81135864257811,-119.55755920410157,1.688686205628409e+18,3.104409342447917,-0.7830861806869507,0.4372079968452453,0.1317498435576756,0.4221885204315185,0.7789620757102966,0.6107404430707296,1.8953115542729695
3.1,1.6886862056803264e+18,3.156326416015625,1.396218458811442,0.8552785714467367,0.950730800628662,1.6886862056716703e+18,3.14767041015625,7.802994569142659,-4.363910277684529,-4.578865607579549,1.6886862056803264e+18,3.156326416015625,5.571418444315593,-5.549042383829753,-5.86446746190389,1.6886862056803264e+18,3.156326416015625,-0.4161519557237625,1.339627464612325,0.6103052894274393,1.6886862056803264e+18,3.156326416015625,-0.4172209699948628,1.344107170899709,0.6126469175020853,,,,,,,,,,,,1.688686205673855e+18,3.149855078125,-38.16404037475586,18.52203941345215,14.718079948425292,1.688686205673855e+18,3.149855078125,-293.5100341796875,113.54783935546877,-118.00571746826172,1.6886862056803264e+18,3.156326416015625,-0.7847209771474203,0.4394091268380483,0.151357019941012,0.4099751611550649,0.811100959777832,0.6012397805849711,1.914090116818746
3.15,1.6886862057235855e+18,3.19958544921875,-0.9355788230895996,0.945227861404419,0.237584352493286,1.6886862057235896e+18,3.1995895182291663,4.3940199216206866,-4.645465850830078,-5.840481440226237,1.6886862057235855e+18,3.19958544921875,5.265527248382568,-5.551553964614868,-6.138459920883179,1.6886862057235855e+18,3.19958544921875,-0.2134210430085658,1.5277739763259888,0.1412625880911945,1.6886862057235855e+18,3.19958544921875,-0.2144900560379027,1.5322027802467346,0.1435533389449119,,,,,,,,,,,,1.6886862057238543e+18,3.19985419921875,-36.9806396484375,17.665599822998047,17.214199829101563,1.6886862057238543e+18,3.19985419921875,-292.3266357421875,112.69139862060548,-115.5095962524414,1.6886862057235855e+18,3.19958544921875,-0.7862349152565002,0.4473527073860168,0.1774875298142432,0.3875110298395156,0.8618936836719513,0.6015523970127106,1.9424226880073547
3.2,1.6886862057668516e+18,3.2428514811197915,0.4058238665262858,1.648200750350952,-0.3054723739624023,1.6886862057755092e+18,3.251509195963542,5.306084156036377,-4.071387767791748,-6.890132904052734,1.6886862057668516e+18,3.2428514811197915,4.708970546722412,-5.624317328135173,-6.507567087809245,1.6886862057668516e+18,3.2428514811197915,-0.1413643956184387,2.165517250696818,-0.345800628264745,1.6886862057668516e+18,3.2428514811197915,-0.1424334123730659,2.169996976852417,-0.3435098975896835,,,,,,,,,,,,1.6886862057738532e+18,3.249853076171875,-34.909078979492186,18.09503936767578,20.722919845581053,1.6886862057738532e+18,3.249853076171875,-290.25507202148435,113.12083892822264,-112.0008773803711,1.6886862057668516e+18,3.2428514811197915,-0.7774432500203451,0.4662283658981323,0.2060678054889042,0.3680714070796966,0.9446123043696084,0.6105853120485941,1.937875310579936
3.25,1.6886862058187692e+18,3.2947689615885416,1.4732060432434082,0.8312147458394369,0.1949904759724935,1.6886862058274202e+18,3.3034200846354165,5.1198428471883135,-4.787838617960612,-6.819145838419597,1.6886862058187692e+18,3.2947689615885416,3.711179574330648,-5.639833927154541,-7.110123634338379,1.6886862058187692e+18,3.2947689615885416,0.1984293883045514,2.912198225657145,0.2681189378102621,1.6886862058187692e+18,3.2947689615885416,0.1973603765169779,2.9166778723398843,0.270409678419431,,,,,,,,,,,,1.688686205823853e+18,3.2998529296875,-31.86883964538574,18.073079299926757,25.695639419555665,1.688686205823853e+18,3.2998529296875,-287.21483154296874,113.0988784790039,-107.02815856933594,1.6886862058187692e+18,3.2947689615885416,-0.7594492435455322,0.492964247862498,0.2598938296238581,0.3350164989630381,1.0896820624669392,0.6125230391820272,1.9321550528208415
3.3,1.688686205870684e+18,3.346683756510417,1.1054716110229492,0.4978295962015788,-1.0841201146443684,1.688686205879331e+18,3.3553311360677083,3.971288045247396,-5.139184792836507,-9.055836995442707,1.688686205870684e+18,3.346683756510417,3.0651548703511557,-5.352909406026204,-7.625829855600993,1.688686205870684e+18,3.346683756510417,0.4793764948844909,1.8302541176478069,0.9900089701016744,1.688686205870684e+18,3.346683756510417,0.4783074855804443,1.834733764330546,0.9924015204111736,,,,,,,,,,,,1.6886862058738555e+18,3.349855810546875,-29.2385196685791,16.313840103149413,29.445919799804688,1.6886862058738555e+18,3.349855810546875,-284.5845153808594,111.33963623046876,-103.27787628173829,1.688686205870684e+18,3.346683756510417,-0.7502297759056091,0.4928236007690429,0.3174389104048411,0.3054576913515726,1.188589771588643,0.577251156171163,1.9723774592081704
3.35,1.6886862059225992e+18,3.3985992838541663,0.642505407333374,-1.0674158732096355,-1.1198255221048992,1.688686205931248e+18,3.407247802734375,3.1300113995869956,-5.86421012878418,-8.85763104756673,1.6886862059225992e+18,3.3985992838541663,2.6092771689097085,-4.9469865163167315,-8.056326389312744,1.6886862059225992e+18,3.3985992838541663,0.940732479095459,1.4449508587519329,0.4078543583552043,1.6886862059225992e+18,3.3985992838541663,0.9396634499231974,1.4494814078013103,0.4101451138655345,,,,,,,,,,,,1.6886862059238502e+18,3.399850341796875,-27.38411979675293,14.35207977294922,32.481280136108396,1.6886862059238502e+18,3.399850341796875,-282.73011474609376,109.3778793334961,-100.24251861572266,1.6886862059225992e+18,3.3985992838541663,-0.7387011647224426,0.4859271248181661,0.3616459170977275,0.2953706681728362,1.2575101852416992,0.5286425749460856,1.992305318514506
