seconds_elapsed_rounded,accelerometer_time,accelerometer_seconds_elapsed,accelerometer_z,accelerometer_y,accelerometer_x,accelerometeruncalibrated_time,accelerometeruncalibrated_seconds_elapsed,accelerometeruncalibrated_z,accelerometeruncalibrated_y,accelerometeruncalibrated_x,gravity_time,gravity_seconds_elapsed,gravity_z,gravity_y,gravity_x,gyroscope_time,gyroscope_seconds_elapsed,gyroscope_z,gyroscope_y,gyroscope_x,gyroscopeuncalibrated_time,gyroscopeuncalibrated_seconds_elapsed,gyroscopeuncalibrated_z,gyroscopeuncalibrated_y,gyroscopeuncalibrated_x,location_time,location_seconds_elapsed,location_bearingAccuracy,location_speedAccuracy,location_verticalAccuracy,location_horizontalAccuracy,location_speed,location_bearing,location_altitude,location_longitude,location_latitude,magnetometer_time,magnetometer_seconds_elapsed,magnetometer_z,magnetometer_y,magnetometer_x,magnetometeruncalibrated_time,magnetometeruncalibrated_seconds_elapsed,magnetometeruncalibrated_z,magnetometeruncalibrated_y,magnetometeruncalibrated_x,orientation_time,orientation_seconds_elapsed,orientation_qz,orientation_qy,orientation_qx,orientation_qw,orientation_roll,orientation_pitch,orientation_yaw
0.0,1.688686307519838e+18,104.9958379720052,-0.0435789426167805,0.1394230524698892,-0.1640446186065673,1.688686307528481e+18,105.00448103841148,-1.0857432285944622,-9.548558553059896,-1.2340982755025227,1.688686307519838e+18,104.9958379720052,-1.038040280342102,-9.688024520874023,-1.1405177513758342,1.6886863075241656e+18,105.00016564941406,-0.0157297803089022,-0.1374446786940097,-0.0269544296897947,1.6886863075241656e+18,105.00016564941406,-0.0167224355973302,-0.1328631937503814,-0.0245109680108725,,,,,,,,,,,,1.6886863075238456e+18,104.99984580078126,-12.026759719848632,42.76831893920898,2.8889598846435547,1.6886863075238456e+18,104.99984580078126,-267.37275390625,137.7941162109375,-129.8348358154297,1.688686307519838e+18,104.9958379720052,-0.6641024152437845,0.743579109509786,0.0003913064623096,0.0778269072373707,2.3092195987701416,1.4129329522450764,0.7224659522374471
0.05,1.6886863075717522e+18,105.04775227864585,-0.147219697634379,0.2018887201944986,-0.2232335408528646,1.6886863075804047e+18,105.05640470377604,-1.20478618144989,-9.528818130493164,-1.3304093678792317,1.6886863075717522e+18,105.04775227864585,-1.04945441087087,-9.687678337097168,-1.1329738696416218,1.688686307567427e+18,105.04342724609376,-0.0472911509374777,-0.1502728487054506,-0.0376700224975744,1.688686307567427e+18,105.04342724609376,-0.0482583555082479,-0.145691360036532,-0.0352265623708565,,,,,,,,,,,,1.6886863075738458e+18,105.04984580078126,-12.112159919738769,42.90495910644531,2.8157599925994874,1.6886863075738458e+18,105.04984580078126,-267.4581604003906,137.93075866699218,-129.9080352783203,1.6886863075717522e+18,105.04775227864585,-0.6634136041005453,0.7439651687939962,-0.0025992455581823,0.0799366583426793,2.3179752826690674,1.4127089977264404,0.7064621448516846
0.1,1.688686307623667e+18,105.09966707356772,0.0788921912511189,-0.0454889933268229,-0.4606136878331502,1.6886863076236662e+18,105.09966613769532,-0.993619590997696,-9.798309326171877,-1.5337992906570437,1.688686307623667e+18,105.09966707356772,-1.0675901174545288,-9.688356717427572,-1.1099507808685305,1.688686307619342e+18,105.09534204101564,-0.1008945753177006,-0.3556253910064697,-0.0937169119715689,1.688686307619342e+18,105.09534204101564,-0.101810872554779,-0.3510438899199168,-0.0912225432693957,,,,,,,,,,,,1.6886863076238472e+18,105.09984716796872,-11.831559562683106,42.85859832763672,2.6839999198913573,1.6886863076238472e+18,105.09984716796872,-267.17755126953125,137.8843963623047,-130.039794921875,1.688686307623667e+18,105.09966707356772,-0.6621952454249064,0.7445311546325684,-0.0091638726492722,0.0841322938601175,2.3367668787638345,1.4131489197413127,0.67237788438797
0.15,1.6886863076755796e+18,105.1515799153646,0.4225482543309529,0.1568991343180338,-0.1696310440699259,1.6886863076669202e+18,105.14292016601564,-0.6843472917874655,-9.539984385172524,-1.255434274673462,1.6886863076755796e+18,105.1515799153646,-1.1031702756881714,-9.686158816019692,-1.094253341356913,1.6886863076712522e+18,105.14725219726564,-0.0484110706796248,-0.2669990162054697,-0.1074613779783248,1.6886863076712522e+18,105.14725219726564,-0.0493273676062623,-0.2624175349871317,-0.1050179153680801,,,,,,,,,,,,1.6886863076738437e+18,105.14984355468752,-11.560719680786132,43.21971893310547,2.1642799615859984,1.6886863076738437e+18,105.14984355468752,-266.9067138671875,138.24552001953126,-130.55951538085938,1.6886863076755796e+18,105.1515799153646,-0.6601482431093851,0.7456280390421549,-0.0163665448005,0.0892886519432067,2.36026938756307,1.4117279450098674,0.6312902172406515
0.2,1.688686307727494e+18,105.20349373372396,0.4215758641560872,-0.2552169164021809,0.2515059113502502,1.6886863077188434e+18,105.19484342447916,-0.7339983383814493,-9.893324534098308,-0.8953144550323486,1.688686307727494e+18,105.20349373372396,-1.140881856282552,-9.680423736572266,-1.106217583020528,1.68868630772317e+18,105.1991700846354,0.0255036232993006,-0.1138754611214001,-0.1083776752154032,1.68868630772317e+18,105.1991700846354,0.0244855160514513,-0.1092939749360084,-0.1058324029048283,,,,,,,,,,,,1.6886863077238484e+18,105.19984863281248,-11.47531967163086,43.04403991699219,1.922719931602478,1.6886863077238484e+18,105.19984863281248,-266.8213134765625,138.06983337402343,-130.80108032226562,1.688686307727494e+18,105.20349373372396,-0.6582750876744589,0.7468530734380087,-0.019071077927947,0.0923020218809445,2.3716286023457847,1.4080804586410522,0.6117710868517557
0.25,1.6886863077794097e+18,105.25540950520832,0.4036048452059428,-0.29707400004069,0.8283836841583252,1.688686307770755e+18,105.24675512695312,-0.6941179633140564,-10.00738271077474,-0.2971088091532388,1.6886863077794097e+18,105.25540950520832,-1.1725618839263916,-9.675455729166666,-1.116594632466634,1.6886863077750797e+18,105.25107975260418,0.0400625790158907,0.1314378343522548,-0.0283543293674786,1.6886863077750797e+18,105.25107975260418,0.0390953756868839,0.1360193279882271,-0.0258599619070688,,,,,,,,,,,,1.688686307773843e+18,105.24984296875,-11.211799621582031,43.28559951782226,2.3570399284362793,1.688686307773843e+18,105.24984296875,-266.55779418945315,138.31139221191407,-130.36676025390625,1.6886863077794097e+18,105.25540950520832,-0.657092293103536,0.7479579647382101,-0.0180847992499669,0.0919768884778022,2.380680004755656,1.4049769639968872,0.6045664350191752
0.3,1.6886863078313196e+18,105.30731966145834,-0.1383721431096395,-0.1607577006022135,0.9083488583564758,1.68868630782267e+18,105.29867008463542,-1.2113664547602336,-9.8987086613973,-0.125423789024353,1.6886863078313196e+18,105.30731966145834,-1.149029811223348,-9.68036651611328,-1.098254680633545,1.6886863078269944e+18,105.30299454752604,0.0067704231478273,0.3289509316285451,0.1161153043309847,1.6886863078269944e+18,105.30299454752604,0.0058032198964307,0.3335324327150981,0.1185587594906488,,,,,,,,,,,,1.6886863078238472e+18,105.29984731445312,-11.182519721984864,43.202639770507815,2.4570799350738524,1.6886863078238472e+18,105.29984731445312,-266.528515625,138.2284362792969,-130.26671752929687,1.6886863078313196e+18,105.30731966145834,-0.6587459842363993,0.7472580671310425,-0.0131340461472669,0.0864852666854858,2.378814935684204,1.40804390112559,0.6213086843490601
0.35,1.6886863078745897e+18,105.35058984375,-0.4350432753562927,0.1510257720947265,0.7393240928649902,1.688686307874586e+18,105.35058610026044,-1.5633107821146648,-9.57767136891683,-0.293519581357638,1.6886863078745897e+18,105.35058984375,-1.11746346950531,-9.687164306640623,-1.0706058740615845,1.6886863078789138e+18,105.35491365559896,-0.012319115611414,0.3395392696062723,0.1013018190860747,1.6886863078789138e+18,105.35491365559896,-0.0133372244114676,0.3441207508246104,0.1037452792127926,,,,,,,,,,,,1.688686307873846e+18,105.34984599609376,-11.548519706726074,43.00499877929688,2.591279935836792,1.688686307873846e+18,105.34984599609376,-266.89451904296874,138.03079833984376,-130.13251953125,1.6886863078745897e+18,105.35058984375,-0.6607726216316223,0.7462557554244995,-0.007889158790931,0.0801064297556876,2.3776562213897705,1.4123739004135132,0.6390201151371002
0.4,1.6886863079178473e+18,105.39384741210938,-0.7770324150721232,0.0948177973429361,0.1441812515258789,1.6886863079264942e+18,105.402494140625,-1.842274030049642,-9.638090133666992,-0.9355936447779336,1.6886863079178473e+18,105.39384741210938,-1.098804513613383,-9.692073186238607,-1.0451541741689043,1.688686307930826e+18,105.40682600911458,-0.06602435434858,-0.0975857252875963,0.0656171093384424,1.688686307930826e+18,105.40682600911458,-0.067042460044225,-0.0930042341351508,0.0680605682233969,1.688686307923308e+18,105.39930810546876,0.0,0.4281475841999054,0.9516693949699402,11.131999969482422,0.0205247532576322,0.0,40.20000076293945,-122.7531638,49.1902113,1.6886863079238449e+18,105.39984497070311,-10.843359756469727,43.19287948608398,3.081719923019409,1.6886863079238449e+18,105.39984497070311,-266.18934936523436,138.2186767578125,-129.64207458496094,1.6886863079178473e+18,105.39384741210938,-0.661893387635549,0.74563600619634,-0.0059608691371976,0.0767340138554572,2.3812545935312905,1.4155819416046145,0.6429701447486877
0.45,1.6886863079697613e+18,105.44576131184895,-0.2662095626195271,0.0533266067504882,-0.330435832341512,1.6886863079784095e+18,105.45440950520832,-1.2197413047154744,-9.651649792989096,-1.3391830921173096,1.6886863079697613e+18,105.44576131184895,-1.075828472773234,-9.6970427831014,-1.0227805773417156,1.688686307974084e+18,105.45008422851562,-0.0652862209826707,-0.2469422742724418,-0.0151952737942338,1.688686307974084e+18,105.45008422851562,-0.0663552358746528,-0.2423607856035232,-0.012675454840064,,,,,,,,,,,,1.6886863079738458e+18,105.449845703125,-11.941359901428225,42.970838928222655,2.4643999576568603,1.6886863079738458e+18,105.449845703125,-267.287353515625,137.99663696289062,-130.2593994140625,1.6886863079697613e+18,105.44576131184895,-0.6624849041302999,0.7448000311851501,-0.0103756748139857,0.0792203322052955,2.381501038869222,1.4188909530639648,0.6329322457313538
0.5,1.6886863080216768e+18,105.49767659505208,0.357195754845937,-0.0126110712687175,-0.5654191176096598,1.688686308030328e+18,105.50632796223958,-0.7439684470494589,-9.753743171691896,-1.5144573052724202,1.6886863080216768e+18,105.49767659505208,-1.1024239857991536,-9.694913864135742,-1.0145172278086343,1.688686308017351e+18,105.49335074869792,-0.0078903430451949,0.0839939738313356,-0.0827213351925213,1.688686308017351e+18,105.49335074869792,-0.0088575460637609,0.0885754600167274,-0.0802778750658034,,,,,,,,,,,,1.6886863080238438e+18,105.49984394531248,-11.560719680786132,43.05135879516602,2.4473199367523195,1.6886863080238438e+18,105.49984394531248,-266.90672607421874,138.07715454101563,-130.27647399902344,1.6886863080216768e+18,105.49767659505208,-0.6613741715749105,0.7456866502761841,-0.0119499253729978,0.0799432968099911,2.3976879119873047,1.4174673557281494,0.6134734352429708
0.55,1.6886863080735887e+18,105.54958862304689,-0.0762573877970377,0.0566654205322265,-0.3178896903991698,1.6886863080735898e+18,105.54958984375,-1.2224332690238957,-9.631709575653076,-1.2801600694656372,1.6886863080735887e+18,105.54958862304689,-1.121014952659607,-9.691009839375814,-1.031338651974996,1.6886863080692682e+18,105.54526814778644,0.0666352162758509,0.2170607844988504,0.0389935641239086,1.6886863080692682e+18,105.54526814778644,0.0655662032465139,0.221642273167769,0.0415897412846485,,,,,,,,,,,,1.6886863080738483e+18,105.54984833984376,-11.887679862976077,42.79759979248047,2.408280038833618,1.6886863080738483e+18,105.54984833984376,-267.2336730957031,137.82340087890626,-130.31551513671874,1.6886863080735887e+18,105.54958862304689,-0.6610726118087769,0.7463865081469218,-0.0067845340818166,0.0764355162779489,2.397864818572998,1.4148797591527302,0.6256107886632284
0.6,1.6886863081255068e+18,105.60150667317708,-0.1973996559778849,0.0914548238118489,-0.2282838424046833,1.6886863081168507e+18,105.5928506673177,-1.2907284498214722,-9.60578695933024,-1.1988041400909424,1.6886863081255068e+18,105.60150667317708,-1.0864131053288777,-9.692498524983725,-1.0541448990503948,1.688686308121173e+18,105.59717309570313,0.0166969831722477,-0.1717040389776229,0.0491746533662079,1.688686308121173e+18,105.59717309570313,0.0156788748766605,-0.1671225490669409,0.0516181116302807,,,,,,,,,,,,1.688686308123846e+18,105.59984580078124,-12.004799842834473,42.83175888061523,2.6229999542236326,1.688686308123846e+18,105.59984580078124,-267.3507934570313,137.85755615234376,-130.10079650878907,1.6886863081255068e+18,105.60150667317708,-0.6622137427330017,0.7452046076456705,-0.006721375354876,0.0780719692508379,2.371293226877848,1.415860652923584,0.6499504844347636
0.65,1.6886863081774182e+18,105.6534180501302,0.082874337832133,0.0539353688557942,-0.2146609226862589,1.6886863081687596e+18,105.6447596842448,-1.048255741596222,-9.6396853129069,-1.252044439315796,1.6886863081774182e+18,105.6534180501302,-1.0781525373458862,-9.690871556599935,-1.0773390928904216,1.6886863081730929e+18,105.6490926920573,0.0215330001277227,-0.2224058558543523,-0.03089960043629,1.6886863081730929e+18,105.6490926920573,0.0204639849252998,-0.2178752720355987,-0.0283543281257152,,,,,,,,,,,,1.6886863081738458e+18,105.64984580078126,-12.10483989715576,43.107479095458984,2.576639938354492,1.6886863081738458e+18,105.64984580078126,-267.4508361816406,138.1332763671875,-130.14715576171875,1.6886863081774182e+18,105.6534180501302,-0.6619167923927307,0.7448773980140686,-0.010587913605074,0.0831256732344627,2.356611728668213,1.4147913455963137,0.6519481738408407
0.7,1.6886863082293322e+18,105.70533235677082,0.276674727598826,-0.1317199071248372,0.2059125900268554,1.6886863082206853e+18,105.69668522135416,-0.8171489238739014,-9.840283711751304,-0.9212367335955302,1.6886863082293322e+18,105.70533235677082,-1.0968780517578125,-9.68527634938558,-1.1082813342412312,1.688686308225011e+18,105.70101123046877,0.0752891413867472,0.0614428613334894,-0.0430659999450047,1.688686308225011e+18,105.70101123046877,0.0743219380577405,0.0660243527963757,-0.0405716337263583,,,,,,,,,,,,1.6886863082238436e+18,105.69984365234374,-11.489959716796877,43.03916015625,2.547359895706177,1.6886863082238436e+18,105.69984365234374,-266.8359619140625,138.06495971679686,-130.1764343261719,1.6886863082293322e+18,105.70533235677082,-0.6609967748324076,0.745525081952413,-0.0100686596706509,0.0846960817774136,2.351064602533976,1.4111634095509846,0.655981699625651
0.75,1.6886863082812396e+18,105.75723958333332,0.1141047477722168,-0.0376612345377604,0.4141366084416707,1.6886863082725937e+18,105.7485936686198,-0.9304092129071554,-9.754142125447592,-0.646660327911377,1.6886863082812396e+18,105.75723958333332,-1.0964217980702715,-9.68262513478597,-1.1316598256429036,1.688686308276921e+18,105.75292130533856,0.0518217359979947,0.0845539327710866,0.0433205266017466,1.688686308276921e+18,105.75292130533856,0.0509054362773895,0.0891354189564784,0.0457639874609109,,,,,,,,,,,,1.6886863082738442e+18,105.74984423828126,-11.71443977355957,42.94643936157227,2.6913199424743652,1.6886863082738442e+18,105.74984423828126,-267.06043701171876,137.97223510742188,-130.03247680664063,1.6886863082812396e+18,105.75723958333332,-0.6611457268397013,0.7455443143844604,-0.0070999511517583,0.0836610446373621,2.3404030005137124,1.4094685316085815,0.672326942284902
0.8,1.6886863083245087e+18,105.8005086669922,-0.0160746574401855,0.0710892677307128,0.2619284689426421,1.6886863083245128e+18,105.8005127766927,-1.076969583829244,-9.64566739400228,-0.814357320467631,1.6886863083245087e+18,105.8005086669922,-1.056372046470642,-9.686490058898926,-1.1366800665855408,1.6886863083288402e+18,105.80484008789062,-0.0018325958711405,-0.0223983918937543,0.0926988000671068,1.6886863083288402e+18,105.80484008789062,-0.0027997990449269,-0.0178169029920051,0.0952440723776816,,,,,,,,,,,,1.6886863083238444e+18,105.79984423828124,-11.81447982788086,42.92691879272461,2.7523199558258056,1.6886863083238444e+18,105.79984423828124,-267.1604736328125,137.9527160644531,-129.97147216796876,1.6886863083245087e+18,105.8005086669922,-0.6626637876033783,0.7441776990890503,-0.0067366221919655,0.0838498510420322,2.3196141719818115,1.4119409918785095,0.6933775544166565
0.85,1.6886863083677704e+18,105.84377034505208,-0.0465039014816283,0.035959243774414,-0.0189222494761148,1.688686308376423e+18,105.8524228515625,-1.06759770711263,-9.662616729736328,-1.1453644434611003,1.6886863083677704e+18,105.84377034505208,-1.0381063222885132,-9.689446131388346,-1.1283120314280193,1.688686308380746e+18,105.85674593098958,-0.0245873263726631,0.0746273708840211,-0.0145589554061492,1.688686308380746e+18,105.85674593098958,-0.0255036236097414,0.0792088595529397,-0.0121154934167861,,,,,,,,,,,,1.68868630837385e+18,105.84985,-11.802279663085937,42.98547897338867,2.8816399574279785,1.68868630837385e+18,105.84985,-267.1482727050781,138.0112762451172,-129.8421600341797,1.6886863083677704e+18,105.84377034505208,-0.6634323994318644,0.7435522675514221,-0.0067001818679272,0.0833212236563364,2.314620812733968,1.4138554732004802,0.6991831064224243
0.9,1.6886863084196872e+18,105.8956872558594,0.0329271554946899,0.0483261744181314,-0.2941513856252034,1.6886863084283402e+18,105.90434016927084,-1.0077771147092185,-9.671190897623696,-1.355534036954244,1.6886863084196872e+18,105.8956872558594,-1.0563209851582844,-9.689051310221354,-1.1146981318791709,1.6886863084240128e+18,105.90001281738282,-0.0178678082302212,0.0563523191958665,-0.0304669039323925,1.6886863084240128e+18,105.90001281738282,-0.018936822656542,0.0609338097274303,-0.0280234422534703,,,,,,,,,,,,1.6886863084238472e+18,105.89984716796872,-11.73151969909668,42.88299789428711,2.9401998996734617,1.6886863084238472e+18,105.89984716796872,-267.0775146484375,137.90879821777344,-129.78359375,1.6886863084196872e+18,105.8956872558594,-0.6629545092582703,0.7441837787628174,-0.0058246301487087,0.0815338939428329,2.329347292582194,1.413598855336507,0.6882403890291849
0.95,1.6886863084715973e+18,105.94759741210936,0.111785352230072,0.01520570119222,-0.1712792714436848,1.6886863084802511e+18,105.95625130208332,-0.9367900689442952,-9.68195883433024,-1.1924233039220171,1.6886863084715973e+18,105.94759741210936,-1.0604035059611003,-9.68883196512858,-1.112744728724162,1.688686308467274e+18,105.94327408854168,-0.0011199196645369,0.0069231393184357,0.0022398392708661,1.688686308467274e+18,105.94327408854168,-0.002036217561302,0.0115046290059883,0.004683300309504,,,,,,,,,,,,1.6886863084738458e+18,105.94984580078123,-12.085319709777831,43.136759185791014,2.9767999172210695,1.6886863084738458e+18,105.94984580078123,-267.4313110351562,138.16255798339844,-129.74700012207032,1.6886863084715973e+18,105.94759741210936,-0.6628469228744507,0.7443257172902426,-0.0055428557097911,0.0811326478918393,2.332152525583903,1.4134555260340371,0.6864050626754761
1.0,1.688686308523515e+18,105.99951497395834,-0.0496747891108194,0.0467236836751301,-0.1001248359680175,1.688686308523513e+18,105.99951306152344,-1.1201400756835938,-9.661619663238524,-1.1599208116531372,1.688686308523515e+18,105.99951497395834,-1.060259461402893,-9.688645044962566,-1.1145072778066,1.6886863085191918e+18,105.99519181315104,0.0015271631224701,-0.0042760564635197,0.001425352160974,1.6886863085191918e+18,105.99519181315104,0.0006108652645101,0.0003054331367214,0.0038688131608068,,,,,,,,,,,,1.688686308523842e+18,105.9998420410156,-11.76811981201172,43.03915939331055,2.9889999866485595,1.688686308523842e+18,105.9998420410156,-267.11411743164064,138.06495971679686,-129.73479919433595,1.688686308523515e+18,105.99951497395834,-0.6628650625546774,0.7443225185076395,-0.0052919536828994,0.0810303936402002,2.3312931855519614,1.4133340915044148,0.6877660155296326
1.05,1.688686308575427e+18,106.05142732747396,-0.0135731895764668,-0.0101105372111002,0.0226698319117228,1.6886863085667743e+18,106.04277441406248,-1.0977073907852173,-9.710871696472168,-1.061216870943705,1.688686308575427e+18,106.05142732747396,-1.0552843014399211,-9.688640594482422,-1.1192560195922852,1.6886863085711002e+18,106.04710017903646,-0.0014762576514233,-0.1158607751131057,-0.0054468816767136,1.6886863085711002e+18,106.04710017903646,-0.0024434610192353,-0.1112792864441871,-0.0029016096765795,,,,,,,,,,,,1.6886863085738478e+18,106.04984775390626,-12.214639663696287,42.96595993041992,2.6351999759674074,1.6886863085738478e+18,106.04984775390626,-267.5606323242188,137.99175415039062,-130.08859558105468,1.688686308575427e+18,106.05142732747396,-0.6628384788831075,0.7441387971242269,-0.0068829663408298,0.0827926446994145,2.3268206119537354,1.4133315881093342,0.6874721447626749
1.1,1.688686308627341e+18,106.10334114583334,0.0637067556381225,-0.0090030034383137,0.1689814726511636,1.6886863086186854e+18,106.0946854654948,-0.9742776354153952,-9.70608647664388,-0.9068797826766968,1.688686308627341e+18,106.10334114583334,-1.0597825447718303,-9.687554677327473,-1.1243911186854043,1.6886863086230136e+18,106.0990134277344,0.0211257562041282,0.0776816967409103,-0.0075340047478675,1.6886863086230136e+18,106.0990134277344,0.0201076477145154,0.0822631831591327,-0.0050905437674372,,,,,,,,,,,,1.6886863086238472e+18,106.09984716796876,-12.060919952392576,43.002558898925784,2.569319987297058,1.6886863086238472e+18,106.09984716796876,-267.40692138671875,138.02835998535156,-130.15447692871095,1.688686308627341e+18,106.10334114583334,-0.6626508831977844,0.7442949811617533,-0.0066409048934777,0.0829098224639892,2.32665753364563,1.412627379099528,0.6878092288970947
1.15,1.6886863086792522e+18,106.15525236002604,-0.0319217046101887,0.0190111796061197,0.1863272388776143,1.688686308670604e+18,106.14660416666668,-1.1018948157628377,-9.68056297302246,-0.8566305041313171,1.6886863086792522e+18,106.15525236002604,-1.0692388614018755,-9.68665568033854,-1.1231925090154011,1.688686308674931e+18,106.15093107096357,0.004174245831867,0.0917825028300284,-0.0022398393290738,1.688686308674931e+18,106.15093107096357,0.0031561373422543,0.0963130903740723,0.0002036219229921,,,,,,,,,,,,1.688686308673851e+18,106.14985097656248,-11.724199867248537,43.10503921508789,2.786479949951172,1.688686308673851e+18,106.14985097656248,-267.07020263671876,138.1308380126953,-129.93731994628905,1.6886863086792522e+18,106.15525236002604,-0.6625351905822754,0.7446346084276835,-0.0045253105151156,0.0809064383308092,2.331624746322632,1.412047028541565,0.6886947949727377
1.2,1.6886863087311667e+18,106.20716658528646,0.1316431562105814,0.0154263178507486,-0.1095271905263264,1.6886863087225142e+18,106.19851416015626,-0.959322472413381,-9.702895800272625,-1.1080763339996338,1.6886863087311667e+18,106.20716658528646,-1.066502571105957,-9.688055356343588,-1.1136791706085205,1.688686308726845e+18,106.2028447265625,-0.0180714298039674,0.0176641871221363,0.0094684114058811,1.688686308726845e+18,106.2028447265625,-0.0191404443855086,0.0222456759462753,0.0119627779349684,,,,,,,,,,,,1.6886863087238456e+18,106.1998455566406,-11.548519515991211,42.93667984008789,2.879199981689453,1.6886863087238456e+18,106.1998455566406,-266.89451904296874,137.9624755859375,-129.84459533691407,1.6886863087311667e+18,106.20716658528646,-0.6627398530642191,0.7445420622825623,-0.0043263385693232,0.0800893306732177,2.3345916271209717,1.412951906522115,0.6871753334999084
1.25,1.6886863087744307e+18,106.2504307861328,0.0963531732559203,0.0623154640197753,-0.3012176156044006,1.6886863087744315e+18,106.2504318033854,-0.9603194793065388,-9.644271850585938,-1.3425729274749756,1.6886863087744307e+18,106.2504307861328,-1.0617210865020752,-9.688783645629885,-1.1119190454483032,1.688686308778756e+18,106.25475618489584,0.0106392361728163,0.0765617787837981,0.0161879289274413,1.688686308778756e+18,106.25475618489584,0.0095702218241058,0.0811432674527167,0.0186313896750409,,,,,,,,,,,,1.6886863087738465e+18,106.24984677734376,-12.04383964538574,43.11723937988281,3.040240001678467,1.6886863087738465e+18,106.24984677734376,-267.38983764648435,138.14303588867188,-129.68355712890624,1.6886863087744307e+18,106.2504307861328,-0.663031816482544,0.7443830370903015,-0.0034299646504222,0.0791891664266586,2.333137631416321,1.4134246706962583,0.6911853849887848
1.3,1.6886863088176914e+18,106.29369140625,0.06655615568161,0.0192454655965168,-0.2292670408884684,1.6886863088263442e+18,106.30234423828124,-0.976271629333496,-9.702297846476236,-1.2329018513361614,1.6886863088176914e+18,106.29369140625,-1.0628313223520918,-9.687687238057457,-1.1203601360321045,1.688686308830674e+18,106.3066739095052,0.03263038645188,0.0539088584482669,-0.0159843073536951,1.688686308830674e+18,106.3066739095052,0.031612276410063,0.0583885374168554,-0.0134899403589466,,,,,,,,,,,,1.6886863088238484e+18,106.29984853515626,-12.13411979675293,42.93911895751953,3.006079912185669,1.6886863088238484e+18,106.29984853515626,-267.48011474609376,137.9649169921875,-129.71771850585938,1.6886863088176914e+18,106.29369140625,-0.6630667646725973,0.7444261113802592,-0.0020528708506995,0.0785361602902412,2.3298850059509277,1.4127144813537598,0.6973191698392233
1.35,1.6886863088696072e+18,106.34560701497396,0.1810101469357808,-0.1203641891479492,0.1400378942489624,1.6886863088782533e+18,106.35425333658854,-0.8843473593393961,-9.832506815592447,-0.8689934412638346,1.6886863088696072e+18,106.34560701497396,-1.0741945505142212,-9.68466822306315,-1.1355273326237996,1.6886863088739277e+18,106.3499276123047,0.0435241479426622,0.1304960921406745,-0.0101556342560797,1.6886863088739277e+18,106.3499276123047,0.0424551349133252,0.1350775770843028,-0.0077121734211687,,,,,,,,,,,,1.6886863088738447e+18,106.34984472656252,-11.743719673156738,42.97572021484375,3.2134799480438234,1.6886863088738447e+18,106.34984472656252,-267.08970947265624,138.001513671875,-129.51031494140625,1.6886863088696072e+18,106.34560701497396,-0.6627286672592163,0.7448176344235738,1.1433286999833332e-05,0.0776951362689335,2.328481435775757,1.4107704162597656,0.7028423150380453
1.4,1.6886863089215188e+18,106.39751888020834,0.0481473406155903,0.029865264892578,0.4274436632792155,1.6886863089301765e+18,106.40617618815104,-1.094915787378947,-9.6466646194458,-0.6518447597821554,1.6886863089215188e+18,106.39751888020834,-1.073933998743693,-9.684548695882162,-1.1367913881937664,1.6886863089172e+18,106.39320027669272,0.0223474865391229,0.2572760830322901,0.0422515130291382,1.6886863089172e+18,106.39320027669272,0.02127847316054,0.2618575692176819,0.0446949737767377,1.688686308923353e+18,106.39935302734376,0.0,0.3995693624019623,0.961239457130432,10.9399995803833,0.0215484742075204,0.0,40.20000076293945,-122.7531635,49.1902115,1.6886863089238415e+18,106.39984145507812,-12.26343994140625,43.02939987182617,3.347679948806763,1.6886863089238415e+18,106.39984145507812,-267.60943603515625,138.0551971435547,-129.37611694335936,1.6886863089215188e+18,106.39751888020834,-0.6631577412287394,0.7447961171468099,0.004239283579712,0.0740185355146725,2.3278092543284097,1.4106940031051636,0.7147440512975057
1.45,1.6886863089734372e+18,106.44943725585938,-0.3241666555404663,0.0535589853922525,0.2181833783785501,1.6886863089734354e+18,106.44943542480468,-1.3959129452705383,-9.63200855255127,-0.8356932997703552,1.6886863089734372e+18,106.44943725585938,-1.057552417119344,-9.688700993855797,-1.1165640751520791,1.6886863089691092e+18,106.4451092122396,-0.0204130802303552,0.1462004147469997,0.060221134374539,1.6886863089691092e+18,106.4451092122396,-0.0214820945014555,0.1507819096247354,0.0626645907759666,,,,,,,,,,,,1.6886863089738486e+18,106.44984863281248,-11.821799850463869,42.787838745117185,3.747839879989624,1.6886863089738486e+18,106.44984863281248,-267.16779174804685,137.81363525390626,-128.9759552001953,1.6886863089734372e+18,106.44943725585938,-0.6642568508783976,0.7442095875740051,0.0075956705647209,0.0696897407372792,2.329096714655558,1.4133737087249756,0.7243816057840983
1.5,1.688686309025351e+18,106.50135099283854,-0.1064937512079874,-0.1444908777872721,-0.0675468842188517,1.6886863090167e+18,106.49269995117189,-1.2191431522369385,-9.850852012634276,-1.0755737821261089,1.688686309025351e+18,106.50135099283854,-1.053091565767924,-9.690650939941406,-1.1038150389989216,1.688686309021024e+18,106.49702392578126,-0.0136935626699898,0.0255036239201823,0.000407243380323,1.688686309021024e+18,106.49702392578126,-0.014660766115412,0.0300851128995418,0.0029016098318001,,,,,,,,,,,,1.688686309023845e+18,106.49984516601562,-11.692479705810548,42.72195892333984,3.620959901809692,1.688686309023845e+18,106.49984516601562,-267.0384765625,137.74775390625,-129.10283813476562,1.688686309025351e+18,106.50135099283854,-0.6645528276761373,0.7440526684125265,0.0079678880671659,0.0684958944718042,2.3327150344848633,1.4146450360616047,0.7229906916618347
1.55,1.688686309077259e+18,106.55325911458333,-0.0388211409250894,0.0415465037027994,-0.0123620827992757,1.6886863090686095e+18,106.54460953776042,-1.01814603805542,-9.699905077616371,-1.0861420631408691,1.688686309077259e+18,106.55325911458333,-1.053964575131734,-9.690447171529136,-1.1047624746958415,1.6886863090729403e+18,106.54894051106773,0.0293215308338402,0.1854485124349594,0.0327321968070464,1.6886863090729403e+18,106.54894051106773,0.0284052351489662,0.1900299936532974,0.0352265612067033,,,,,,,,,,,,1.6886863090738478e+18,106.54984780273438,-11.360639762878415,42.80247955322265,3.725879955291748,1.6886863090738478e+18,106.54984780273438,-266.706640625,137.82827758789062,-128.99791259765624,1.688686309077259e+18,106.55325911458333,-0.6647444168726603,0.7440497080485026,0.0105295376852154,0.0662697528799374,2.3326989809672036,1.4145116806030271,0.729803721110026
1.6,1.6886863091291763e+18,106.60517635091146,-0.3916955391565959,0.1299158732096354,0.0959696372350056,1.688686309120525e+18,106.59652473958334,-1.395414392153422,-9.548160235087076,-0.9547362327575684,1.6886863091291763e+18,106.60517635091146,-1.026912848154704,-9.69247563680013,-1.112396279970805,1.6886863091248538e+18,106.60085351562502,0.0215330003605534,0.0780380349606275,0.0775289796292781,1.6886863091248538e+18,106.60085351562502,0.0205148911724487,0.0826195211460192,0.0800233458479244,,,,,,,,,,,,1.688686309123844e+18,106.5998439941406,-11.858399772644043,42.67315826416016,3.9308399200439457,1.688686309123844e+18,106.5998439941406,-267.2043884277344,137.69896240234374,-128.79295654296874,1.6886863091291763e+18,106.60517635091146,-0.6659924586613973,0.7430733640988668,0.0135920134683449,0.0641181593139966,2.3162752787272134,1.4158485730489094,0.7536335587501526
1.65,1.688686309181095e+18,106.65709456380208,-0.236900766690572,-0.0349912643432617,-0.0312389532725016,1.688686309172441e+18,106.6484412434896,-1.3270195325215657,-9.732806205749512,-1.0562317967414856,1.688686309181095e+18,106.65709456380208,-1.0225849151611328,-9.693072001139322,-1.1112096707026164,1.6886863091767698e+18,106.65276993815104,-0.0087557351216673,-0.0444404470423856,-0.0142535224246482,1.6886863091767698e+18,106.65276993815104,-0.0097229386058945,-0.0398589577525853,-0.0118100612113873,,,,,,,,,,,,1.688686309173846e+18,106.64984594726562,-12.04871997833252,42.34619979858398,3.6160799980163576,1.688686309173846e+18,106.64984594726562,-267.39472045898435,137.3719970703125,-129.10771789550782,1.688686309181095e+18,106.65709456380208,-0.6661360661188761,0.7429307500521342,0.013253885321319,0.0643496910730997,2.314706563949585,1.416242202123006,0.7543942928314209
1.7,1.688686309224346e+18,106.70034619140624,0.3418471813201904,-0.0836362838745116,-0.0299050211906433,1.6886863092243556e+18,106.70035546875,-0.7407780090967814,-9.772487004597982,-1.0705887079238892,1.688686309224346e+18,106.70034619140624,-1.0395180583000183,-9.691186428070068,-1.111945390701294,1.6886863092286822e+18,106.70468212890626,0.020005837160473,0.097382102239256,-0.0357356168484935,1.6886863092286822e+18,106.70468212890626,0.0190386334434151,0.1019635936245321,-0.0331394396489485,,,,,,,,,,,,1.6886863092238433e+18,106.69984326171875,-12.156079864501953,42.81467895507812,3.689279937744141,1.6886863092238433e+18,106.69984326171875,-267.5020812988281,137.840478515625,-129.03451843261718,1.688686309224346e+18,106.70034619140624,-0.6654878556728363,0.7435111105442047,0.013266734778881,0.0643501468002796,2.322563052177429,1.4149983525276184,0.7465516626834869
1.75,1.6886863092676178e+18,106.74361775716146,0.0443438490231831,0.0922813415527343,0.0590742031733194,1.6886863092762683e+18,106.75226814778648,-1.0652048587799072,-9.596415201822916,-1.0283155242602031,1.6886863092676178e+18,106.74361775716146,-1.034038821856181,-9.690932909647625,-1.11916987101237,1.688686309280597e+18,106.75659692382813,0.0215329998172819,0.1216639926036198,0.1045088643829027,1.688686309280597e+18,106.75659692382813,0.0205148911724487,0.1262454862395922,0.1069523220260937,,,,,,,,,,,,1.6886863092738483e+18,106.74984814453126,-12.131679916381836,42.73415908813477,3.850319862365722,1.6886863092738483e+18,106.74984814453126,-267.47767333984376,137.75995788574218,-128.87347412109375,1.6886863092676178e+18,106.74361775716146,-0.6659076611200968,0.7432621916135153,0.0163108284274736,0.0621310410400231,2.3166792392730713,1.414833943049113,0.7599054972330729
1.8,1.6886863093195277e+18,106.79552791341143,-0.1633036335309346,0.0816930135091145,-0.2425947586695352,1.688686309328176e+18,106.80417594401042,-1.0907283226648967,-9.65503946940104,-1.3577274481455486,1.6886863093195277e+18,106.79552791341143,-0.9940883119901022,-9.69529946645101,-1.117600679397583,1.6886863093238577e+18,106.79985766601564,-0.0357356164604425,-0.1332449838519096,0.0311541275586932,1.6886863093238577e+18,106.79985766601564,-0.0368046313524246,-0.1286634877324104,0.0336739476770162,,,,,,,,,,,,1.6886863093238454e+18,106.79984541015624,-12.275639724731445,42.641439056396486,3.886919927597046,1.6886863093238454e+18,106.79984541015624,-267.62163696289065,137.667236328125,-128.83687744140624,1.6886863093195277e+18,106.79552791341143,-0.6674717863400778,0.7418822447458903,0.016717821980516,0.0617396409312883,2.2977894147237143,1.4177262783050537,0.7799363334973654
1.85,1.6886863093714404e+18,106.8474403483073,0.3637345830599467,-0.0154692331949869,-0.5086595217386881,1.688686309380099e+18,106.85609903971356,-0.5958128571510315,-9.737990697224935,-1.5403796037038169,1.6886863093714404e+18,106.8474403483073,-0.9955031275749208,-9.695046424865724,-1.118535081545512,1.688686309367117e+18,106.84311710611978,-0.0024943662962565,-0.0906116757541894,-0.044644068305691,1.688686309367117e+18,106.84311710611978,-0.0034615700133144,-0.0860810917026052,-0.0422006081789731,,,,,,,,,,,,1.6886863093738458e+18,106.84984565429689,-12.02187957763672,42.57311935424805,3.738079881668091,1.6886863093738458e+18,106.84984565429689,-267.36787109375,137.59891662597656,-128.9857208251953,1.6886863093714404e+18,106.8474403483073,-0.6672068436940511,0.7419818639755249,0.0142955721045533,0.0639792283376057,2.298085451126098,1.4175569613774617,0.7730234464009603
1.9,1.68868630942336e+18,106.89935994466146,0.2144465049107869,-0.036288579305013,-0.008631944656372,1.6886863094233585e+18,106.8993583984375,-0.7950153350830078,-9.739685535430908,-1.0746764540672302,1.68868630942336e+18,106.89935994466146,-0.9991562763849894,-9.691176096598308,-1.148373007774353,1.6886863094190364e+18,106.89503637695312,0.0809905479351679,0.0778853173057238,0.0228056361277898,1.6886863094190364e+18,106.89503637695312,0.0800233483314513,0.0824668084581692,0.0253000023464361,,,,,,,,,,,,1.688686309423848e+18,106.899848046875,-12.217079734802246,42.52919921875,4.296839952468872,1.688686309423848e+18,106.899848046875,-267.5630737304688,137.55499877929688,-128.4269561767578,1.68868630942336e+18,106.89935994466146,-0.6670347054799398,0.7420679330825806,0.0161942445362607,0.0643177231152852,2.2868725458780923,1.4149919350941975,0.786442756652832
1.95,1.688686309475271e+18,106.95127099609375,0.0535604357719421,-0.0276495615641276,0.2513210376103719,1.6886863094666191e+18,106.942619140625,-0.9024929205576578,-9.742975234985352,-0.8572287162144979,1.688686309475271e+18,106.95127099609375,-0.9778515497843424,-9.689845085144045,-1.1776180267333984,1.6886863094709535e+18,106.94695385742187,0.0486146931846936,-0.0060577470188339,0.0375173073261975,1.6886863094709535e+18,106.94695385742187,0.0476983934640884,-0.0015271630448599,0.0399607680737971,,,,,,,,,,,,1.6886863094738478e+18,106.94984794921876,-12.2097599029541,42.64875869750976,4.240719890594482,1.6886863094738478e+18,106.94984794921876,-267.5557495117188,137.6745574951172,-128.4830749511719,1.688686309475271e+18,106.95127099609375,-0.6678035457928976,0.7412956555684408,0.017971613133947,0.0647778660058975,2.2638115088144937,1.414119839668274,0.8113725980122884
2.0,1.6886863095271877e+18,107.0031875813802,0.0720325112342833,-0.0077486038208007,0.1947202881177266,1.6886863095185306e+18,106.99453051757811,-0.8881360093752543,-9.702895482381184,-0.9256235559781392,1.6886863095271877e+18,107.0031875813802,-0.9578390717506408,-9.690403938293455,-1.1894121170043943,1.688686309522864e+18,106.99886385091143,0.0210239458829164,0.0044287721005579,0.0391971866289774,1.688686309522864e+18,106.99886385091143,0.0200567425539095,0.0090102610023071,0.0416406479974587,,,,,,,,,,,,1.6886863095238456e+18,106.99984565429686,-12.553800010681153,42.40963897705078,4.043079996109009,1.6886863095238456e+18,106.99984565429686,-267.89979248046876,137.43544006347656,-128.68071899414062,1.6886863095271877e+18,107.0031875813802,-0.6684945424397787,0.7406042814254761,0.0180987734347581,0.0655183494091033,2.2487905025482178,1.414485017458598,0.825523316860199
2.05,1.6886863095791035e+18,107.05510367838542,-0.0215359131495157,0.028090476989746,0.0820188522338866,1.6886863095704502e+18,107.0464501139323,-0.9657033483187356,-9.686146100362144,-1.0313065648078918,1.6886863095791035e+18,107.05510367838542,-0.9549984733263652,-9.690151850382486,-1.193759600321452,1.688686309574774e+18,107.05077416992188,0.0167478887985149,0.0992146953940391,0.0006617705027262,1.688686309574774e+18,107.05077416992188,0.0157806851590672,0.1037961840629577,0.0031052314055462,1.688686309569e+18,107.045,0.0,0.3995693624019623,0.91303551197052,14.26200008392334,0.0214644018560647,0.0,40.20000076293945,-122.7531634,49.1902116,1.6886863095738465e+18,107.049846484375,-12.94419994354248,42.52675933837891,4.423719882965088,1.6886863095738465e+18,107.049846484375,-268.2901977539062,137.55255737304688,-128.30007934570312,1.6886863095791035e+18,107.05510367838542,-0.6687281529108683,0.7404609719912211,0.0198682447274525,0.0642267415920893,2.2455602486928306,1.4143200318018596,0.8330981135368347
2.1,1.6886863096310203e+18,107.10702034505208,0.1090291539827982,-0.0256303151448567,0.1330812772115071,1.6886863096223644e+18,107.09836442057292,-0.8779665033022562,-9.729416211446129,-1.027916709582011,1.6886863096310203e+18,107.10702034505208,-0.9563511411348978,-9.689671198527018,-1.1965667804082234,1.6886863096266924e+18,107.10269246419271,0.0239255558699368,0.1267036323746045,0.0233146905278165,1.6886863096266924e+18,107.10269246419271,0.0229583519200483,0.1312851185599962,0.0258090561255812,,,,,,,,,,,,1.688686309623846e+18,107.0998459472656,-12.70507984161377,42.72439880371094,4.3724799156188965,1.688686309623846e+18,107.0998459472656,-268.05107421875,137.7501983642578,-128.351318359375,1.6886863096310203e+18,107.10702034505208,-0.6688501238822937,0.7404437263806661,0.0221123211085795,0.0623907471696535,2.245107571283976,1.4140060345331829,0.8393401503562927
2.15,1.688686309674279e+18,107.15027868652344,0.1273237466812133,0.0626215934753417,0.2123294174671172,1.6886863096742766e+18,107.15027661132812,-0.8452645937601725,-9.656435330708822,-0.937787095705668,1.688686309674279e+18,107.15027868652344,-0.9509169161319732,-9.68998670578003,-1.198347270488739,1.688686309678603e+18,107.15460278320312,0.0190386329777538,0.2541708449522654,0.0327321961522101,1.688686309678603e+18,107.15460278320312,0.0180205250314126,0.258701428771019,0.03532837331295,,,,,,,,,,,,1.6886863096738463e+18,107.14984653320312,-12.626999855041504,42.28031921386719,4.784839916229248,1.6886863096738463e+18,107.14984653320312,-267.972998046875,137.30611877441407,-127.93895721435548,1.688686309674279e+18,107.15027868652344,-0.6693291664123535,0.7401453256607056,0.0255687125027179,0.0593986324965953,2.241606831550598,1.4142118096351624,0.8519917130470276
2.2,1.688686309717537e+18,107.193537109375,-0.2400448520978292,0.0985291798909504,-0.1682873169581095,1.6886863097261924e+18,107.20219213867188,-1.199003537495931,-9.624131838480633,-1.382253885269165,1.688686309717537e+18,107.193537109375,-0.9508465727170308,-9.69139766693115,-1.1869231065114338,1.688686309730516e+18,107.20651603190105,-0.0462221366663773,0.0118100568652153,0.0173078485919783,1.688686309730516e+18,107.20651603190105,-0.0472402460873126,0.0163915508116285,0.0198022148882348,,,,,,,,,,,,1.688686309723848e+18,107.1998479003906,-12.746559524536131,42.275439453125,4.677479839324951,1.688686309723848e+18,107.1998479003906,-268.0925598144531,137.30123596191407,-128.04631805419922,1.688686309717537e+18,107.193537109375,-0.6696181495984396,0.7400414943695068,0.0283606083442767,0.0560839436948299,2.246244589487711,1.4151384830474854,0.8560207088788351
2.25,1.6886863097694518e+18,107.2454519856771,0.125261386235555,0.0287771224975585,-0.5107232729593912,1.6886863097781043e+18,107.2541044108073,-0.7314061323801676,-9.679765065511068,-1.6049857934316,1.6886863097694518e+18,107.2454519856771,-0.946661134560903,-9.693829218546549,-1.1703098217646282,1.6886863097737825e+18,107.24978259277344,-0.0421497020870446,-0.1682933717966079,-0.0245873257517814,1.6886863097737825e+18,107.24978259277344,-0.043142357841134,-0.1637118905782699,-0.0220675067976116,,,,,,,,,,,,1.6886863097738417e+18,107.24984169921876,-12.551359558105467,42.34619827270508,4.4773999691009525,1.6886863097738417e+18,107.24984169921876,-267.89735717773436,137.37200012207032,-128.24639587402345,1.6886863097694518e+18,107.2454519856771,-0.6696982582410177,0.7399811744689941,0.0260615230848391,0.0570218389232952,2.250967343648275,1.416744629542033,0.8467076818148295
2.3,1.6886863098213645e+18,107.29736466471354,0.0380703806877136,0.03357728322347,-0.1004900932312011,1.6886863098300224e+18,107.30602246093748,-0.975274622440338,-9.678967475891112,-1.1208380063374836,1.6886863098213645e+18,107.29736466471354,-0.9424213171005248,-9.69304625193278,-1.1801440715789795,1.6886863098170432e+18,107.29304337565104,0.0481056375429033,0.0931060477159917,0.0269798813387751,1.6886863098170432e+18,107.29304337565104,0.0471384343691169,0.0976875341342141,0.0294233422415951,,,,,,,,,,,,1.6886863098238456e+18,107.29984565429687,-12.812439727783204,42.47551956176758,4.401759910583496,1.6886863098238456e+18,107.29984565429687,-268.15843505859374,137.501318359375,-128.32203979492186,1.6886863098213645e+18,107.29736466471354,-0.6698185404141744,0.7398271163304647,0.0262856036424636,0.057503922532002,2.2447033723195395,1.416225552558899,0.8526046673456827
2.35,1.6886863098732795e+18,107.34927978515624,-0.1945138176282246,-0.0499595006306965,0.3681095441182454,1.688686309873283e+18,107.349283203125,-1.139880895614624,-9.760024547576904,-0.7534400224685669,1.6886863098732795e+18,107.34927978515624,-0.9481223622957864,-9.689868291219076,-1.201485236485799,1.688686309868962e+18,107.34496223958332,0.0487165028850236,0.1644754658142725,-0.0167478881776332,1.688686309868962e+18,107.34496223958332,0.0478002068897087,0.1690060546000798,-0.0142535219589869,,,,,,,,,,,,1.6886863098738447e+18,107.34984482421876,-12.856359672546386,42.53895874023438,4.823879909515381,1.6886863098738447e+18,107.34984482421876,-268.2023498535156,137.56475524902345,-127.89991607666016,1.6886863098732795e+18,107.34927978515624,-0.6697871088981628,0.7398683627446493,0.0303425180415311,0.0553002282977103,2.2388811111450195,1.4141361316045125,0.8673060735066732
2.4,1.6886863099251963e+18,107.40119661458333,-0.0792117913564046,-0.0336885452270507,0.3639751474062602,1.6886863099165417e+18,107.39254158528644,-1.1001001993815105,-9.780263582865397,-0.7196414073308309,1.6886863099251963e+18,107.40119661458333,-0.9744911591211954,-9.688990592956545,-1.1873807509740193,1.6886863099208724e+18,107.3968722330729,-0.0463239488502342,-0.030543261518081,-0.035837427402536,1.6886863099208724e+18,107.3968722330729,-0.0473420564085244,-0.0259617728491624,-0.0333430610286692,1.688686309923356e+18,107.39935595703125,0.0,0.4108606576919555,0.9178242683410645,10.29699993133545,0.0257688052952289,0.0,40.20000076293945,-122.7531632,49.1902117,1.688686309923849e+18,107.39984912109377,-12.561119651794431,42.25347900390625,4.848279857635498,1.688686309923849e+18,107.39984912109377,-267.9071105957031,137.27927856445314,-127.87551727294922,1.6886863099251963e+18,107.40119661458333,-0.6688815752665201,0.7407671213150024,0.0305586749066909,0.0541040164728958,2.2580744425455728,1.4135640462239585,0.8501163125038147
2.45,1.6886863099771126e+18,107.45311254882812,-0.0999016761779785,0.0795828501383463,-0.2379298210144042,1.688686309968454e+18,107.44445385742188,-0.992822011311849,-9.61296558380127,-1.2261221806208291,1.6886863099771126e+18,107.45311254882812,-0.9651671846707662,-9.69478448232015,-1.146991491317749,1.688686309972784e+18,107.44878361002604,-0.1040507132808367,-0.1642718439300854,0.0161879286170005,1.688686309972784e+18,107.44878361002604,-0.105068822701772,-0.1596903552611668,0.0186822948356468,,,,,,,,,,,,1.6886863099738476e+18,107.44984780273435,-12.709959602355957,42.20467834472656,4.48715991973877,1.6886863099738476e+18,107.44984780273435,-268.05595703125,137.23047485351563,-128.23663787841798,1.6886863099771126e+18,107.45311254882812,-0.6691729426383972,0.7405973474184672,0.0266215267280736,0.0548827449480692,2.2703590393066406,1.417384664217631,0.8311458627382914
2.5,1.6886863100290204e+18,107.5050206705729,-0.1808709104855854,0.0913756688435872,-0.5862903197606405,1.6886863100203712e+18,107.4963711751302,-1.1710873047510784,-9.62413215637207,-1.6295122305552163,1.6886863100290204e+18,107.5050206705729,-0.9388340512911478,-9.69959799448649,-1.128042896588643,1.688686310024698e+18,107.50069775390624,-0.0597629845142364,-0.3370958069960276,0.0215329993516206,1.688686310024698e+18,107.50069775390624,-0.0607301853597163,-0.3325143158435821,0.0239764613409836,,,,,,,,,,,,1.6886863100238484e+18,107.49984833984374,-12.497679710388184,42.46819915771484,4.2748799324035645,1.6886863100238484e+18,107.49984833984374,-267.8436706542969,137.493994140625,-128.44891357421875,1.6886863100290204e+18,107.5050206705729,-0.669798751672109,0.7398884097735087,0.0203536047289768,0.0592820396025975,2.2649125258127847,1.4206266005833943,0.8214655121167501
2.55,1.6886863100809367e+18,107.55693660481772,0.1012521386146545,-0.0245288213094075,-0.2495664358139037,1.6886863100722844e+18,107.54828450520834,-0.864008367061615,-9.730014483133951,-1.4350953896840413,1.6886863100809367e+18,107.55693660481772,-0.9362112085024517,-9.698150316874186,-1.1425333420435588,1.688686310076615e+18,107.55261482747396,0.0305941669891278,-0.1411607755968967,-0.0448985956609248,1.688686310076615e+18,107.55261482747396,0.0295760594308376,-0.136579291584591,-0.0424551336715618,,,,,,,,,,,,1.6886863100738463e+18,107.54984667968748,-12.24636001586914,42.57555923461914,3.9845199584960938,1.6886863100738463e+18,107.54984667968748,-267.5923583984375,137.60135803222656,-128.73927612304686,1.6886863100809367e+18,107.55693660481772,-0.6694709459940592,0.7399004499117533,0.0163065095742542,0.0639491106073061,2.257286787033081,1.419647852579753,0.8167238235473633
2.6,1.688686310124202e+18,107.6002021484375,0.2190480232238769,-0.0376667976379394,0.3530810177326202,1.688686310124201e+18,107.60020092773438,-0.7481558720270792,-9.763115247090658,-0.7782655556996664,1.688686310124202e+18,107.6002021484375,-0.9612852334976196,-9.691393375396729,-1.178480625152588,1.688686310128521e+18,107.60452091471356,0.1290452828009922,0.2168571650981903,-0.0498364232480525,1.688686310128521e+18,107.60452091471356,0.1280271733800569,0.2214386562506357,-0.0473420570294062,,,,,,,,,,,,1.6886863101238477e+18,107.59984780273436,-12.5708797454834,42.4462387084961,4.1675199508667,1.6886863101238477e+18,107.59984780273436,-267.9168762207031,137.47203979492187,-128.55627899169923,1.688686310124202e+18,107.6002021484375,-0.6685068309307098,0.7407015562057495,0.0188895370811223,0.0640440434217452,2.2550588846206665,1.41513991355896,0.822471559047699
2.65,1.6886863101674596e+18,107.64345955403648,0.0800350109736124,-0.1617046991984049,0.6618866920471191,1.688686310176117e+18,107.6521171875,-0.9064809679985046,-9.841480255126951,-0.4602195521195729,1.6886863101674596e+18,107.64345955403648,-0.9855823516845704,-9.684404373168944,-1.215302149454753,1.6886863101804442e+18,107.6564442545573,0.0735074511418739,0.1423825037976105,0.0139480894431471,1.6886863101804442e+18,107.6564442545573,0.0725402478128671,0.1469639974335829,0.0164424569035569,,,,,,,,,,,,1.688686310173843e+18,107.64984306640623,-12.348839759826662,42.32667999267578,4.870239925384522,1.688686310173843e+18,107.64984306640623,-267.69483642578126,137.35247497558595,-127.85355682373049,1.6886863101674596e+18,107.64345955403648,-0.6677957773208618,0.741382360458374,0.0241994286576906,0.0617516711354255,2.25222380956014,1.4106087287267048,0.8360854784647623
2.7,1.6886863102193797e+18,107.69537963867188,0.0952911376953124,0.0439783732096354,0.4858747124671936,1.6886863102280297e+18,107.70402986653646,-0.8713862299919128,-9.65264638264974,-0.8007979790369669,1.6886863102193797e+18,107.69537963867188,-0.9651455481847128,-9.686298688252768,-1.2165584564208984,1.688686310223706e+18,107.69970581054687,-0.0484110694378614,-0.0479529211297631,0.0885754600167273,1.688686310223706e+18,107.69970581054687,-0.0494037270545959,-0.0434477906674146,0.0910952799022197,,,,,,,,,,,,1.6886863102238515e+18,107.69985151367186,-12.544039916992189,42.50967788696289,4.631120014190674,1.6886863102238515e+18,107.69985151367186,-267.89003295898436,137.5354797363281,-128.09267883300782,1.6886863102193797e+18,107.69537963867188,-0.6686679323514303,0.7406384150187174,0.0254517067223786,0.0607411600649356,2.241447925567627,1.4118269284566245,0.8500751058260599
2.75,1.688686310271289e+18,107.7472891438802,-0.1355968713760375,0.0370775858561198,-0.3408085107803345,1.688686310279945e+18,107.75594498697916,-1.072582721710205,-9.649057388305664,-1.5413765509923298,1.688686310271289e+18,107.7472891438802,-0.9206983049710592,-9.694552421569824,-1.1848905086517334,1.6886863102669668e+18,107.7429667154948,-0.074678278217713,-0.1038470913966496,0.0670933661361534,1.6886863102669668e+18,107.7429667154948,-0.0756454778214295,-0.0992656002442041,0.0695877335965633,,,,,,,,,,,,1.688686310273846e+18,107.74984594726564,-12.400079536437987,42.28275909423828,4.431039905548095,1.688686310273846e+18,107.74984594726564,-267.74607543945314,137.30855712890624,-128.29275970458986,1.688686310271289e+18,107.7472891438802,-0.6703361471494039,0.7391929626464844,0.022824148957928,0.0610019701222578,2.2313764890034995,1.4172305663426716,0.8560587366422018
2.8,1.6886863103232054e+18,107.79920564778644,0.0478249788284301,0.1491775512695312,-0.6085770924886068,1.6886863103232123e+18,107.79921228027344,-0.8392825424671173,-9.553344249725342,-1.7494524717330933,1.6886863103232054e+18,107.79920564778644,-0.9049176772435508,-9.69718074798584,-1.1755468050638835,1.688686310318883e+18,107.79488313802084,-0.0259108670676747,-0.1059342163304487,-0.0101301822190483,1.688686310318883e+18,107.79488313802084,-0.0268271649256348,-0.1013527251780032,-0.0075849105293551,,,,,,,,,,,,1.688686310323848e+18,107.79984799804689,-12.941759490966795,42.39255981445312,3.9796399116516112,1.688686310323848e+18,107.79984799804689,-268.2877624511719,137.4183563232422,-128.74415893554686,1.6886863103232054e+18,107.79920564778644,-0.6707641084988912,0.738728404045105,0.0200907240311304,0.0628638106087843,2.2268532117207847,1.418989102045695,0.8540652791659037
2.85,1.6886863103751217e+18,107.85112166341143,0.0560192664464314,0.022325833638509,-0.2179802258809407,1.688686310366472e+18,107.84247184244792,-0.8370891213417053,-9.677372296651203,-1.4281162818272908,1.6886863103751217e+18,107.85112166341143,-0.9264718691507976,-9.693957964579264,-1.185286045074463,1.6886863103707927e+18,107.8467927246094,0.0256563409542043,0.0463239476084708,-0.0448985956609248,1.6886863103707927e+18,107.8467927246094,0.0246891366938749,0.0509054362773894,-0.042404228200515,,,,,,,,,,,,1.6886863103738458e+18,107.84984584960937,-12.968599700927737,42.41695938110352,4.2919598579406735,1.6886863103738458e+18,107.84984584960937,-268.31459350585936,137.44275817871093,-128.4318359375,1.6886863103751217e+18,107.85112166341143,-0.6699216167132059,0.7394599715868632,0.0205171486983696,0.063109757999579,2.2342533270517984,1.4168329238891602,0.8469169537226359
2.9,1.6886863104270285e+18,107.9030284830729,0.1039328972498575,-0.0114577611287434,0.121243397394816,1.6886863104183803e+18,107.89438053385418,-0.8494520386060079,-9.717851320902506,-1.0500503381093342,1.6886863104270285e+18,107.9030284830729,-0.945073425769806,-9.69108200073242,-1.1941007773081462,1.6886863104227103e+18,107.89871061197918,0.0016289739093432,-0.0739146964624523,-0.0419460808237393,1.6886863104227103e+18,107.89871061197918,0.0007126762842138,-0.0693332074830928,-0.039502619455258,,,,,,,,,,,,1.6886863104238484e+18,107.89984848632812,-12.76851978302002,42.441358947753905,4.379799938201904,1.6886863104238484e+18,107.89984848632812,-268.11451416015626,137.46715698242187,-128.3439971923828,1.6886863104270285e+18,107.9030284830729,-0.6691455046335856,0.7401050925254822,0.0203594689567883,0.0638254781564076,2.2403176625569663,1.4149314165115356,0.8396086692810059
2.95,1.6886863104789504e+18,107.95495027669271,0.0191579063733418,-0.001789093017578,0.0720494190851847,1.6886863104702935e+18,107.94629337565104,-0.871785044670105,-9.71186892191569,-1.019940694173177,1.6886863104789504e+18,107.95495027669271,-0.9412555893262228,-9.692375818888346,-1.18658181031545,1.6886863104746248e+18,107.95062459309896,-0.0308486949652432,-0.1155044361948966,0.0108937631982067,1.6886863104746248e+18,107.95062459309896,-0.0318668037652969,-0.110922947525978,0.0134390355863918,,,,,,,,,,,,1.6886863104738455e+18,107.9498455566406,-12.92467975616455,42.487718963623045,4.191919946670533,1.6886863104738455e+18,107.9498455566406,-268.2706726074219,137.51351623535157,-128.53187866210936,1.6886863104789504e+18,107.95495027669271,-0.669123649597168,0.7400376001993815,0.0178815734883149,0.0655549466609954,2.241422176361084,1.4157838026682537,0.832534392674764
3.0,1.6886863105308598e+18,108.00685986328124,-0.0057834386825561,0.0202302932739257,-0.0642831325531005,1.688686310522211e+18,107.9982111002604,-0.9589236577351888,-9.697910944620768,-1.170289675394694,1.6886863105308598e+18,108.00685986328124,-0.9366532365481058,-9.694055875142416,-1.1764705975850422,1.6886863105265336e+18,108.00253361002603,-0.0299323971072832,-0.1145881414413452,-0.0238746492250356,1.6886863105265336e+18,108.00253361002603,-0.0308486943443615,-0.1100066478053728,-0.0214311890304088,,,,,,,,,,,,1.688686310523849e+18,107.99984892578122,-12.673359870910645,42.614599609375,4.096759843826294,1.688686310523849e+18,107.99984892578122,-268.01935424804685,137.64039611816406,-128.62703552246094,1.6886863105308598e+18,108.00685986328124,-0.6691220005353292,0.7399399876594543,0.0151482196524738,0.0673385063807169,2.2432032426198325,1.4168953498204548,0.8243451118469238
3.05,1.688686310574124e+18,108.05012426757813,0.0583424866199493,-0.0233025550842285,-0.0176227092742919,1.688686310574122e+18,108.05012190755208,-0.8905288378397623,-9.71904722849528,-1.1286147038141887,1.688686310574124e+18,108.05012426757813,-0.9498319923877716,-9.693195343017578,-1.1729814410209656,1.6886863105784497e+18,108.05444995117188,0.0045814896002411,0.0156788742169737,-0.0243327993278701,1.6886863105784497e+18,108.05444995117188,0.0035633803345262,0.0202603650589783,-0.0218893379593888,,,,,,,,,,,,1.688686310573849e+18,108.04984936523438,-12.309799766540529,42.71219940185547,3.974759817123413,1.688686310573849e+18,108.04984936523438,-267.6557861328125,137.73799743652344,-128.74903564453126,1.688686310574124e+18,108.05012426757813,-0.6685783565044403,0.7404092252254486,0.014391048811376,0.0677507407963275,2.251475214958191,1.416326105594635,0.8144130408763885
3.1,1.6886863106173883e+18,108.09338826497395,-0.010776658852895,0.0046790440877278,0.047187844912211,1.688686310626037e+18,108.1020371907552,-0.9481559793154398,-9.703693389892578,-1.05064857006073,1.6886863106173883e+18,108.09338826497395,-0.9527966181437174,-9.69226360321045,-1.1782705386479695,1.6886863106303665e+18,108.10636661783856,0.0160861179853478,-0.0037670020634929,0.0059050306056935,1.6886863106303665e+18,108.10636661783856,0.0151698204378286,0.0008144869158665,0.0083993971347808,,,,,,,,,,,,1.688686310623847e+18,108.0998466308594,-12.839279747009275,42.519438934326175,4.030879878997803,1.688686310623847e+18,108.0998466308594,-268.1852783203125,137.5452392578125,-128.692919921875,1.6886863106173883e+18,108.09338826497395,-0.6684747139612833,0.7405015230178833,0.0148923946544527,0.0676557918389638,2.2508033911387124,1.4157086610794067,0.8159286777178446
3.15,1.688686310669298e+18,108.14529801432292,0.0434189041455586,-0.0331627527872721,0.1439049641291299,1.6886863106779525e+18,108.15395263671876,-0.9066803654034932,-9.761520067850748,-0.9692925810813904,1.688686310669298e+18,108.14529801432292,-0.949763854344686,-9.691709836324057,-1.185256838798523,1.6886863106736333e+18,108.14963342285157,0.0190131813287734,0.0503200246021151,0.0089339043479412,1.6886863106736333e+18,108.14963342285157,0.0180205246433615,0.0549015142023563,0.0114537235349416,,,,,,,,,,,,1.6886863106738468e+18,108.1498466308594,-12.668479728698731,42.23395919799805,4.113840007781983,1.6886863106738468e+18,108.1498466308594,-268.0144775390625,137.25975646972657,-128.60995788574218,1.688686310669298e+18,108.14529801432292,-0.6685850222905477,0.7403872609138489,0.0153775451083977,0.0677068307995796,2.2463598251342773,1.415343125661214,0.8209877411524454
3.2,1.6886863107212086e+18,108.19720857747396,0.0061999758084615,-0.0047426223754882,0.1531483729680378,1.688686310729868e+18,108.20586808268229,-0.9373882611592612,-9.683154741923014,-0.9864411155382792,1.6886863107212086e+18,108.19720857747396,-0.9494342803955078,-9.691416104634602,-1.1879199743270874,1.6886863107168911e+18,108.19289111328123,0.0147116715088486,0.0961094647645949,0.0104356144244471,1.6886863107168911e+18,108.19289111328123,0.0137444677141804,0.1006400485833485,0.0129299812639752,,,,,,,,,,,,1.6886863107238456e+18,108.19984575195312,-12.839279747009275,42.53895950317383,4.1309198379516605,1.6886863107238456e+18,108.19984575195312,-268.1852722167969,137.56475830078125,-128.5928741455078,1.6886863107212086e+18,108.19720857747396,-0.6687367558479309,0.740337610244751,0.0171218588948249,0.0663159439961115,2.2450963656107583,1.4151498874028523,0.8267008066177368
