seconds_elapsed_rounded,accelerometer_time,accelerometer_seconds_elapsed,accelerometer_z,accelerometer_y,accelerometer_x,accelerometeruncalibrated_time,accelerometeruncalibrated_seconds_elapsed,accelerometeruncalibrated_z,accelerometeruncalibrated_y,accelerometeruncalibrated_x,gravity_time,gravity_seconds_elapsed,gravity_z,gravity_y,gravity_x,gyroscope_time,gyroscope_seconds_elapsed,gyroscope_z,gyroscope_y,gyroscope_x,gyroscopeuncalibrated_time,gyroscopeuncalibrated_seconds_elapsed,gyroscopeuncalibrated_z,gyroscopeuncalibrated_y,gyroscopeuncalibrated_x,location_time,location_seconds_elapsed,location_bearingAccuracy,location_speedAccuracy,location_verticalAccuracy,location_horizontalAccuracy,location_speed,location_bearing,location_altitude,location_longitude,location_latitude,magnetometer_time,magnetometer_seconds_elapsed,magnetometer_z,magnetometer_y,magnetometer_x,magnetometeruncalibrated_time,magnetometeruncalibrated_seconds_elapsed,magnetometeruncalibrated_z,magnetometeruncalibrated_y,magnetometeruncalibrated_x,orientation_time,orientation_seconds_elapsed,orientation_qz,orientation_qy,orientation_qx,orientation_qw,orientation_roll,orientation_pitch,orientation_yaw
0.0,1.688686558924959e+18,29.99895890299479,-0.0456149776776631,-0.0305496851603189,-0.0790389378865559,1.688686558924959e+18,29.99895890299479,-0.7870392402013143,-9.283753077189129,3.2053852876027427,1.688686558924959e+18,29.99895890299479,-0.7472702860832214,-9.235698699951172,3.2217368284861245,1.6886865589206351e+18,29.994635091145835,-0.0152207259088754,-0.0539088575169443,0.0211766610542932,1.6886865589206351e+18,29.994635091145835,-0.0161370231459537,-0.0494291788587967,0.023671028514703,1.688686558926357e+18,30.00035693359375,0.0,1.6254775524139404,0.9254102110862732,16.261999130249023,0.2861638069152832,13.711762428283691,40.20000076293945,-122.7531523,49.1903712,1.6886865589288824e+18,30.002882519531248,21.69647979736328,38.55931930541992,-20.844919967651368,1.6886865589288824e+18,30.002882519531248,-233.64951171875,133.58511657714843,-153.56871643066407,1.688686558924959e+18,29.99895890299479,-0.2320601294438043,0.0094026451309521,-0.7334837714831034,0.6387965877850851,-1.7987127701441448,1.2269295851389568,2.147061506907145
0.05,1.6886865589768763e+18,30.050876383463542,0.0591659148534138,0.0222590764363606,0.0002466837565103,1.6886865589768763e+18,30.050876383463542,-0.6861418883005778,-9.230113983154297,3.286143064498902,1.6886865589768763e+18,30.050876383463542,-0.751153826713562,-9.23486836751302,3.2232089837392173,1.688686558972551e+18,30.04655069986979,-0.0017816902448733,-0.018376862455625,-0.0089593570058544,1.688686558972551e+18,30.04655069986979,-0.0026470826996955,-0.0139480892879267,-0.0065158956373731,,,,,,,,,,,,1.688686558978886e+18,30.05288623046875,21.91851959228516,38.60811996459961,-20.52771987915039,1.688686558978886e+18,30.05288623046875,-233.4274749755859,133.63391723632813,-153.251513671875,1.6886865589768763e+18,30.050876383463542,-0.2313859214385349,0.0085623565440376,-0.7336291472117106,0.6388861536979675,-1.799755573272705,1.2266784111658733,2.145904858907064
0.1,1.6886865590287872e+18,30.102787353515623,-0.0771945516268411,-0.01490052541097,-0.0302738348642984,1.6886865590287872e+18,30.102787353515623,-0.8321040670077006,-9.266205787658691,3.256432215372721,1.6886865590287872e+18,30.102787353515623,-0.7607555389404297,-9.233800570170084,3.224018653233846,1.688686559024459e+18,30.098458984375,-0.0051923545349078,-0.0169515114588042,-0.0119118724639216,1.688686559024459e+18,30.098458984375,-0.0060068416642024,-0.0124718328782667,-0.0094175060900548,,,,,,,,,,,,1.68868655902888e+18,30.10288017578125,22.18447952270508,38.600799560546875,-20.591159439086915,1.68868655902888e+18,30.10288017578125,-233.16151123046876,133.62659606933593,-153.31495361328126,1.6886865590287872e+18,30.102787353515623,-0.2313239127397536,0.0085522489001353,-0.7339626351992289,0.6385255853335062,-1.8025225003560383,1.226356029510498,2.148576498031616
0.15,1.688686559080693e+18,30.15469303385417,-0.0136906107266744,0.0161616007486979,-0.2614593505859374,1.688686559080693e+18,30.15469303385417,-0.7980063557624817,-9.229914665222168,3.033102114995321,1.688686559080693e+18,30.15469303385417,-0.7901617685953776,-9.228571573893229,3.2318740685780845,1.6886865590763717e+18,30.150371744791663,-0.0463239476084708,-0.1936951900521914,-0.0201076477145154,1.6886865590763717e+18,30.150371744791663,-0.0471893393745024,-0.1892155036330222,-0.0176641869669158,,,,,,,,,,,,1.6886865590788828e+18,30.15288271484375,21.918519973754883,38.207959747314455,-20.552119064331055,1.6886865590788828e+18,30.15288271484375,-233.4274749755859,133.23375549316407,-153.27591857910156,1.688686559080693e+18,30.15469303385417,-0.2292756338914235,0.0059489457247157,-0.7350074847539266,0.6380897164344788,-1.8105756441752117,1.2247820297876997,2.1499005953470864
0.2,1.6886865591326126e+18,30.206612711588544,0.1485686699549357,-0.2695684432983398,-0.718120813369751,1.6886865591326126e+18,30.206612711588544,-0.6991030176480612,-9.506484985351562,2.586441914240519,1.6886865591326126e+18,30.206612711588544,-0.8535177111625671,-9.219411849975586,3.241875330607096,1.6886865591282872e+18,30.202287109374996,-0.065464391062657,-0.5027930041154226,0.0354301836341619,1.6886865591282872e+18,30.202287109374996,-0.0663297834495703,-0.4983642299969991,0.037873645623525,,,,,,,,,,,,1.688686559128882e+18,30.20288208007813,22.211319351196288,38.38607940673828,-19.97871971130371,1.688686559128882e+18,30.20288208007813,-233.13467712402343,133.41187744140626,-152.7025146484375,1.6886865591326126e+18,30.206612711588544,-0.2226568410793939,-0.0017033268619949,-0.7372186779975891,0.6378976702690125,-1.8282320499420168,1.2220383882522583,2.1468680699666343
0.25,1.688686559175872e+18,30.249871826171876,0.3650503158569336,-0.2002568244934081,-0.4769076108932495,1.688686559175872e+18,30.249871826171876,-0.50039903819561,-9.441479682922363,2.8106693029403687,1.688686559175872e+18,30.249871826171876,-0.8712953925132751,-9.223718166351318,3.2248895168304443,1.688686559180199e+18,30.25419840494791,0.0050905433793862,-0.5520694653193156,0.2261728545029957,1.688686559180199e+18,30.25419840494791,0.0042251516133546,-0.5476407110691071,0.2287181317806243,,,,,,,,,,,,1.6886865591788836e+18,30.2528833984375,22.818879318237304,38.30311889648438,-19.73472023010254,1.6886865591788836e+18,30.2528833984375,-232.5271148681641,133.32891540527345,-152.4585174560547,1.688686559175872e+18,30.249871826171876,-0.2134878113865852,-0.0107168066315352,-0.7377610802650452,0.6403198540210724,-1.8346773982048037,1.2233250737190249,2.126861333847046
0.3,1.6886865592191283e+18,30.293128499348956,0.34306267897288,-0.0353663762410481,0.0491451422373453,1.6886865592191283e+18,30.293128499348956,-0.4849453965822856,-9.290133794148764,3.307678540547689,1.6886865592191283e+18,30.293128499348956,-0.8338541189829508,-9.237262725830078,3.1958460013071694,1.688686559232112e+18,30.306112060546877,0.0483092591166496,-0.1735875457525253,0.1924225538969039,1.688686559232112e+18,30.306112060546877,0.0474947728216648,-0.1691587716341018,0.1948660115400949,,,,,,,,,,,,1.6886865592288873e+18,30.3028873046875,23.10435981750488,38.44708023071289,-19.22719955444336,1.6886865592288873e+18,30.3028873046875,-232.24163513183595,133.4728790283203,-151.9510009765625,1.6886865592191283e+18,30.293128499348956,-0.2062351306279499,-0.017112991772592,-0.7363467415173849,0.6441753705342611,-1.826016386349996,1.22740372021993,2.098308245340983
0.35,1.6886865592710444e+18,30.345044677734375,-0.045350690682729,0.127704620361328,0.2840351263682047,1.6886865592710444e+18,30.345044677734375,-0.806580642859141,-9.14197826385498,3.516053517659506,1.6886865592710444e+18,30.345044677734375,-0.7670759757359823,-9.252178192138672,3.1693309942881265,1.6886865592753713e+18,30.349371215820312,0.0673478953540324,0.1357648000121116,0.0628427602350711,1.6886865592753713e+18,30.349371215820312,0.0665079541504383,0.1401935741305351,0.0652862228453159,,,,,,,,,,,,1.688686559278886e+18,30.352886035156253,22.56511993408203,38.830159759521486,-19.117399978637696,1.688686559278886e+18,30.352886035156253,-232.78087463378907,133.85595703125,-151.84119567871093,1.6886865592710444e+18,30.345044677734375,-0.2048103908697763,-0.0173021691540876,-0.7340284188588461,0.6472668250401815,-1.8082590103149416,1.2319475412368774,2.0781055291493735
0.4,1.688686559322956e+18,30.39695621744792,-0.4129224022229512,0.0844128926595051,0.244533618291219,1.688686559322956e+18,30.39695621744792,-1.161117156346639,-9.193423906962076,3.455834070841471,1.688686559322956e+18,30.39695621744792,-0.7540407776832581,-9.260332107543944,3.1486130555470786,1.688686559318625e+18,30.392625,0.0461203257242837,0.0073812877138455,1.5522046611001392e-10,1.688686559318625e+18,30.392625,0.0452040284872054,0.011860966682434,0.0024943657529851,,,,,,,,,,,,1.6886865593288852e+18,30.402885351562496,22.628559112548828,38.79843978881836,-19.117399597167967,1.6886865593288852e+18,30.402885351562496,-232.717431640625,133.8242401123047,-151.84119873046876,1.688686559322956e+18,30.39695621744792,-0.2052564670642216,-0.0152844535186886,-0.733620802561442,0.6476391951243082,-1.8058600425720217,1.2344563404719036,2.07921568552653
0.45,1.6886865593748685e+18,30.44886832682292,-0.3479678034782409,0.0850219726562499,0.2157291571299234,1.6886865593748685e+18,30.44886832682292,-1.1068799098332722,-9.195019404093424,3.417947769165039,1.6886865593748685e+18,30.44886832682292,-0.7647581299146017,-9.262536684672035,3.139531215031942,1.6886865593705444e+18,30.444544514973956,-0.0165951720749338,-0.3049235691626866,0.0795651984711487,1.6886865593705444e+18,30.444544514973956,-0.0175114703985552,-0.3004947950442632,0.0820086585978666,,,,,,,,,,,,1.688686559378886e+18,30.452885888671876,22.35283966064453,38.98387832641602,-19.02467956542969,1.688686559378886e+18,30.452885888671876,-232.99315795898437,134.00967407226562,-151.74847717285155,1.6886865593748685e+18,30.44886832682292,-0.2013092140356699,-0.0189277703563371,-0.7339052160580953,0.6484540104866028,-1.8097359736760457,1.235138217608134,2.0720903873443604
0.5,1.6886865594267845e+18,30.500784261067707,-0.0928128163019815,0.110149065653483,0.0929296811421711,1.6886865594267845e+18,30.500784261067707,-0.8679963946342468,-9.165906270345053,3.3028929233551025,1.6886865594267845e+18,30.500784261067707,-0.7810296018918356,-9.258550643920898,3.1472758452097573,1.6886865594224576e+18,30.49645743815104,-0.0544688180088996,-0.4349869589010874,0.125481903553009,1.6886865594224576e+18,30.49645743815104,-0.0553851140042145,-0.430558184782664,0.1279762685298919,,,,,,,,,,,,1.688686559428883e+18,30.5028830078125,22.789599609375,39.10831832885742,-18.68307991027832,1.688686559428883e+18,30.5028830078125,-232.556396484375,134.13411865234374,-151.40687561035156,1.6886865594267845e+18,30.500784261067707,-0.1941306143999099,-0.0275067873299121,-0.7341970006624857,0.6500010291735331,-1.814043958981832,1.2339073816935222,2.0536423524220786
0.55,1.6886865594786918e+18,30.552691650390624,0.058385670185089,0.0281203587849934,0.1256571610768635,1.6886865594786918e+18,30.552691650390624,-0.7226324280103048,-9.244869550069174,3.343171993891398,1.6886865594786918e+18,30.552691650390624,-0.7868641217549642,-9.25548521677653,3.154827435811361,1.6886865594743672e+18,30.548366943359373,-0.0322231414417425,-0.2811507284641265,0.0757981967180966,1.6886865594743672e+18,30.548366943359373,-0.0331394399205843,-0.2767219543457031,0.0783434665451446,,,,,,,,,,,,1.6886865594788872e+18,30.552887109375,22.72615966796875,38.9716796875,-18.39759979248047,1.6886865594788872e+18,30.552887109375,-232.61983337402344,133.99747314453126,-151.12139587402345,1.6886865594786918e+18,30.552691650390624,-0.1882654726505278,-0.0346740322808424,-0.7340988715489706,0.6514979799588522,-1.8152257998784385,1.2329631646474202,2.0360215504964194
0.6,1.6886865595306066e+18,30.6046064453125,0.0459987918535868,0.0347668329874674,0.1302321751912434,1.6886865595306066e+18,30.6046064453125,-0.760917603969574,-9.235298792521158,3.3497522672017417,1.6886865595306066e+18,30.6046064453125,-0.8127624193827311,-9.25256093343099,3.156832695007324,1.6886865595262769e+18,30.60027677408854,-0.0004581489871876,-0.0122173049797614,-0.057319523145755,1.6886865595262769e+18,30.60027677408854,-0.0013235415099188,-0.0077885327239831,-0.0548251569271087,,,,,,,,,,,,1.6886865595288806e+18,30.602880712890624,22.857919692993164,39.13759918212891,-18.21948013305664,1.6886865595288806e+18,30.602880712890624,-232.48807678222656,134.16339416503905,-150.94327392578126,1.6886865595306066e+18,30.6046064453125,-0.1865864396095275,-0.0365204612414041,-0.7349092364311218,0.6509684522946676,-1.8227864106496177,1.232064922650655,2.03851048151652
0.65,1.6886865595825157e+18,30.656515625,-0.0983654657999674,0.037629763285319,0.0203145345052083,1.6886865595825157e+18,30.656515625,-0.9419745206832886,-9.229116757710775,3.2398818333943686,1.6886865595825157e+18,30.656515625,-0.8494550784428915,-9.249241828918455,3.1568799018859863,1.6886865595781916e+18,30.652191569010416,-0.003156137051216,-0.0403680106004079,-0.075543666879336,1.6886865595781916e+18,30.652191569010416,-0.0040724351662599,-0.0359392389655113,-0.0731002079943815,,,,,,,,,,,,1.6886865595788849e+18,30.652884814453124,23.29223976135254,38.92043914794922,-18.3634391784668,1.6886865595788849e+18,30.652884814453124,-232.0537567138672,133.946240234375,-151.0872375488281,1.6886865595825157e+18,30.656515625,-0.1867111176252364,-0.0360952218373616,-0.7362013459205627,0.649494489034017,-1.833649317423503,1.2310482263565063,2.0501859188079834
0.7,1.6886865596257736e+18,30.6997734375,0.1111733615398406,-0.0604896545410156,-0.0479838848114013,1.6886865596257736e+18,30.6997734375,-0.7651050388813019,-9.323334217071531,3.1740792989730835,1.6886865596257736e+18,30.6997734375,-0.8821244239807129,-9.24533987045288,3.159375786781311,1.6886865596300982e+18,30.704097981770833,-0.0226529197146494,-0.1797980070114135,0.0015271625791986,1.6886865596300982e+18,30.704097981770833,-0.023518311480681,-0.17526742319266,0.0040215297291676,,,,,,,,,,,,1.6886865596288824e+18,30.702882568359374,23.036039733886717,38.98875885009765,-18.085279846191405,1.6886865596288824e+18,30.702882568359374,-232.30995483398436,134.01455993652343,-150.80907592773437,1.6886865596257736e+18,30.6997734375,-0.1847949251532554,-0.038214923813939,-0.7372243106365204,0.6487604081630707,-1.8430715203285215,1.2298561334609983,2.0538055896759033
0.75,1.6886865596690378e+18,30.743037760416662,0.3382856845855713,-0.0068499247233073,0.0076495011647542,1.6886865596690378e+18,30.743037760416662,-0.5451647440592448,-9.268598238627115,3.2309087912241616,1.6886865596690378e+18,30.743037760416662,-0.8892964522043864,-9.244243621826172,3.160571893056234,1.688686559682016e+18,30.75601603190104,-0.011606439637641,-0.0291688156624634,0.0476474886139233,1.688686559682016e+18,30.75601603190104,-0.0125227374956011,-0.0247400434066851,0.050090951224168,,,,,,,,,,,,1.6886865596788849e+18,30.752884863281245,23.292240142822266,38.94483871459961,-18.026719665527345,1.6886865596788849e+18,30.752884863281245,-232.0537567138672,133.97063903808595,-150.75051879882812,1.6886865596690378e+18,30.743037760416662,-0.182674745718638,-0.0406650652488072,-0.7373414039611816,0.6490790446599325,-1.8450791041056316,1.2295221090316772,2.0492252508799234
0.8,1.6886865597209457e+18,30.794945556640627,0.0963233709335327,0.0394322077433267,-0.009182850519816,1.6886865597209457e+18,30.794945556640627,-0.7557331522305807,-9.223134676615397,3.2203404903411865,1.6886865597209457e+18,30.794945556640627,-0.8579025467236837,-9.245062192281088,3.1668359438578286,1.6886865597252777e+18,30.799277587890625,-0.0058032197412102,0.1204931735992431,0.0371100641787052,1.6886865597252777e+18,30.799277587890625,-0.0067195177543907,0.1249219477176666,0.0395535249263047,,,,,,,,,,,,1.6886865597288855e+18,30.802885449218753,23.118999481201172,38.92043914794922,-18.14871940612793,1.6886865597288855e+18,30.802885449218753,-232.22699584960935,133.94623413085938,-150.8725158691406,1.6886865597209457e+18,30.794945556640627,-0.1835847496986388,-0.0403658002614974,-0.7362720370292664,0.650053878625234,-1.8353511889775591,1.229771415392558,2.041237195332845
0.85,1.6886865597728612e+18,30.846861165364583,-0.1979399720827738,-0.0358603795369466,-0.0398884614308674,1.6886865597728612e+18,30.846861165364583,-1.0193424622217817,-9.29910691579183,3.19581405321757,1.6886865597728612e+18,30.846861165364583,-0.8272485136985779,-9.245741844177248,3.1730151176452637,1.6886865597685363e+18,30.842536621093753,-0.0040215294963369,0.0630718367950369,0.0273362196361024,1.6886865597685363e+18,30.842536621093753,-0.0049378275095174,0.0675006105254093,0.0298305867860713,,,,,,,,,,,,1.6886865597788828e+18,30.85288271484375,23.365439224243165,38.94483947753906,-18.17067947387695,1.6886865597788828e+18,30.85288271484375,-231.98055419921872,133.97063903808595,-150.89447631835938,1.6886865597728612e+18,30.846861165364583,-0.1854569365580876,-0.0389705499013264,-0.7352855801582336,0.6507242918014526,-1.8258341948191328,1.2299786806106567,2.036430915196737
0.9,1.688686559824769e+18,30.898768880208333,-0.0716620484987893,0.058816909790039,0.0802360375722249,1.688686559824769e+18,30.898768880208333,-0.8931210438410441,-9.204590479532875,3.315455198287964,1.688686559824769e+18,30.898768880208333,-0.827305018901825,-9.24590269724528,3.172531763712565,1.6886865598204475e+18,30.894447835286456,0.0035633805479543,-0.0172569428881008,-0.0089084515348076,1.6886865598204475e+18,30.894447835286456,0.0027997989576154,-0.0128281700114408,-0.0064140855586931,1.688686559822e+18,30.896000244140627,0.0,1.6254775524139404,0.8793948292732239,17.844999313354492,0.2696772515773773,21.198871612548828,40.20000076293945,-122.7531435,49.1903688,1.6886865598288852e+18,30.90288525390625,22.99943962097168,39.037559509277344,-18.168239974975585,1.6886865598288852e+18,30.90288525390625,-232.3465545654297,134.0633575439453,-150.89203796386718,1.688686559824769e+18,30.898768880208333,-0.1853326310714085,-0.0390721596777438,-0.7352820833524069,0.6507575710614523,-1.8258873224258425,1.230027675628662,2.0361571311950684
0.95,1.6886865598766856e+18,30.95068562825521,0.0619253714879353,0.0427548090616861,0.2213207085927327,1.6886865598766856e+18,30.95068562825521,-0.7852446436882019,-9.21834913889567,3.456432342529297,1.6886865598766856e+18,30.95068562825521,-0.8530160387357076,-9.24359925587972,3.17242423693339,1.6886865598723584e+18,30.94635815429687,0.0047851111739873,0.0442877300083636,-0.0826195230086644,1.6886865598723584e+18,30.94635815429687,0.0038688133160272,0.0487674083560704,-0.0801760653654733,,,,,,,,,,,,1.688686559878881e+18,30.952881103515622,23.158039855957032,38.86675872802734,-18.324399566650392,1.688686559878881e+18,30.952881103515622,-232.18795776367188,133.8925567626953,-151.04819946289064,1.6886865598766856e+18,30.95068562825521,-0.1857364823420842,-0.0384093212584654,-0.7362073858579,0.6496344606081644,-1.833466450373332,1.2293262084325154,2.045288403828939
1.0,1.6886865599285985e+18,31.002598307291667,0.0379356741905212,-0.0038153330485025,0.0053447882334391,1.6886865599285985e+18,31.002598307291667,-0.8271190126736959,-9.260024070739746,3.249851862589518,1.6886865599285985e+18,31.002598307291667,-0.8709007104237875,-9.238704045613606,3.1818196773529053,1.688686559924271e+18,30.99827115885417,-0.0169006052116552,0.0695877335965633,-0.0265217317889134,1.688686559924271e+18,30.99827115885417,-0.0177659972881276,0.0740165064732233,-0.0240782710413137,1.688686559926367e+18,31.000366943359374,0.0,0.8158785104751587,0.8817744851112366,18.583999633789062,0.2424006760120391,50.69325256347656,40.20000076293945,-122.7531194,49.190352,1.6886865599288817e+18,31.002881787109377,23.04579963684082,38.810639190673825,-18.22191925048828,1.6886865599288817e+18,31.002881787109377,-232.3001953125,133.83643493652343,-150.94571838378906,1.6886865599285985e+18,31.002598307291667,-0.1872745255629221,-0.0372743209203083,-0.7368846933046976,0.6484902302424113,-1.837966362635295,1.227838675181071,2.0536742210388184
1.05,1.6886865599805084e+18,31.05450838216146,0.098366379737854,-0.0304908752441406,0.1086911360422769,1.6886865599805084e+18,31.05450838216146,-0.7493522961934408,-9.28634516398112,3.3589247862497964,1.6886865599805084e+18,31.05450838216146,-0.8535646994908651,-9.238349596659342,3.1875462532043457,1.688686559976186e+18,31.050186197916663,0.0011199198391599,0.0295760591203967,0.0164424564378956,1.688686559976186e+18,31.050186197916663,0.0002545270447929,0.0340048316866158,0.0189368223655037,,,,,,,,,,,,1.688686559978886e+18,31.0528859375,23.07995948791504,39.054639434814455,-18.334159469604497,1.688686559978886e+18,31.0528859375,-232.2660369873047,134.08043823242187,-151.05795593261718,1.6886865599805084e+18,31.05450838216146,-0.1882314383983611,-0.0367808863520621,-0.7363097270329794,0.6488945086797079,-1.83243993918101,1.2277312676111858,2.050243695576986
1.1,1.688686560032422e+18,31.106421956380206,0.1208355029424031,0.0558411280314127,0.2030413150787353,1.688686560032422e+18,31.106421956380206,-0.6961119969685873,-9.202596346537272,3.4538400967915854,1.688686560032422e+18,31.106421956380206,-0.8227935234705607,-9.240932782491049,3.1881113847096763,1.6886865600280975e+18,31.10209757486979,0.0255036236097414,0.2691879471143086,0.0009672032610978,1.6886865600280975e+18,31.10209757486979,0.024638231533269,0.273616721232732,0.003410664309437,,,,,,,,,,,,1.6886865600288814e+18,31.10288134765625,23.38983917236328,38.75695877075195,-17.975479507446288,1.6886865600288814e+18,31.10288134765625,-231.9561553955078,133.7827575683594,-150.69927978515625,1.688686560032422e+18,31.106421956380206,-0.1912631491820016,-0.0336403064429759,-0.7353925903638204,0.6492142279942831,-1.8233650922775269,1.228515386581421,2.0500678221384683
1.15,1.6886865600756818e+18,31.149681884765624,-0.1133902072906493,0.1492342948913574,0.2253229618072509,1.6886865600756818e+18,31.149681884765624,-0.8799605369567871,-9.114261627197266,3.4740793704986572,1.6886865600756818e+18,31.149681884765624,-0.772416353225708,-9.245991230010986,3.1860690116882324,1.68868656008001e+18,31.154010009765624,0.0545706289509931,0.4734714726607005,-0.0435241491844256,1.68868656008001e+18,31.154010009765624,0.0536543317139148,0.4779002467791239,-0.0410297817240158,,,,,,,,,,,,1.688686560078886e+18,31.15288623046875,22.81399917602539,38.92043914794922,-18.656239318847657,1.688686560078886e+18,31.15288623046875,-232.53199462890623,133.94623718261718,-151.38003540039062,1.6886865600756818e+18,31.149681884765624,-0.197249911725521,-0.0271389670670032,-0.7339142262935638,0.6494008004665375,-1.8086429238319397,1.2300550937652588,2.053360939025879
1.2,1.688686560118942e+18,31.192941975911463,-0.2651408314704894,0.0897744496663411,0.2603263854980468,1.688686560118942e+18,31.192941975911463,-1.0023932854334514,-9.176475207010904,3.5080774625142417,1.688686560118942e+18,31.192941975911463,-0.7430984973907471,-9.24874496459961,3.185063680013021,1.6886865601319206e+18,31.20592041015625,0.0283543281257152,0.424042284488678,-0.1193732519944508,1.6886865601319206e+18,31.20592041015625,0.0274889363596835,0.4284710586071014,-0.1169297893842061,,,,,,,,,,,,1.6886865601288827e+18,31.202882568359374,22.311359786987303,38.95460052490235,-19.48339958190918,1.6886865601288827e+18,31.202882568359374,-233.03463439941407,133.98039855957032,-152.2072021484375,1.688686560118942e+18,31.192941975911463,-0.2041717320680618,-0.0195094756782054,-0.7331360777219137,0.6484092473983765,-1.8000043233235676,1.2308959166208904,2.06575616200765
1.25,1.6886865601708506e+18,31.244850748697917,-0.1884733041127523,0.1023626327514647,0.0816156864166259,1.6886865601708506e+18,31.244850748697917,-0.9206385016441344,-9.161320368448893,3.3379876613616943,1.6886865601708506e+18,31.244850748697917,-0.7380112210909525,-9.24617830912272,3.1936845779418945,1.6886865601751726e+18,31.24917248535156,0.0057268617674707,0.3717878609895706,-0.1232420615851878,1.6886865601751726e+18,31.24917248535156,0.0048105637542902,0.3762930035591125,-0.1207986027002334,,,,,,,,,,,,1.6886865601788828e+18,31.252882714843754,22.101519775390624,38.98387908935547,-19.48339958190918,1.6886865601788828e+18,31.252882714843754,-233.24447631835935,134.00968017578126,-152.2071990966797,1.6886865601708506e+18,31.244850748697917,-0.211590493718783,-0.0118425597126284,-0.7331241766611735,0.646228015422821,-1.7978936036427815,1.230112632115682,2.0855199495951333
1.3,1.6886865602227663e+18,31.296766276041662,0.0205938220024108,-0.0247243245442707,-0.0347213745117187,1.6886865602227663e+18,31.296766276041662,-0.7379863858222961,-9.282357215881348,3.2329028447469077,1.6886865602227663e+18,31.296766276041662,-0.7644262313842773,-9.24012819925944,3.2049368222554526,1.6886865602184417e+18,31.292441650390625,0.0003563380644967,0.2627229591210683,-0.1763364324967066,1.6886865602184417e+18,31.292441650390625,-0.0004581490065902,0.2671517332394917,-0.1738929748535155,,,,,,,,,,,,1.6886865602288847e+18,31.302884619140627,22.147879791259765,38.60811920166016,-19.96651954650879,1.6886865602288847e+18,31.302884619140627,-233.19811096191407,133.6339141845703,-152.69031982421876,1.6886865602227663e+18,31.296766276041662,-0.2173231194416681,-0.0059197794956465,-0.7341141899426779,0.6432785590489706,-1.804928143819173,1.2282719214757285,2.1095131238301597
1.35,1.68868656027468e+18,31.348680094401043,0.2724112768967946,-0.0706141789754231,-0.08571457862854,1.68868656027468e+18,31.348680094401043,-0.5160520871480306,-9.322636604309084,3.1908289591471353,1.68868656027468e+18,31.348680094401043,-0.794309397538503,-9.234517733256022,3.2138561407725015,1.6886865602703534e+18,31.34435343424479,0.0073812884899476,0.3447316189606984,-0.1502728511889775,1.6886865602703534e+18,31.34435343424479,0.0065158961030343,0.3491603930791219,-0.1476766740282376,,,,,,,,,,,,1.6886865602788828e+18,31.352882812500003,22.011240005493164,38.51539840698242,-20.28859939575195,1.6886865602788828e+18,31.352882812500003,-233.33475646972656,133.54119567871095,-153.01239929199218,1.68868656027468e+18,31.348680094401043,-0.2229108810424804,0.0001165950792104,-0.7351736028989156,0.6401736736297607,-1.8130905628204343,1.2265716791152954,2.134613513946533
1.4,1.6886865603265876e+18,31.400587727864583,0.2018821239471435,-0.0101197560628255,-0.0854038397471109,1.6886865603265876e+18,31.400587727864583,-0.5563312570254008,-9.262018203735352,3.198805093765259,1.6886865603265876e+18,31.400587727864583,-0.7640594045321146,-9.234393755594889,3.221521536509196,1.688686560322266e+18,31.39626595052083,0.0270816932121912,0.4668028652667999,-0.0871501068274179,1.688686560322266e+18,31.39626595052083,0.0262163002043962,0.4712825417518616,-0.0847066467007,,,,,,,,,,,,1.6886865603288827e+18,31.402882812500003,21.86727981567383,38.42511978149414,-20.1836799621582,1.6886865603288827e+18,31.402882812500003,-233.47872009277344,133.45091552734374,-152.90747680664063,1.6886865603265876e+18,31.400587727864583,-0.2310436467329661,0.0084697062460084,-0.7340742548306783,0.6384910742441813,-1.8036651611328125,1.2265342871348064,2.1491870085398355
1.45,1.6886865603784973e+18,31.452497395833337,-0.0681984225908915,-0.0174210866292317,-0.1117490927378336,1.6886865603784973e+18,31.452497395833337,-0.7728817264238993,-9.27099132537842,3.179861863454183,1.6886865603784973e+18,31.452497395833337,-0.7105293273925781,-9.236065546671549,3.2289235591888428,1.6886865603741745e+18,31.448174479166664,0.0148134819076706,0.5390376845995585,-0.0497855159143606,1.6886865603741745e+18,31.448174479166664,0.0138971845153719,0.5434664487838745,-0.0473420576502879,,,,,,,,,,,,1.6886865603788836e+18,31.452883447265624,21.179199600219725,38.405599212646486,-20.98155975341797,1.6886865603788836e+18,31.452883447265624,-234.166796875,133.431396484375,-153.70535583496093,1.6886865603784973e+18,31.452497395833337,-0.2403768350680668,0.0178787118444839,-0.7320435047149658,0.6371787587801615,-1.7873955567677815,1.227039098739624,2.1602447827657065
1.5,1.6886865604304148e+18,31.50441487630208,-0.3466057578722636,0.0312229792277018,-0.2440812587738036,1.6886865604304148e+18,31.50441487630208,-0.9956136147181192,-9.220143636067707,3.0656046072642007,1.6886865604304148e+18,31.50441487630208,-0.654853880405426,-9.233861923217772,3.2469984690348306,1.6886865604260856e+18,31.500085856119792,-0.0178169030696152,0.3231986264387766,-0.0216348109145958,1.6886865604260856e+18,31.500085856119792,-0.0187332009275753,0.3276783029238382,-0.0191404446959495,,,,,,,,,,,,1.6886865604288827e+18,31.502882666015623,21.523239135742188,38.43487930297851,-20.918119430541992,1.6886865604288827e+18,31.502882666015623,-233.82275390625,133.46068115234374,-153.6419189453125,1.6886865604304148e+18,31.50441487630208,-0.2483967343966165,0.024847388267517,-0.7299025853474935,0.6363337238629659,-1.7698072989781697,1.2263738711675007,2.1645940939585366
1.55,1.6886865604823268e+18,31.55632698567708,-0.1852843761444091,-0.0690202713012695,-0.2949825922648111,1.6886865604823268e+18,31.55632698567708,-0.8307082653045654,-9.31605593363444,3.0277182261149087,1.6886865604823268e+18,31.55632698567708,-0.6512699127197266,-9.229530970255531,3.2600134213765464,1.688686560478002e+18,31.552001953125,-0.0225002033015091,0.0909171092013517,-0.0542142894119024,1.688686560478002e+18,31.552001953125,-0.0234165014699101,0.0953458833197752,-0.0517199250559011,,,,,,,,,,,,1.6886865604788805e+18,31.552880517578124,20.520399856567384,38.10547866821289,-21.852639389038085,1.6886865604788805e+18,31.552880517578124,-234.82559509277343,133.13127746582032,-154.57643432617186,1.6886865604823268e+18,31.55632698567708,-0.2514278690020243,0.0272444368650515,-0.7296927173932394,0.6352872252464294,-1.767972985903422,1.2250686089197795,2.170754830042521
1.6,1.688686560525587e+18,31.59958703613281,-0.0134488046169281,-0.0760464668273925,-0.2472684383392333,1.688686560525587e+18,31.59958703613281,-0.6885347366333008,-9.320642471313477,3.0762726068496704,1.688686560525587e+18,31.59958703613281,-0.680931955575943,-9.227091312408447,3.26085364818573,1.6886865605299146e+18,31.603914388020836,0.0066686122057338,0.0222965807964404,-0.1151480997602144,1.6886865605299146e+18,31.603914388020836,0.0057523141925533,0.0267253542939821,-0.1126028299331664,,,,,,,,,,,,1.688686560528888e+18,31.60288798828125,20.464279174804688,38.007878112792966,-21.528118896484376,1.688686560528888e+18,31.60288798828125,-234.8817138671875,133.03367614746094,-154.25191650390624,1.688686560525587e+18,31.59958703613281,-0.2521433532238006,0.0284573417156933,-0.7306818068027496,0.6338122487068176,-1.7766575813293457,1.2243362665176392,2.182291626930237
1.65,1.688686560568847e+18,31.64284716796875,0.1496521035830179,-0.0673112869262695,-0.1087093353271484,1.688686560568847e+18,31.64284716796875,-0.5752744376659393,-9.309874534606934,3.2097721894582114,1.688686560568847e+18,31.64284716796875,-0.7307725747426351,-9.225058555603027,3.255794127782186,1.6886865605818253e+18,31.65582511393229,0.0040215295399926,-0.0043269620897868,-0.0719802901148795,1.6886865605818253e+18,31.65582511393229,0.0031052315801691,0.000101810398822,-0.0693841101601719,,,,,,,,,,,,1.688686560578887e+18,31.652886816406248,21.286559677124025,38.08351974487304,-21.498839569091796,1.688686560578887e+18,31.652886816406248,-234.05943603515624,133.10931396484375,-154.2226348876953,1.688686560568847e+18,31.64284716796875,-0.2516353825728098,0.0290413045634825,-0.7323950926462809,0.6320072611172994,-1.7915875514348347,1.2237258354822795,2.1973549524943032
1.7,1.6886865606207537e+18,31.69475349934896,0.2873761653900146,0.0953610738118489,0.0658000310262043,1.6886865606207537e+18,31.69475349934896,-0.4416751762231191,-9.146963119506836,3.384049415588379,1.6886865606207537e+18,31.69475349934896,-0.7348973949750265,-9.224819501241049,3.2555619875590005,1.688686560625091e+18,31.699090942382817,0.0061850106576456,0.1555415652692317,-0.0015271632000804,1.688686560625091e+18,31.699090942382817,0.0052687127608805,0.1600466929376125,0.00099265598692,,,,,,,,,,,,1.6886865606288873e+18,31.702887353515628,21.281679534912108,38.25431900024414,-21.679399490356445,1.6886865606288873e+18,31.702887353515628,-234.06431579589844,133.28011779785157,-154.4031982421875,1.6886865606207537e+18,31.69475349934896,-0.2526727716128031,0.0303264129906892,-0.7324866652488708,0.6314260164896647,-1.7928142547607422,1.2236541906992595,2.2019895712534585
1.75,1.6886865606726676e+18,31.746667805989585,-0.0305938522020975,0.020114262898763,-0.0044784545898437,1.6886865606726676e+18,31.746667805989585,-0.721037228902181,-9.2209415435791,3.3258241017659507,1.6886865606726676e+18,31.746667805989585,-0.6962894002596537,-9.223551114400228,3.2676151593526206,1.6886865606683482e+18,31.74234798177083,-0.011606439637641,0.2691879520813624,-0.0161370239414585,1.6886865606683482e+18,31.74234798177083,-0.0125227374956011,0.2736167212327321,-0.0136935627864052,,,,,,,,,,,,1.6886865606788884e+18,31.75288837890625,20.915679931640625,38.09571838378906,-22.14787940979004,1.6886865606788884e+18,31.75288837890625,-234.43031311035156,133.12151794433595,-154.87167663574218,1.6886865606726676e+18,31.746667805989585,-0.2573626736799876,0.0341947389145692,-0.7309712171554565,0.6310885747273763,-1.780752221743266,1.2232743501663208,2.202500104904175
1.8,1.6886865607245837e+18,31.79858357747396,-0.1888363758722941,-0.0303007761637369,-0.1432788372039794,1.6886865607245837e+18,31.79858357747396,-0.8669994274775187,-9.26760164896647,3.200200875600179,1.6886865607245837e+18,31.79858357747396,-0.6840090751647949,-9.219796180725098,3.280792315800985,1.688686560720259e+18,31.794258951822915,-0.0163915505011875,0.1145372359702984,-0.0398589571317036,1.688686560720259e+18,31.794258951822915,-0.0173078489800293,0.1189660020172595,-0.0373136854420105,,,,,,,,,,,,1.6886865607288847e+18,31.80288486328125,20.69119987487793,38.06887969970703,-22.106399536132812,1.6886865607288847e+18,31.80288486328125,-234.65479431152343,133.0946807861328,-154.8301971435547,1.6886865607245837e+18,31.79858357747396,-0.2609347800413766,0.0370905908445516,-0.73040242989858,0.6301184296607971,-1.7763452132542927,1.2221523920694988,2.2076378663380942
1.85,1.688686560776496e+18,31.850496012369792,0.0521902441978454,-0.0025221506754557,-0.1033718585968017,1.688686560776496e+18,31.850496012369792,-0.6584250330924988,-9.236295382181805,3.2430723508199057,1.688686560776496e+18,31.850496012369792,-0.7164613008499146,-9.216268539428713,3.2837568124135337,1.6886865607721718e+18,31.846171875,-0.0053450708898405,-0.0617991996308167,-0.0659734457731246,1.6886865607721718e+18,31.846171875,-0.0062104632767538,-0.0573704292376835,-0.0635299868881702,,,,,,,,,,,,1.6886865607788815e+18,31.852881640625004,20.74243927001953,38.06643905639648,-22.379679107666018,1.6886865607788815e+18,31.852881640625004,-234.60355529785156,133.09223327636718,-155.10347900390624,1.688686560776496e+18,31.850496012369792,-0.2606545190016429,0.0370643163720766,-0.7315350572268168,0.6289208928743998,-1.7856160799662273,1.2211013634999592,2.216498613357544
1.9,1.6886865608284068e+18,31.902406738281247,0.3227295180161794,0.0197795232137044,0.019367774327596,1.6886865608284068e+18,31.902406738281247,-0.4331008990605672,-9.211968421936035,3.3613175551096597,1.6886865608284068e+18,31.902406738281247,-0.7616764704386393,-9.214243253072103,3.27926238377889,1.6886865608240827e+18,31.898082845052084,-0.0006108653809254,-0.0834340130289394,-0.0709112733602523,1.6886865608240827e+18,31.898082845052084,-0.0015271630448599,-0.079005238910516,-0.0683660035332043,,,,,,,,,,,,1.688686560828885e+18,31.902885009765622,20.774159240722657,37.89563827514648,-22.138119506835935,1.688686560828885e+18,31.902885009765622,-234.57183532714845,132.92143859863282,-154.8619171142578,1.6886865608284068e+18,31.902406738281247,-0.2589238882064819,0.0361463849743207,-0.7331544756889343,0.6278024514516195,-1.7990231116612752,1.2204985618591309,2.2260359128316245
1.95,1.6886865608803213e+18,31.954321044921873,0.304664651552836,-0.11676820119222,-0.059532880783081,1.6886865608803213e+18,31.954321044921873,-0.4971089164415995,-9.340781847635904,3.293122132619222,1.6886865608803213e+18,31.954321044921873,-0.8076196114222208,-9.206508954366049,3.2899676163991294,1.688686560875992e+18,31.949992024739583,-0.0418442698816458,-0.0562505088746547,-0.083128577719132,1.688686560875992e+18,31.949992024739583,-0.0427096604059139,-0.0518217347562312,-0.0805833054085572,,,,,,,,,,,,1.6886865608788823e+18,31.952882275390625,21.34755935668945,37.98835906982422,-22.05027961730957,1.6886865608788823e+18,31.952882275390625,-233.9984375,133.0141571044922,-154.77407531738282,1.6886865608803213e+18,31.954321044921873,-0.2582826316356659,0.0352916754782199,-0.7347914377848307,0.6261993447939554,-1.8115161259969077,1.2182090679804485,2.2364184061686196
2.0,1.6886865609322353e+18,32.006235270182295,0.172862688700358,-0.0824540456136067,-0.1064811547597248,1.6886865609322353e+18,32.006235270182295,-0.623330314954122,-9.29890727996826,3.2685957749684653,1.6886865609322353e+18,32.006235270182295,-0.8020390272140503,-9.198948542277018,3.312389532725016,1.688686560927908e+18,32.001908203125,-0.060119322190682,-0.1393790841102599,0.1270090652008851,1.688686560927908e+18,32.001908203125,-0.0610356181859969,-0.1349503149588902,0.1294525278111298,1.688686560926387e+18,32.00038696289062,0.0,0.5541749000549316,0.8913578987121582,18.218000411987305,0.2418290227651596,63.48469161987305,40.20000076293945,-122.7531089,49.1903452,1.688686560928885e+18,32.002884863281245,21.64035987854004,37.71996002197265,-21.835559463500974,1.688686560928885e+18,32.002884863281245,-233.70563354492188,132.74575805664062,-154.55935974121093,1.6886865609322353e+18,32.006235270182295,-0.2570320665836334,0.0319467429071664,-0.7347503105799357,0.6269396742184957,-1.8083682854970295,1.215982476870219,2.2266045411427817
2.05,1.688686560975492e+18,32.0494921875,0.1104210317134857,0.1897082328796386,-0.1000370979309081,1.688686560975492e+18,32.0494921875,-0.6290132403373718,-9.025428295135498,3.29192578792572,1.688686560975492e+18,32.0494921875,-0.7452802956104279,-9.1976318359375,3.3292754888534546,1.6886865609798193e+18,32.053819091796875,-0.0475965837637583,0.0527889380852381,0.1420261710882186,1.6886865609798193e+18,32.053819091796875,-0.0484619761506716,0.0572177109618981,0.1444696287314096,,,,,,,,,,,,1.6886865609788828e+18,32.052882763671874,21.232879638671875,37.934679412841795,-21.801399612426756,1.6886865609788828e+18,32.052882763671874,-234.1131134033203,132.96047668457032,-154.5251953125,1.688686560975492e+18,32.0494921875,-0.2568366527557373,0.0294663263484835,-0.7328842282295227,0.6293226778507233,-1.791035294532776,1.2155964374542236,2.205356478691101
2.1,1.6886865610187525e+18,32.09275236002604,-0.3190248211224873,-0.0247141520182291,-0.1279845237731933,1.6886865610187525e+18,32.09275236002604,-0.9818548957506816,-9.238887468973797,3.282753308614095,1.6886865610187525e+18,32.09275236002604,-0.6686760981877645,-9.19666862487793,3.3480504353841147,1.688686561031728e+18,32.105727945963544,-0.0100283709665139,0.2517273873090744,0.1213585635026295,1.688686561031728e+18,32.105727945963544,-0.0109446689796944,0.2561561514933904,0.1238529259959856,,,,,,,,,,,,1.688686561028883e+18,32.102882861328126,20.930319595336915,37.95419921875,-22.11371955871582,1.688686561028883e+18,32.102882861328126,-234.41567993164065,132.97999572753906,-154.83751831054687,1.6886865610187525e+18,32.09275236002604,-0.2600453694661458,0.0304734595119952,-0.7301733096440634,0.6311030387878418,-1.7679318189620972,1.2153145869572957,2.188455899556478
2.15,1.6886865610706616e+18,32.144661539713546,-0.5505627393722534,0.0227286020914713,-0.1970100402832031,1.6886865610706616e+18,32.144661539713546,-1.1443674166997273,-9.195218722025553,3.2165517807006836,1.6886865610706616e+18,32.144661539713546,-0.5996507008870443,-9.200442632039389,3.350874423980713,1.6886865610836406e+18,32.157640462239584,0.0401643899579842,0.1456913637618223,-0.0535525195300579,1.6886865610836406e+18,32.157640462239584,0.0392480914791424,0.1501201366384823,-0.0511090575406948,,,,,,,,,,,,1.6886865610788874e+18,32.15288740234375,20.45451965332031,38.24455947875977,-22.61879997253418,1.6886865610788874e+18,32.15288740234375,-234.8914764404297,133.27035522460938,-155.34259338378905,1.6886865610706616e+18,32.144661539713546,-0.2644202411174774,0.034177716821432,-0.7275956273078918,0.6320732235908508,-1.7478835582733154,1.216422160466512,2.180241425832113
2.2,1.6886865611225766e+18,32.196576660156246,-0.4246839483578999,-0.0652964909871419,-0.0551374753316243,1.6886865611225766e+18,32.196576660156246,-1.066201905409495,-9.290333112080893,3.3298121293385825,1.6886865611225766e+18,32.196576660156246,-0.6473639806111654,-9.207531929016112,3.3222622076670327,1.6886865611269043e+18,32.200904296874995,0.0845284797251224,-0.0965930689126252,-0.1702023223042488,1.6886865611269043e+18,32.200904296874995,0.0836121775209903,-0.0920879375189542,-0.1676825135946273,,,,,,,,,,,,1.6886865611288868e+18,32.20288676757813,20.722919464111328,37.8492790222168,-22.72859916687012,1.6886865611288868e+18,32.20288676757813,-234.62307739257812,132.8750762939453,-155.4523956298828,1.6886865611225766e+18,32.196576660156246,-0.2640856405099233,0.0368461112181345,-0.729134758313497,0.6302865346272787,-1.7632651726404829,1.2185118198394775,2.1989738941192627
2.25,1.6886865611744873e+18,32.24848738606771,0.1661695341269175,0.0137939453125,0.3192636966705322,1.6886865611744873e+18,32.24848738606771,-0.6235297123591105,-9.21695327758789,3.655634800593058,1.6886865611744873e+18,32.24848738606771,-0.7955452799797058,-9.213242530822754,3.273683706919352,1.6886865611701637e+18,32.24416357421875,0.0820086573561032,-0.3286963999271393,-0.2365575631459553,1.6886865611701637e+18,32.24416357421875,0.0811432674527167,-0.3242676258087158,-0.2340122958024342,,,,,,,,,,,,1.6886865611788818e+18,32.2528818359375,21.379279708862303,37.83219985961914,-21.89167938232422,1.6886865611788818e+18,32.2528818359375,-233.96671447753903,132.85799865722657,-154.615478515625,1.6886865611744873e+18,32.24848738606771,-0.2577480971813202,0.0357607007026672,-0.7343476414680481,0.6269063154856364,-1.8092022339502971,1.2202024857203166,2.233932892481486
2.3,1.6886865612263985e+18,32.30039819335938,0.7968080242474874,0.1561619440714517,0.5300753911336263,1.6886865612263985e+18,32.30039819335938,-0.1062812084952989,-9.074181556701658,3.838286876678467,1.6886865612263985e+18,32.30039819335938,-0.908935288588206,-9.212838808695476,3.2455240885416665,1.6886865612220764e+18,32.296076334635416,0.0284561388349781,-0.0954985978702704,-0.1277217442790666,1.6886865612220764e+18,32.296076334635416,0.0275907466032852,-0.0910189238687356,-0.1252273793021837,,,,,,,,,,,,1.6886865612288837e+18,32.302883300781254,22.155199432373045,37.88099975585938,-21.579359436035155,1.6886865612288837e+18,32.302883300781254,-233.1907958984375,132.90679626464845,-154.30315856933595,1.6886865612263985e+18,32.30039819335938,-0.253039022286733,0.034301247447729,-0.738343874613444,0.6242135564486185,-1.843865712483724,1.220081647237142,2.2595413525899253
2.35,1.6886865612783124e+18,32.352312500000004,0.3380820552508036,0.1156994501749674,0.2225309213002522,1.6886865612783124e+18,32.352312500000004,-0.5108676354090372,-9.111270268758137,3.5547374884287515,1.6886865612783124e+18,32.352312500000004,-0.8547957340876261,-9.209465026855469,3.2695191701253257,1.6886865612739858e+18,32.347985758463544,-0.0340557371576626,0.3635666370391845,0.0888299886137246,1.6886865612739858e+18,32.347985758463544,-0.0349211301654576,0.3680463135242462,0.0912734512239694,,,,,,,,,,,,1.6886865612788854e+18,32.352885498046874,21.825799560546876,37.96883926391602,-22.033199310302734,1.6886865612788854e+18,32.352885498046874,-233.52019653320312,132.99463806152343,-154.75699462890626,1.6886865612783124e+18,32.352312500000004,-0.257891317208608,0.0372291343907514,-0.7363285422325134,0.6244327624638876,-1.8265321652094524,1.2190815210342407,2.2536749839782715
2.4,1.6886865613302218e+18,32.404221923828125,-0.3618632356325785,-0.0381390253702799,-0.0847510496775308,1.6886865613302218e+18,32.404221923828125,-1.0835498571395874,-9.262616157531738,3.2851460774739585,1.6886865613302218e+18,32.404221923828125,-0.7275326450665792,-9.206972440083822,3.307209730148315,1.6886865613258964e+18,32.399896240234376,-0.0487165028850236,0.3450370530287425,0.1221221461892127,1.6886865613258964e+18,32.399896240234376,-0.0495818965137004,0.3494658271471659,0.1245656013488769,,,,,,,,,,,,1.6886865613288814e+18,32.40288149414063,20.35203971862793,37.844400024414064,-22.36747932434082,1.6886865613288814e+18,32.40288149414063,-234.99395446777345,132.87019958496094,-155.09127502441407,1.6886865613302218e+18,32.404221923828125,-0.266242762406667,0.0418997506300607,-0.7316596110661825,0.6261217594146729,-1.787351369857788,1.2183452447255452,2.23368247350057
2.45,1.6886865613821366e+18,32.45613655598958,-0.4706427852312724,0.0250552495320638,-0.2289121150970458,1.6886865613821366e+18,32.45613655598958,-1.14117697874705,-9.19162940979004,3.173480987548828,1.6886865613821366e+18,32.45613655598958,-0.6763802170753479,-9.199179967244469,3.3397057056427,1.6886865613778132e+18,32.451813313802084,-0.0618501069645086,0.070351315041383,0.0194967842350403,1.6886865613778132e+18,32.451813313802084,-0.0627154981096585,0.0747800879180431,0.021940242499113,,,,,,,,,,,,1.6886865613788828e+18,32.452882666015626,20.42279930114746,37.995679473876955,-22.735919189453124,1.6886865613788828e+18,32.452882666015626,-234.9231964111328,133.02147827148437,-155.459716796875,1.6886865613821366e+18,32.45613655598958,-0.2702076733112335,0.0430660359561443,-0.7298088669776917,0.6265077193578085,-1.7706308762232463,1.216052532196045,2.224617083867391
2.5,1.6886865614253988e+18,32.49939868164063,-0.302449882030487,-0.0946779251098632,-0.3148249387741089,1.6886865614253988e+18,32.49939868164063,-1.0157532393932345,-9.303294658660889,3.100799083709717,1.6886865614253988e+18,32.49939868164063,-0.7191493809223175,-9.191112041473389,3.352936625480652,1.6886865614297275e+18,32.5037275390625,-0.0268780710175633,-0.191913495461146,-0.1024217382073401,1.6886865614297275e+18,32.5037275390625,-0.0277943685650824,-0.1874847263097762,-0.0998255610466002,,,,,,,,,,,,1.6886865614288837e+18,32.50288334960938,20.61311912536621,37.690679931640624,-22.69687957763672,1.6886865614288837e+18,32.50288334960938,-234.73287353515624,132.7164794921875,-155.4206756591797,1.6886865614253988e+18,32.49939868164063,-0.2691277712583542,0.0414955411106347,-0.7313913106918335,0.6252312660217285,-1.782085657119751,1.2136918902397156,2.2322617769241333
2.55,1.6886865614686518e+18,32.542651936848955,0.1470042069753011,-0.0813706715901692,-0.0642038186391194,1.6886865614686518e+18,32.542651936848955,-0.6490531464417776,-9.286544799804688,3.3419756094614663,1.6886865614686518e+18,32.542651936848955,-0.8019033869107565,-9.18766943613688,3.343492031097412,1.688686561481636e+18,32.55563614908854,0.0266744485124944,-0.2207259734471638,-0.131183311343193,1.688686561481636e+18,32.55563614908854,0.0258090567464629,-0.2162462919950484,-0.1287398512164751,,,,,,,,,,,,1.6886865614788818e+18,32.552881640625,21.306079483032228,37.55647964477539,-22.577320098876953,1.6886865614788818e+18,32.552881640625,-234.0399139404297,132.582275390625,-155.30111694335938,1.6886865614686518e+18,32.542651936848955,-0.2651346226533254,0.038974809149901,-0.7344066699345907,0.6235602895418803,-1.806200663248698,1.2126890420913696,2.246820052464803
2.6,1.6886865615205663e+18,32.59456616210937,0.5023762186368307,0.1083987553914387,0.2508910497029621,1.6886865615205663e+18,32.59456616210937,-0.3680958847204844,-9.096116065979004,3.640280803044637,1.6886865615205663e+18,32.59456616210937,-0.8763181567192078,-9.187010129292808,3.326702356338501,1.6886865615335465e+18,32.60754663085938,0.0111991955588261,0.0704022208228707,-0.0808378346264361,1.6886865615335465e+18,32.60754663085938,0.0102828983217477,0.0748818994470638,-0.0783943732579548,,,,,,,,,,,,1.6886865615288827e+18,32.6028826171875,21.779439544677736,37.524758911132814,-22.372359848022462,1.6886865615288827e+18,32.6028826171875,-233.5665557861328,132.55055541992186,-155.09615783691407,1.6886865615205663e+18,32.59456616210937,-0.2623839676380157,0.0383256934583186,-0.7370195984840393,0.6216811537742615,-1.8283788760503132,1.212496638298035,2.2639997005462646
2.65,1.688686561572482e+18,32.64648209635416,0.2059863209724426,-0.0165255864461262,0.0719986756642659,1.688686561572482e+18,32.64648209635416,-0.657826821009318,-9.218548774719238,3.469991683959961,1.688686561572482e+18,32.64648209635416,-0.8696591655413309,-9.184518496195476,3.335305611292521,1.688686561576809e+18,32.65080895996094,-0.0229074470698832,0.1150717400014399,0.0515417531132697,1.688686561576809e+18,32.65080895996094,-0.0238237446174024,0.1195005141198635,0.0539852157235145,,,,,,,,,,,,1.6886865615788818e+18,32.6528818359375,21.755039596557616,37.419839477539064,-22.465079498291015,1.6886865615788818e+18,32.6528818359375,-233.59095458984376,132.4456359863281,-155.18887939453126,1.688686561572482e+18,32.64648209635416,-0.264473299185435,0.039999771863222,-0.7367004752159119,0.6210680405298868,-1.8258777856826784,1.211772322654724,2.2670694986979165
2.7,1.6886865616243896e+18,32.698389648437505,-0.000922679901123,-0.0034567515055338,-0.085358699162801,1.6886865616243896e+18,32.698389648437505,-0.8087740540504456,-9.204790115356444,3.328615744908651,1.6886865616243896e+18,32.698389648437505,-0.8136973977088928,-9.183828671773275,3.351287047068278,1.68868656162007e+18,32.69407006835937,-0.0227547303463021,0.0947350189089775,0.0795142923792203,1.68868656162007e+18,32.69407006835937,-0.023671028514703,0.099163790543874,0.0819577525059381,,,,,,,,,,,,1.6886865616288832e+18,32.702883203125,21.105999374389647,37.74435958862305,-22.4406795501709,1.6886865616288832e+18,32.702883203125,-234.2399932861328,132.77015686035156,-155.1644775390625,1.6886865616243896e+18,32.698389648437505,-0.2669217884540557,0.0406624128421147,-0.7347258925437927,0.6223154862721761,-1.8090056975682576,1.211572249730428,2.2547895908355713
2.75,1.688686561676303e+18,32.75030297851563,-0.0716797510782877,-0.0372778574625651,-0.1020758152008056,1.688686561676303e+18,32.75030297851563,-0.8532406687736511,-9.23968537648519,3.315255800882975,1.688686561676303e+18,32.75030297851563,-0.7874069412549337,-9.184902826944986,3.354644219080607,1.6886865616719808e+18,32.74598079427083,0.0092138843610882,0.1001309975981711,-0.004734205858161,1.6886865616719808e+18,32.74598079427083,0.0082975864255179,0.104559764266014,-0.002290744955341,,,,,,,,,,,,1.688686561678885e+18,32.75288515625,21.101119232177737,37.57843933105469,-22.867679595947266,1.688686561678885e+18,32.75288515625,-234.2448760986328,132.60423889160157,-155.5914794921875,1.688686561676303e+18,32.75030297851563,-0.2686259448528289,0.0419516203304131,-0.7337408463160197,0.6226587096850077,-1.8013618389765422,1.2118842999140422,2.251545508702596
2.8,1.6886865617282168e+18,32.802216796875,-0.2302901148796081,0.0552040735880533,-0.0521637598673502,1.6886865617282168e+18,32.802216796875,-1.0241280595461528,-9.146963437398275,3.362912813822428,1.6886865617282168e+18,32.802216796875,-0.7996839682261149,-9.184662818908691,3.352389176686605,1.6886865617238986e+18,32.7978984375,0.0056505034056802,0.0549778714776039,-0.0715221390128135,1.6886865617238986e+18,32.7978984375,0.0047342057029406,0.0594066437333822,-0.0690786764025687,,,,,,,,,,,,1.6886865617288827e+18,32.802882714843754,20.661919784545898,37.46131896972656,-22.938439559936523,1.6886865617288827e+18,32.802882714843754,-234.68407592773437,132.48712158203125,-155.66223754882813,1.6886865617282168e+18,32.802216796875,-0.2700783610343933,0.044059441735347,-0.7340437769889832,0.6215270161628723,-1.8049777348836265,1.2118141651153564,2.260415315628052
2.85,1.6886865617801306e+18,32.85413053385417,-0.091381827990214,-0.0106871922810872,-0.0552972952524821,1.6886865617801306e+18,32.85413053385417,-0.9172486662864684,-9.209376017252604,3.3615170319875083,1.6886865617801306e+18,32.85413053385417,-0.8317128618558248,-9.18118413289388,3.3541269302368164,1.6886865617758065e+18,32.849806396484375,-0.0180714301144082,-0.1554652030269304,-0.0027997989673167,1.6886865617758065e+18,32.849806396484375,-0.0189877276619274,-0.151036428908507,-0.0003054326710601,,,,,,,,,,,,1.6886865617788777e+18,32.85287778320312,21.149919509887695,37.583319091796874,-22.74323959350586,1.6886865617788777e+18,32.85287778320312,-234.19607543945312,132.60911560058594,-155.4670379638672,1.6886865617801306e+18,32.85413053385417,-0.26846777399381,0.0425739648441473,-0.7352417707443237,0.6209108432133993,-1.8138764301935832,1.2108064889907837,2.264789581298828
2.9,1.6886865618320415e+18,32.90604191080729,0.2046125531196594,-0.0056180953979492,0.1742122968037922,1.6886865618320415e+18,32.90604191080729,-0.645663301150004,-9.203593571980797,3.5868411858876548,1.6886865618320415e+18,32.90604191080729,-0.8561218778292338,-9.180470784505207,3.3499414920806885,1.688686561827716e+18,32.901716064453126,0.003767002451544,-0.1316923635701337,0.002952515380457,1.688686561827716e+18,32.901716064453126,0.0029016097541898,-0.1272635906934737,0.0053959762056668,,,,,,,,,,,,1.688686561828883e+18,32.902882763671876,21.406119537353515,37.47351913452148,-22.582199478149413,1.688686561828883e+18,32.902882763671876,-233.93987426757812,132.49931640625,-155.30599365234374,1.6886865618320415e+18,32.90604191080729,-0.2654017806053161,0.0396975154678026,-0.736248771349589,0.6212272842725118,-1.8210227886835737,1.2106001377105713,2.2631848653157554
2.95,1.6886865618752988e+18,32.94929870605469,0.1248142123222351,0.0542330741882324,0.2866982221603393,1.6886865618752988e+18,32.94929870605469,-0.7277171909809113,-9.145069122314451,3.695116400718689,1.6886865618752988e+18,32.94929870605469,-0.8583774268627167,-9.181797504425049,3.345730781555176,1.6886865618796306e+18,32.953630289713544,0.0198022151986757,0.0691295837362606,-0.0172060380379358,1.6886865618796306e+18,32.953630289713544,0.0188859167198339,0.0736092614630857,-0.0147116718192894,,,,,,,,,,,,1.6886865618788818e+18,32.952881835937504,21.74771957397461,37.676039123535155,-22.574879455566407,1.6886865618788818e+18,32.952881835937504,-233.59827880859376,132.70183410644532,-155.29867858886718,1.6886865618752988e+18,32.94929870605469,-0.2652857601642608,0.0399362985044717,-0.7363140881061554,0.621184378862381,-1.8219576478004451,1.2109838724136353,2.2642849683761597
3.0,1.688686561918563e+18,32.99256290690104,0.0142375429471333,0.0336039861043293,0.1678280035654703,1.688686561918563e+18,32.99256290690104,-0.8291130463282267,-9.16770108540853,3.573082447052002,1.688686561918563e+18,32.99256290690104,-0.8491966128349304,-9.18380037943522,3.342567046483358,1.6886865619315418e+18,33.00554207356771,0.0229583512991666,0.0724893411000569,0.0195476879986623,1.6886865619315418e+18,33.00554207356771,0.02204205468297,0.0769181152184803,0.0219911487462619,1.688686561926403e+18,33.00040307617188,0.0,0.593427300453186,0.901735246181488,17.746000289916992,0.2222830653190612,64.00846862792969,40.20000076293945,-122.7531105,49.1903443,1.688686561928883e+18,33.002882861328125,21.681839752197263,37.705319213867185,-22.57243957519531,1.688686561928883e+18,33.002882861328125,-233.6641540527344,132.7311218261719,-155.29623718261718,1.688686561918563e+18,32.99256290690104,-0.2663530806700389,0.0412976332008838,-0.7359210650126139,0.6211042404174805,-1.819606065750122,1.2115644216537476,2.2654881477355957
3.05,1.6886865619704753e+18,33.04447526041667,0.0471041401227315,0.1012039184570312,0.1751010417938232,1.6886865619704753e+18,33.04447526041667,-0.7704888979593912,-9.104291598002115,3.575275739034017,1.6886865619704753e+18,33.04447526041667,-0.8234390616416931,-9.18799082438151,3.33748730023702,1.6886865619834427e+18,33.057442626953126,0.0119627779349684,0.1318959866960843,0.0035124753291408,1.6886865619834427e+18,33.057442626953126,0.0110464799799955,0.1363247608145077,0.0060068420134484,,,,,,,,,,,,1.688686561978883e+18,33.052883349609374,21.55007972717285,37.585758972167966,-22.389439392089844,1.688686561978883e+18,33.052883349609374,-233.79591369628903,132.61156005859374,-155.1132385253906,1.6886865619704753e+18,33.04447526041667,-0.2677964568138122,0.0429680769642193,-0.7349326411883036,0.6215400298436483,-1.8127077023188272,1.2127814292907717,2.263129790623983
3.1,1.6886865620223836e+18,33.0963837890625,-0.0997002720832824,0.0895306269327799,-0.0170057614644368,1.6886865620223836e+18,33.0963837890625,-0.8973084886868795,-9.115457852681478,3.3894333044687905,1.6886865620223836e+18,33.0963837890625,-0.8034542401631674,-9.18748378753662,3.3437516689300537,1.6886865620267151e+18,33.10071508789062,-0.0155007056891917,0.1220966950058936,-0.0075594571244437,1.6886865620267151e+18,33.10071508789062,-0.0164170037023722,0.1265254653990268,-0.0050396381411701,,,,,,,,,,,,1.6886865620288865e+18,33.10288637695312,21.267039489746093,37.7614387512207,-22.85791931152344,1.6886865620288865e+18,33.10288637695312,-234.078955078125,132.78723754882813,-155.58171691894532,1.6886865620223836e+18,33.0963837890625,-0.2703177730242411,0.0450983146826425,-0.734111467997233,0.6212681333223978,-1.8066293795903523,1.2126338879267375,2.26391871770223
3.15,1.6886865620742994e+18,33.14829939778645,-0.3057720263799031,-0.0872583389282226,-0.3364005883534749,1.6886865620742994e+18,33.14829939778645,-1.0893325010935466,-9.288538614908854,3.083550771077474,1.6886865620742994e+18,33.14829939778645,-0.7894064982732137,-9.183775583902994,3.357263962427775,1.6886865620699745e+18,33.14397452799479,-0.0391462817788123,-0.0673987989624341,0.0508545314272244,1.6886865620699745e+18,33.14397452799479,-0.0400625790158907,-0.0629191187520821,0.0532979940374692,,,,,,,,,,,,1.6886865620788892e+18,33.1528890625,20.803439712524415,37.76631851196289,-22.733479309082032,1.6886865620788892e+18,33.1528890625,-234.5425567626953,132.7921142578125,-155.4572784423828,1.6886865620742994e+18,33.14829939778645,-0.2710871299107869,0.0446800515055656,-0.7336486379305521,0.6215094923973083,-1.801750580469767,1.211557149887085,2.259603500366211
3.2,1.688686562126212e+18,33.20021215820312,-0.0125505328178405,-0.0718901952107747,-0.1446025371551513,1.688686562126212e+18,33.20021215820312,-0.8097710609436035,-9.271390279134115,3.276970624923706,1.688686562126212e+18,33.20021215820312,-0.8030665516853333,-9.1819953918457,3.3588857650756836,1.6886865621218824e+18,33.19588224283854,-0.017664186656475,-0.2577851265668868,0.0439313907797137,1.6886865621218824e+18,33.19588224283854,-0.0185804846696555,-0.2533563524484634,0.0464257582401235,,,,,,,,,,,,1.6886865621288817e+18,33.202881640625,21.04499931335449,37.373480224609374,-22.630999755859374,1.6886865621288817e+18,33.202881640625,-234.30099182128907,132.39927673339844,-155.35479736328125,1.688686562126212e+18,33.20021215820312,-0.2672060032685597,0.0402078206340471,-0.7343811790148417,0.622627834479014,-1.805495262145996,1.2110412915547688,2.2510505517323813
