seconds_elapsed_rounded,accelerometer_time,accelerometer_seconds_elapsed,accelerometer_z,accelerometer_y,accelerometer_x,accelerometeruncalibrated_time,accelerometeruncalibrated_seconds_elapsed,accelerometeruncalibrated_z,accelerometeruncalibrated_y,accelerometeruncalibrated_x,gravity_time,gravity_seconds_elapsed,gravity_z,gravity_y,gravity_x,gyroscope_time,gyroscope_seconds_elapsed,gyroscope_z,gyroscope_y,gyroscope_x,gyroscopeuncalibrated_time,gyroscopeuncalibrated_seconds_elapsed,gyroscopeuncalibrated_z,gyroscopeuncalibrated_y,gyroscopeuncalibrated_x,location_time,location_seconds_elapsed,location_bearingAccuracy,location_speedAccuracy,location_verticalAccuracy,location_horizontalAccuracy,location_speed,location_bearing,location_altitude,location_longitude,location_latitude,magnetometer_time,magnetometer_seconds_elapsed,magnetometer_z,magnetometer_y,magnetometer_x,magnetometeruncalibrated_time,magnetometeruncalibrated_seconds_elapsed,magnetometeruncalibrated_z,magnetometeruncalibrated_y,magnetometeruncalibrated_x,orientation_time,orientation_seconds_elapsed,orientation_qz,orientation_qy,orientation_qx,orientation_qw,orientation_roll,orientation_pitch,orientation_yaw
0.0,1.6886866039328737e+18,75.00687361653645,-0.3039711713790893,0.0484590530395507,-0.0211414496103922,1.6886866039328737e+18,75.00687361653645,-0.8833503723144531,-9.191828727722168,3.33300256729126,1.6886866039328737e+18,75.00687361653645,-0.5852252244949341,-9.222783088684082,3.291456619898478,1.6886866039285486e+18,75.00254866536459,-0.060017510006825,0.5916738907496134,-0.2474513302246729,1.6886866039285486e+18,75.00254866536459,-0.0610356194277604,0.5962044795354208,-0.2451096773147582,1.688686603926894e+18,75.00089404296875,0.0,0.4863397777080536,0.8908339738845825,6.6539998054504395,0.0183196403086185,0.0,40.20000076293945,-122.7531544,49.1903744,1.6886866039288868e+18,75.00288666992188,20.871759796142577,38.91311950683594,-20.256879806518555,1.6886866039288868e+18,75.00288666992188,-234.47423400878907,133.9389190673828,-152.98067932128907,1.6886866039328737e+18,75.00687361653645,-0.2212891181310018,-0.0103200090428193,-0.7278148134549459,0.6489924391110738,-1.746756275494893,1.2230488856633503,2.050853411356608
0.05,1.6886866039761326e+18,75.05013269042969,-0.1959111094474792,-0.0588107109069823,-0.1494319438934325,1.6886866039761326e+18,75.05013269042969,-0.7917251884937286,-9.283254623413086,3.245863914489746,1.6886866039761326e+18,75.05013269042969,-0.6016601026058197,-9.206939220428469,3.332608461380005,1.6886866039804608e+18,75.05446085611979,-0.0717766682306925,0.4923064907391866,-0.2477058619260788,1.6886866039804608e+18,75.05446085611979,-0.072845680018266,0.4968879620234172,-0.2453642040491104,,,,,,,,,,,,1.6886866039788838e+18,75.05288393554687,21.2548397064209,38.76183929443359,-20.64483985900879,1.6886866039788838e+18,75.05288393554687,-234.09115600585935,133.78763732910156,-153.36863403320314,1.6886866039761326e+18,75.05013269042969,-0.2307207509875297,-0.0027655026060529,-0.7284613251686096,0.6450571715831757,-1.74940687417984,1.2183390855789185,2.0783380270004272
0.1,1.6886866040193905e+18,75.09339029947917,-0.0123246510823567,-0.1029793421427408,-0.286068042119344,1.6886866040193905e+18,75.09339029947917,-0.6558327873547872,-9.311071077982584,3.1451659202575684,1.6886866040193905e+18,75.09339029947917,-0.6493541598320007,-9.190587043762209,3.3685465653737388,1.688686604032372e+18,75.1063720703125,-0.0551305897533893,0.490932027498881,-0.3086396654446919,1.688686604032372e+18,75.1063720703125,-0.0561996027827262,0.4955135385195414,-0.3063489298025767,,,,,,,,,,,,1.6886866040288855e+18,75.10288525390624,21.696479415893556,38.30799942016601,-21.320719909667968,1.6886866040288855e+18,75.10288525390624,-233.64951171875,133.33379821777345,-154.04451599121094,1.6886866040193905e+18,75.09339029947917,-0.2388398150602976,0.0042157350108026,-0.7301182746887207,0.6401944955190023,-1.7612134218215942,1.213542938232422,2.112307627995809
0.15,1.6886866040713004e+18,75.14530061848957,0.0888222058614094,-0.1779568990071614,-0.464852253595988,1.6886866040713004e+18,75.14530061848957,-0.6007978816827139,-9.37089188893636,2.998406171798706,1.6886866040713004e+18,75.14530061848957,-0.6954661210378011,-9.175430297851562,3.40057102839152,1.6886866040756357e+18,75.14963537597657,-0.005650504026562,0.5489387810230255,-0.2516764849424362,1.6886866040756357e+18,75.14963537597657,-0.0067195175215602,0.5535202622413635,-0.2493857368826866,,,,,,,,,,,,1.6886866040788864e+18,75.15288627929688,21.357319259643553,38.05911865234375,-21.840439224243163,1.6886866040788864e+18,75.15288627929688,-233.98867492675785,133.0849182128906,-154.5642333984375,1.6886866040713004e+18,75.14530061848957,-0.2490882774194081,0.014055780135095,-0.7316019733746847,0.6344272096951803,-1.7725327809651692,1.209147810935974,2.153139591217041
0.2,1.688686604123216e+18,75.19721598307292,0.3214041193326314,-0.1181135177612304,-0.2924577395121256,1.688686604123216e+18,75.19721598307292,-0.3647060493628184,-9.31186866760254,3.1692935625712075,1.688686604123216e+18,75.19721598307292,-0.6919562220573425,-9.176250457763672,3.3990639050801597,1.6886866041188905e+18,75.19289038085937,0.0736601675550142,0.7106908162434896,-0.2264782935380935,1.6886866041188905e+18,75.19289038085937,0.0725911532839138,0.7152722875277201,-0.2240857382615406,,,,,,,,,,,,1.688686604128888e+18,75.20288813476563,21.076719665527342,37.917598724365234,-22.555359649658204,1.688686604128888e+18,75.20288813476563,-234.26927490234377,132.94339904785156,-155.27915649414064,1.688686604123216e+18,75.19721598307292,-0.260192076365153,0.0269620871792236,-0.7311110695203146,0.630092998345693,-1.7716302076975503,1.209383845329285,2.1874446868896484
0.25,1.688686604175129e+18,75.24912923177084,-0.0446600417296091,0.134588877360026,0.0696144104003906,1.688686604175129e+18,75.24912923177084,-0.6604190468788147,-9.072387059529625,3.509074449539185,1.688686604175129e+18,75.24912923177084,-0.6216050386428833,-9.189471244812012,3.37677264213562,1.6886866041708014e+18,75.24480143229168,0.1246165061990419,1.1026626427968342,-0.2166535407304763,1.6886866041708014e+18,75.24480143229168,0.1235984042286872,1.1072441736857097,-0.2143628001213073,,,,,,,,,,,,1.688686604178882e+18,75.25288222656249,20.415479278564455,37.70775909423829,-23.31907997131348,1.688686604178882e+18,75.25288222656249,-234.9305145263672,132.73355712890626,-156.04287719726562,1.688686604175129e+18,75.24912923177084,-0.2766918341318766,0.0466955043375491,-0.7276429533958435,0.625881294409434,-1.752832055091858,1.2132153113683064,2.2218820254007974
0.3,1.6886866042270413e+18,75.30104150390625,-0.4542038440704345,0.1536874771118163,0.0957640806833902,1.6886866042270413e+18,75.30104150390625,-1.0013962785402934,-9.060422897338867,3.527818202972412,1.6886866042270413e+18,75.30104150390625,-0.5530384580294291,-9.196605682373049,3.369366725285848,1.6886866042227126e+18,75.29671264648438,0.0633772698541482,1.0471757451693218,-0.2759074767430623,1.6886866042227126e+18,75.29671264648438,0.0623082555830478,1.051706314086914,-0.2736167311668395,,,,,,,,,,,,1.6886866042288827e+18,75.3028826171875,19.268679428100587,37.69311981201171,-24.134039306640624,1.6886866042288827e+18,75.3028826171875,-236.0773162841797,132.7189178466797,-156.8578369140625,1.6886866042270413e+18,75.30104150390625,-0.2956719895203908,0.0680833980441093,-0.7235510945320129,0.6199701229731241,-1.7334935665130615,1.2152977387110393,2.2623109022776284
0.35,1.6886866042789535e+18,75.35295361328126,-0.4090310335159302,0.0675608317057291,-0.1441383361816405,1.6886866042789535e+18,75.35295361328126,-0.9728817741076152,-9.138987223307293,3.3056844075520835,1.6886866042789535e+18,75.35295361328126,-0.5696967641512553,-9.189043362935385,3.3871353467305503,1.688686604274627e+18,75.34862703450521,-0.0114537233797212,0.6334163546562195,-0.323911299308141,1.688686604274627e+18,75.34862703450521,-0.0125227377284318,0.6378960311412811,-0.3216205437978108,,,,,,,,,,,,1.688686604278886e+18,75.35288593749999,18.72211952209473,37.74679946899414,-24.81967964172363,1.688686604278886e+18,75.35288593749999,-236.6238739013672,132.77259521484376,-157.54347534179686,1.6886866042789535e+18,75.35295361328126,-0.3094771007696787,0.0832441424330075,-0.7225640018781027,0.6125156084696451,-1.7374236981074016,1.2130913734436035,2.3095973332722983
0.4,1.6886866043308636e+18,75.40486368815104,0.1372251113255818,-0.0913635889689127,-0.3004120190938313,1.6886866043308636e+18,75.40486368815104,-0.5176472961902618,-9.281160990397137,3.1780672868092856,1.6886866043308636e+18,75.40486368815104,-0.6607184410095215,-9.172292709350586,3.415791908899943,1.6886866043265487e+18,75.40054866536458,-0.0565050356090068,0.2140573610862096,-0.2987640102704366,1.6886866043265487e+18,75.40054866536458,-0.0575740486383437,0.2185879548390706,-0.2964732646942138,,,,,,,,,,,,1.6886866043288837e+18,75.40288374023437,18.66843948364258,37.20512008666992,-24.931919860839844,1.6886866043288837e+18,75.40288374023437,-236.67755432128905,132.23092041015624,-157.6557189941406,1.6886866043308636e+18,75.40486368815104,-0.3156476517518361,0.0903732851147651,-0.7249188820521036,0.6055463751157125,-1.761842171351115,1.208247701327006,2.3542327880859375
0.45,1.6886866043827814e+18,75.45678149414063,0.9374184012413024,-0.2735188802083333,-0.3766597906748454,1.6886866043827814e+18,75.45678149414063,0.2129612167676289,-9.448658307393393,3.127020359039306,1.6886866043827814e+18,75.45678149414063,-0.7303032279014587,-9.157634735107422,3.440992752710978,1.6886866043784522e+18,75.45245222981771,-0.0312559393544991,0.2866994241873422,-0.1914553443590799,1.6886866043784522e+18,75.45245222981771,-0.0323249526942769,0.2912300030390422,-0.1891136988997459,,,,,,,,,,,,1.6886866043788818e+18,75.4528818359375,19.2637996673584,37.0440788269043,-25.151519775390625,1.6886866043788818e+18,75.4528818359375,-236.0821960449219,132.06987915039062,-157.8753173828125,1.6886866043827814e+18,75.45678149414063,-0.3196081320444743,0.0947704265515009,-0.7268007397651672,0.6005178888638815,-1.7799410820007324,1.204053560892741,2.385150114695231
0.5,1.6886866044260408e+18,75.50004064941407,0.1722533851861953,-0.3061871528625488,-0.392067551612854,1.6886866044260408e+18,75.50004064941407,-0.5033900737762451,-9.4794659614563,3.126521944999695,1.6886866044260408e+18,75.50004064941407,-0.681489497423172,-9.155774116516112,3.455902099609375,1.688686604430367e+18,75.50436702473958,-0.0006108652208544,0.5093089044094086,-0.0188350118696689,1.688686604430367e+18,75.50436702473958,-0.0016798794191951,0.5137885808944702,-0.0165442675352096,,,,,,,,,,,,1.688686604428888e+18,75.50288798828124,18.909999084472656,36.936719512939455,-25.578519439697267,1.688686604428888e+18,75.50288798828124,-236.4359924316406,131.96251831054687,-158.30231628417968,1.6886866044260408e+18,75.50004064941407,-0.3273833543062209,0.1018157117068767,-0.7241325974464417,0.5983981788158417,-1.7655074000358582,1.2035228610038755,2.393118143081665
0.55,1.688686604469298e+18,75.54329760742188,-0.2421302994092305,-0.0880476633707681,-0.3103458881378173,1.688686604469298e+18,75.54329760742188,-0.8618149558703104,-9.263015111287435,3.2143584887186685,1.688686604469298e+18,75.54329760742188,-0.6255306800206503,-9.15746275583903,3.462016979853312,1.6886866044822815e+18,75.55628157552083,0.0059050307948685,0.2018400530020395,-0.0065158955597629,1.6886866044822815e+18,75.55628157552083,0.00488692180564,0.2063706368207931,-0.0042251511476934,,,,,,,,,,,,1.6886866044788815e+18,75.55288159179688,18.229239654541015,36.76836013793945,-26.088479614257817,1.6886866044788815e+18,75.55288159179688,-237.11675415039065,131.79415588378907,-158.8122772216797,1.688686604469298e+18,75.54329760742188,-0.3329273959000905,0.1066402172048886,-0.7214650313059489,0.5977230866750082,-1.7495662371317546,1.2040022611618042,2.3928465048472085
0.6,1.6886866045212137e+18,75.59521362304689,-0.0116946895917256,-0.0321375528971353,-0.08445405960083,1.6886866045212137e+18,75.59521362304689,-0.6323033968607584,-9.207780838012695,3.438286781311035,1.6886866045212137e+18,75.59521362304689,-0.6264547308286031,-9.158138593037924,3.4600534439086914,1.6886866045255404e+18,75.59954028320313,0.0153479892760514,0.09789115563035,-0.1399644948542117,1.6886866045255404e+18,75.59954028320313,0.0142789748497306,0.1024726442992687,-0.1376737542450427,,,,,,,,,,,,1.6886866045288845e+18,75.60288466796877,17.89739990234375,37.024559020996094,-25.944519424438475,1.6886866045288845e+18,75.60288466796877,-237.44859313964844,132.05036010742188,-158.66831665039064,1.6886866045212137e+18,75.59521362304689,-0.3353702028592427,0.1097711895902951,-0.7210282286008199,0.5963170329729716,-1.7499236663182576,1.2041945457458496,2.401647567749023
0.65,1.6886866045731218e+18,75.64712166341145,0.1789933443069457,-0.0307111740112304,-0.0210549036661784,1.6886866045731218e+18,75.64712166341145,-0.4939184685548146,-9.205188751220703,3.4949169158935547,1.6886866045731218e+18,75.64712166341145,-0.6787578662236532,-9.156972885131836,3.453284422556559,1.6886866045687972e+18,75.64279736328125,0.019293160488208,0.0624100652833779,-0.1187114790081977,1.6886866045687972e+18,75.64279736328125,0.0182241468379894,0.066940647860368,-0.1163189224898814,,,,,,,,,,,,1.688686604578887e+18,75.65288681640625,18.238999938964845,36.79519958496094,-26.229999542236328,1.688686604578887e+18,75.65288681640625,-237.10699462890625,131.8209991455078,-158.95379638671875,1.6886866045731218e+18,75.64712166341145,-0.3360312382380168,0.1124492809176444,-0.722463071346283,0.5937042037645975,-1.764892061551412,1.2038623094558716,2.421708583831787
0.7,1.6886866046250373e+18,75.69903743489583,0.199881096680959,0.0776109695434569,0.076308250427246,1.6886866046250373e+18,75.69903743489583,-0.4821537633736928,-9.097112973531088,3.5898322264353433,1.6886866046250373e+18,75.69903743489583,-0.6878809134165446,-9.157219250996908,3.4508365790049234,1.6886866046207086e+18,75.69470857747395,-0.0001018107092628,0.0008144867606461,-0.0027997992001473,1.6886866046207086e+18,75.69470857747395,-0.0011708250579734,0.005395975895226,-0.0005090547444221,,,,,,,,,,,,1.688686604628881e+18,75.702880859375,18.2902400970459,36.63171920776367,-26.051879501342775,1.688686604628881e+18,75.702880859375,-237.05575866699215,131.65751953125,-158.7756774902344,1.6886866046250373e+18,75.69903743489583,-0.336333304643631,0.1132456486423809,-0.7226608991622925,0.5931412577629089,-1.7675714095433552,1.20393172899882,2.4260528087615967
0.75,1.6886866046769472e+18,75.7509471842448,-0.0329666932423909,0.0554510752360025,-0.0378203392028808,1.6886866046769472e+18,75.7509471842448,-0.6917251547177633,-9.1182492574056,3.4829527537027993,1.6886866046769472e+18,75.7509471842448,-0.6646044850349426,-9.156195640563965,3.4580856959025064,1.6886866046726236e+18,75.74662353515625,-0.0209221343199411,-0.0175114708642164,0.0823649962743122,1.6886866046726236e+18,75.74662353515625,-0.0219911492119232,-0.0129299806430935,0.0847575527926285,,,,,,,,,,,,1.6886866046788818e+18,75.75288173828125,18.175559997558594,36.66343994140625,-25.866439437866212,1.6886866046788818e+18,75.75288173828125,-237.1704345703125,131.68923950195312,-158.590234375,1.6886866046769472e+18,75.7509471842448,-0.3364566663901011,0.1122221872210502,-0.7219993074735006,0.5940703749656677,-1.760687510172526,1.2036409378051758,2.4178192615509033
0.8,1.6886866047288625e+18,75.80286238606772,-0.2278486887613932,0.0001503626505534,-0.0382027626037597,1.6886866047288625e+18,75.80286238606772,-0.8522436618804932,-9.173882802327476,3.488137165705363,1.6886866047288625e+18,75.80286238606772,-0.6302409966786703,-9.15652847290039,3.4636525313059487,1.6886866047245394e+18,75.79853946940104,-0.0095702222703645,-0.0765617763002712,0.0859792828559875,1.6886866047245394e+18,75.79853946940104,-0.0106392366578802,-0.0720311924815177,0.0883718393743038,,,,,,,,,,,,1.6886866047288858e+18,75.80288579101563,18.129199600219728,36.680519104003906,-25.946960067749025,1.6886866047288858e+18,75.80288579101563,-237.2167938232422,131.7063201904297,-158.6707550048828,1.6886866047288625e+18,75.80286238606772,-0.335876206556956,0.1101961309711138,-0.7210979064305624,0.5958701570828756,-1.7508028348286946,1.203735868136088,2.403969128926595
0.85,1.6886866047807803e+18,75.85478002929688,-0.0998097459475199,0.0565395355224609,0.0697811444600423,1.6886866047807803e+18,75.85478002929688,-0.7415756185849508,-9.118648211161297,3.589832146962484,1.6886866047807803e+18,75.85478002929688,-0.6476118961970011,-9.15768305460612,3.4573636054992676,1.6886866047764472e+18,75.8504471842448,0.0153225368509689,-0.054316102216641,-0.0586430625990032,1.6886866047764472e+18,75.8504471842448,0.0142535222694277,-0.0498364232480525,-0.0562505077881117,,,,,,,,,,,,1.6886866047788813e+18,75.85288120117187,18.35855941772461,36.90987854003906,-26.09823989868164,1.6886866047788813e+18,75.85288120117187,-236.98743591308593,131.93567810058593,-158.82203674316406,1.6886866047807803e+18,75.85478002929688,-0.3344590465227763,0.1094196264942486,-0.7218296130498251,0.595924456914266,-1.7559809684753418,1.2040645678838091,2.40579620997111
0.9,1.6886866048326833e+18,75.90668334960937,0.1259334286053975,0.0208533604939778,0.0319342613220214,1.6886866048326833e+18,75.90668334960937,-0.5692923863728842,-9.152746200561523,3.545764366785685,1.6886866048326833e+18,75.90668334960937,-0.7010718385378519,-9.156094868977863,3.4511427084604898,1.6886866048283625e+18,75.90236246744792,0.0053450708898405,-0.0651589594781398,-0.0838412543137867,1.6886866048283625e+18,75.90236246744792,0.0042760566187401,-0.0605774695674578,-0.0815505124628543,,,,,,,,,,,,1.68868660482888e+18,75.90288017578125,18.219479370117188,36.753719329833984,-25.878639221191406,1.68868660482888e+18,75.90288017578125,-237.126513671875,131.7795196533203,-158.6024383544922,1.6886866048326833e+18,75.90668334960937,-0.3329637050628662,0.1094569464524586,-0.7237089276313782,0.5944739778836569,-1.7712265650431316,1.2036137580871582,2.4188573360443115
0.95,1.6886866048759496e+18,75.94994970703125,0.2711264342069626,-0.0432405471801757,-0.0482927560806274,1.6886866048759496e+18,75.94994970703125,-0.4420739859342574,-9.215956211090088,3.464208960533142,1.6886866048759496e+18,75.94994970703125,-0.7190464735031128,-9.155210971832275,3.4498143196105957,1.6886866048802765e+18,75.95427644856771,0.0001527162579198,-0.0213293777778744,0.0079412475849191,1.6886866048802765e+18,75.95427644856771,-0.0009162978385575,-0.016747888798515,0.0102828989426295,,,,,,,,,,,,1.6886866048788795e+18,75.9528794921875,18.546439743041994,36.692719268798825,-25.820079803466797,1.6886866048788795e+18,75.9528794921875,-236.79955444335937,131.71851806640626,-158.5438720703125,1.6886866048759496e+18,75.94994970703125,-0.3321019560098647,0.1089693941175937,-0.7244152426719666,0.5941856205463409,-1.776301622390747,1.203362226486206,2.4219011068344116
1.0,1.6886866049192087e+18,75.99320841471354,0.1320479909578959,-0.0493396123250325,-0.0326156616210937,1.6886866049192087e+18,75.99320841471354,-0.5668995678424835,-9.223733266194662,3.4783664544423423,1.6886866049192087e+18,75.99320841471354,-0.7047935922940572,-9.15688896179199,3.448294719060262,1.6886866049321848e+18,76.0061845703125,0.0081957754058141,0.0422515130291382,0.0304414511968691,1.6886866049321848e+18,76.0061845703125,0.0071267612899342,0.04678209622701,0.0327321961522102,1.68868660492692e+18,76.000919921875,0.0,0.4123364686965942,0.9003440737724304,6.572999954223633,0.0076828221790492,0.0,40.20000076293945,-122.7531542,49.1903747,1.688686604928882e+18,76.00288178710937,18.00964012145996,36.76103973388672,-26.195840072631835,1.688686604928882e+18,76.00288178710937,-237.33635559082032,131.7868408203125,-158.91963806152344,1.6886866049192087e+18,75.99320841471354,-0.3323745429515838,0.109059361120065,-0.7239001790682474,0.5946441690127054,-1.7724252541859944,1.203838626543681,2.4185450077056885
1.05,1.6886866049711206e+18,76.04512076822917,-0.1066382527351378,-0.0134449005126953,7.526079813640039e-05,1.6886866049711206e+18,76.04512076822917,-0.7838488022486368,-9.19023354848226,3.509074449539185,1.6886866049711206e+18,76.04512076822917,-0.6830565730730692,-9.159283955891928,3.4463117917378745,1.688686604975448e+18,76.04944812011719,0.0016798794385977,0.0149661988252773,0.0332157984375953,1.688686604975448e+18,76.04944812011719,0.0006108653033152,0.0195476887747644,0.0356592573225497,1.688686604999e+18,76.073,0.0,0.4123364686965942,0.8421907424926758,7.076000213623047,0.0072226990014314,0.0,40.30000305175781,-122.7531541,49.1903748,1.6886866049788838e+18,76.05288388671875,18.522039794921874,36.88059921264649,-26.122639846801757,1.6886866049788838e+18,76.05288388671875,-236.8239532470703,131.906396484375,-158.8464385986328,1.6886866049711206e+18,76.04512076822917,-0.3330392738183339,0.109471966822942,-0.7230722109476725,0.5952035983403524,-1.7664769887924194,1.2045195897420249,2.414188702901205
1.1,1.6886866050230295e+18,76.09702970377604,-0.1224857966105142,-0.0336484909057617,-0.1508882840474446,1.6886866050230295e+18,76.09702970377604,-0.7974081436793009,-9.2097749710083,3.3603206475575766,1.6886866050230295e+18,76.09702970377604,-0.6807683706283569,-9.1586217880249,3.448521534601847,1.6886866050187087e+18,76.09270865885416,-0.0147116715088486,-0.0896953816215197,0.0206167021145422,1.6886866050187087e+18,76.09270865885416,-0.0157806851590672,-0.0851138879855473,0.0230601628621418,,,,,,,,,,,,1.688686605028881e+18,76.10288090820312,18.409799575805664,36.634159088134766,-25.949399566650392,1.688686605028881e+18,76.10288090820312,-236.93619384765623,131.6599578857422,-158.6731964111328,1.6886866050230295e+18,76.09702970377604,-0.3323336243629455,0.1083823641141255,-0.7231553594271342,0.5956956346829733,-1.7657156785329182,1.2043315172195437,2.4107162952423096
1.15,1.688686605074945e+18,76.14894514973959,-0.0189746618270873,-0.0335407257080078,-0.2000500361124674,1.688686605074945e+18,76.14894514973959,-0.695314367612203,-9.211170832316082,3.3068808714548745,1.688686605074945e+18,76.14894514973959,-0.6821857293446859,-9.160125414530436,3.4442435105641684,1.688686605070617e+18,76.1446171875,0.0062104637424151,-0.071674854805072,0.0460185147821902,1.688686605070617e+18,76.1446171875,0.0051414493160942,-0.06709336489439,0.0483092591166495,,,,,,,,,,,,1.6886866050788828e+18,76.15288271484374,18.941719818115235,36.741519165039065,-25.817639541625976,1.6886866050788828e+18,76.15288271484374,-236.4042785644531,131.76731872558594,-158.54143371582032,1.688686605074945e+18,76.14894514973959,-0.3305632869402568,0.1066081821918487,-0.7234692374865214,0.5966193477312723,-1.7663472096125286,1.2047593990961711,2.4059487183888755
1.2,1.688686605126857e+18,76.20085701497396,-0.0141847729682922,0.0489263534545898,0.0389886697133382,1.688686605126857e+18,76.20085701497396,-0.6809574365615845,-9.136195500691732,3.527818202972412,1.688686605126857e+18,76.20085701497396,-0.6726186871528625,-9.167617162068684,3.4261421362559,1.6886866051225334e+18,76.196533203125,0.0482583542664845,0.0155770628092189,0.0106901415080452,1.6886866051225334e+18,76.196533203125,0.0472911509374777,0.0201585541168848,0.0129808865798015,,,,,,,,,,,,1.688686605128882e+18,76.20288193359374,18.66111946105957,36.724439239501955,-25.50287971496582,1.688686605128882e+18,76.20288193359374,-236.68487548828125,131.75023498535157,-158.22667541503907,1.688686605126857e+18,76.20085701497396,-0.3297686477502187,0.1068339298168817,-0.7230987946192423,0.5974672635396322,-1.7646673917770386,1.2068992853164673,2.4032763640085855
1.25,1.6886866051787717e+18,76.25277132161459,-0.2704847256342569,0.1734514236450195,0.1848781903584797,1.6886866051787717e+18,76.25277132161459,-0.9258229732513428,-9.018349329630531,3.6580275694529214,1.6886866051787717e+18,76.25277132161459,-0.6611842711766561,-9.174296061197916,3.410461982091268,1.6886866051744458e+18,76.24844563802084,0.0300342077389359,0.0762054386238256,-0.0065158960690798,1.6886866051744458e+18,76.24844563802084,0.0290670047203699,0.0807869276031851,-0.0041742457445555,,,,,,,,,,,,1.6886866051788844e+18,76.2528841796875,18.390280151367183,36.94647903442383,-26.01283950805664,1.6886866051788844e+18,76.2528841796875,-236.9557159423828,131.97228088378907,-158.73663635253905,1.6886866051787717e+18,76.25277132161459,-0.3306153615315755,0.1088067839543024,-0.7224010427792867,0.5974873900413513,-1.76230521996816,1.2088165680567424,2.405068794886271
1.3,1.6886866052306808e+18,76.3046805826823,0.0053391059239705,-0.0209697087605793,0.0533564090728759,1.6886866052306808e+18,76.3046805826823,-0.686740110317866,-9.207980155944824,3.5320056279500327,1.6886866052306808e+18,76.3046805826823,-0.6979252497355143,-9.169505755106607,3.415961821873983,1.688686605226354e+18,76.30035424804687,-0.030746883402268,-0.1409571568171183,-0.0721330046653747,1.688686605226354e+18,76.30035424804687,-0.0318158982942501,-0.136426568031311,-0.0697913554807503,,,,,,,,,,,,1.6886866052288817e+18,76.30288168945313,18.26095962524414,36.951359558105466,-25.739559173583984,1.6886866052288817e+18,76.30288168945313,-237.0850372314453,131.97716064453124,-158.4633575439453,1.6886866052306808e+18,76.3046805826823,-0.3293860852718352,0.1078064367175101,-0.7238448063532511,0.5965982476870219,-1.772338589032491,1.2074414491653442,2.4118083318074546
1.35,1.688686605282596e+18,76.35659611002605,0.6210677623748779,-0.2396227518717447,-0.1841986179351805,1.688686605282596e+18,76.35659611002605,-0.1302094335357347,-9.420143763224283,3.2993036111195884,1.688686605282596e+18,76.35659611002605,-0.7571232318878174,-9.163016319274902,3.420814832051595,1.6886866052782707e+18,76.35227067057292,-0.0147625766694545,-0.1217658047874768,-0.0541124782369782,1.6886866052782707e+18,76.35227067057292,-0.0158315907077242,-0.1171843161185582,-0.051770830177702,,,,,,,,,,,,1.688686605278886e+18,76.35288598632812,19.112519454956058,36.7463996887207,-25.778599548339844,1.688686605278886e+18,76.35288598632812,-236.2334777832031,131.77219848632814,-158.5023986816406,1.688686605282596e+18,76.35659611002605,-0.3266963362693786,0.105630300939083,-0.7262467344601949,0.5955477158228556,-1.788627862930298,1.205582817395528,2.4208438396453857
1.4,1.6886866053258542e+18,76.39985400390626,0.4729238152503967,-0.2107472419738769,-0.0288219451904296,1.6886866053258542e+18,76.39985400390626,-0.2641077935695647,-9.396016120910645,3.445066452026367,1.6886866053258542e+18,76.39985400390626,-0.7428776621818542,-9.16776418685913,3.411201000213623,1.688686605330183e+18,76.40418277994792,0.0338521158943573,0.0027488936514904,0.077274452894926,1.688686605330183e+18,76.40418277994792,0.0327831010023752,0.00727947766912,0.0796161020795504,,,,,,,,,,,,1.6886866053288817e+18,76.40288173828125,18.724559020996093,36.753720092773435,-25.781039428710937,1.6886866053288817e+18,76.40288173828125,-236.621435546875,131.77951354980468,-158.5048370361328,1.6886866053258542e+18,76.39985400390626,-0.3261503428220749,0.1053731776773929,-0.725784569978714,0.5964553952217102,-1.78523987531662,1.2069393396377563,2.4161590337753296
1.45,1.6886866053691128e+18,76.44311287434896,0.269593338171641,-0.0848023096720377,0.0282026131947834,1.6886866053691128e+18,76.44311287434896,-0.4231308102607727,-9.278568585713703,3.4885360399881997,1.6886866053691128e+18,76.44311287434896,-0.698570191860199,-9.17626158396403,3.3976460297902427,1.688686605382094e+18,76.45609431966146,0.035124751428763,0.0655662029360731,0.1296052436033884,1.688686605382094e+18,76.45609431966146,0.0340557377785444,0.0700967864443858,0.1318959891796111,,,,,,,,,,,,1.688686605378885e+18,76.45288510742188,18.79287986755371,37.26612014770508,-25.45407981872559,1.688686605378885e+18,76.45288510742188,-236.55311584472656,132.2919158935547,-158.17787475585936,1.6886866053691128e+18,76.44311287434896,-0.3261760373910268,0.1053787122170129,-0.7242263555526733,0.5983308951059977,-1.7735847234725952,1.2093815406163533,2.404404958089193
1.5,1.6886866054210255e+18,76.49502555338542,-0.1946422060330708,0.1286579767862955,0.0585269133249918,1.6886866054210255e+18,76.49502555338542,-0.7942177057266235,-9.076773961385092,3.505086342493693,1.6886866054210255e+18,76.49502555338542,-0.6054215232531229,-9.18792724609375,3.3838720321655273,1.688686605425357e+18,76.49935705566406,0.038408152759075,0.1496619880199431,0.1904372423887252,1.688686605425357e+18,76.49935705566406,0.037339137867093,0.1542434766888618,0.1927279829978942,,,,,,,,,,,,1.6886866054288852e+18,76.50288535156251,18.175559997558594,37.11239776611328,-25.419919967651367,1.6886866054288852e+18,76.50288535156251,-237.1704315185547,132.13819580078126,-158.14371643066406,1.6886866054210255e+18,76.49502555338542,-0.32802414894104,0.1063807333509126,-0.7207932273546854,0.6012799938519796,-1.7478350798288982,1.2127602497736614,2.382765213648478
1.55,1.6886866054729408e+18,76.54694067382813,-0.324657658735911,0.1836083730061848,0.2422184149424234,1.6886866054729408e+18,76.54694067382813,-0.8382855256398519,-9.028319040934244,3.685545047124227,1.6886866054729408e+18,76.54694067382813,-0.5194738904635111,-9.194422721862791,3.3806392351786294,1.688686605468615e+18,76.54261507161458,0.002494366490282,0.0705549344420432,0.1071559439102807,1.688686605468615e+18,76.54261507161458,0.0014762573215799,0.0749837085604667,0.1094466919700303,,,,,,,,,,,,1.6886866054788895e+18,76.55288969726563,17.811999893188478,37.30515899658203,-25.659039306640626,1.6886866054788895e+18,76.55288969726563,-237.53399658203125,132.3309539794922,-158.3828369140625,1.6886866054729408e+18,76.54694067382813,-0.3301488558451335,0.1070379863182703,-0.7176510294278463,0.6037560304005941,-1.7232845226923623,1.2146544853846233,2.362311363220215
1.6,1.6886866055248486e+18,76.59884879557292,-0.3552433053652445,0.260441780090332,-0.0163603623708089,1.6886866055248486e+18,76.59884879557292,-0.8584251006444296,-8.943772951761881,3.449453274408976,1.6886866055248486e+18,76.59884879557292,-0.5090278188387553,-9.186710039774576,3.4031262397766113,1.6886866055205235e+18,76.59452368164062,-0.058693970243136,0.0691295837362607,-0.0204639863222837,1.6886866055205235e+18,76.59452368164062,-0.0597629832724729,0.0737110724051793,-0.01817324043562,,,,,,,,,,,,1.6886866055288837e+18,76.6028833984375,17.53628005981445,37.4271598815918,-25.96403923034668,1.6886866055288837e+18,76.6028833984375,-237.809716796875,132.4529571533203,-158.68783264160157,1.6886866055248486e+18,76.59884879557292,-0.3318703671296437,0.1070691968003908,-0.7172751029332479,0.6032530069351196,-1.719289223353068,1.2124082644780476,2.3611044883728027
1.65,1.6886866055767662e+18,76.65076627604167,-0.54488605260849,-0.2046826680501301,-0.2925541400909423,1.6886866055767662e+18,76.65076627604167,-1.0949157277743022,-9.39641539255778,3.1994032859802246,1.6886866055767662e+18,76.65076627604167,-0.5558756987253824,-9.174228032430014,3.429270029067993,1.6886866055724424e+18,76.6464424641927,-0.0648026230434576,-0.3150537411371867,-0.0359392383446295,1.6886866055724424e+18,76.6464424641927,-0.0658716335892676,-0.3105740721027056,-0.0336484940101702,,,,,,,,,,,,1.6886866055788874e+18,76.65288735351562,17.63875961303711,37.17095947265625,-25.81031951904297,1.6886866055788874e+18,76.65288735351562,-237.70723876953124,132.19675903320314,-158.53411560058595,1.6886866055767662e+18,76.65076627604167,-0.3299710154533385,0.1039198338985442,-0.7193955183029175,0.6023123860359192,-1.7314940293629963,1.208798289299011,2.365885575612386
1.7,1.6886866056286733e+18,76.70267350260417,0.3078352411588033,-0.086101214090983,-0.2257685661315917,1.6886866056286733e+18,76.70267350260417,-0.352343129614989,-9.27079200744629,3.2654053370157876,1.6886866056286733e+18,76.70267350260417,-0.666024406750997,-9.16718610127767,3.4284865061442056,1.6886866056243515e+18,76.69835131835937,-0.0238237448502331,-0.540361225605011,-0.026318110525608,1.6886866056243515e+18,76.69835131835937,-0.0248927588885029,-0.5358306268850962,-0.0239764607201019,,,,,,,,,,,,1.6886866056288842e+18,76.7028841796875,18.24631958007813,36.91963882446289,-25.495559310913087,1.6886866056288842e+18,76.7028841796875,-237.09967346191405,131.94544067382813,-158.2193603515625,1.6886866056286733e+18,76.70267350260417,-0.3204748133818308,0.0952741354703902,-0.7244762380917867,0.6027770638465881,-1.7626814047495525,1.206775705019633,2.3697992165883384
1.75,1.6886866056805865e+18,76.75458634440105,0.6038717826207479,0.0317516326904296,0.1808153788248697,1.6886866056805865e+18,76.75458634440105,-0.0919242693732182,-9.15753173828125,3.6526437600453696,1.6886866056805865e+18,76.75458634440105,-0.701642115910848,-9.171778678894045,3.4091409842173257,1.6886866056762632e+18,76.75026302083334,0.0428623780608176,-0.0160352153082688,-0.0059050304698757,1.6886866056762632e+18,76.75026302083334,0.0418442698816457,-0.0115046286955476,-0.0035633804897467,,,,,,,,,,,,1.688686605678886e+18,76.75288608398436,18.98563995361328,36.8952392578125,-25.141759872436523,1.688686605678886e+18,76.75288608398436,-236.36035766601563,131.92103576660156,-157.8655548095703,1.6886866056805865e+18,76.75458634440105,-0.3161832988262176,0.0924860561887423,-0.7260927756627401,0.603542149066925,-1.7737898031870525,1.2080926100413003,2.3701704343159995
1.8,1.6886866057324987e+18,76.80649886067708,-0.1180802583694457,0.0877714157104491,0.1651196479797363,1.6886866057324987e+18,76.80649886067708,-0.779860774676005,-9.106285413106283,3.630908966064453,1.6886866057324987e+18,76.80649886067708,-0.6676265398661295,-9.176552136739096,3.403101921081543,1.688686605728177e+18,76.80217667643228,0.0195476877658316,0.2218458950519561,0.0099265595587591,1.688686605728177e+18,76.80217667643228,0.0185295791986087,0.2264273812373478,0.0122173052902022,,,,,,,,,,,,1.6886866057288863e+18,76.80288637695313,19.19791946411133,36.99283981323242,-25.073439407348634,1.6886866057288863e+18,76.80288637695313,-236.14807739257813,132.01863708496094,-157.79723510742187,1.6886866057324987e+18,76.80649886067708,-0.319436103105545,0.0960728451609611,-0.7244308590888977,0.6032647490501404,-1.7645338376363118,1.209466020266215,2.3711322943369546
1.85,1.6886866057757578e+18,76.84975805664062,-0.3477194011211395,0.0510263442993163,0.0097017288208008,1.6886866057757578e+18,76.84975805664062,-0.9678967595100404,-9.143274307250977,3.4827533960342407,1.6886866057757578e+18,76.84975805664062,-0.6260233819484711,-9.176795959472656,3.410364270210266,1.688686605780087e+18,76.85408707682292,-0.023263784435888,-0.0016798802341023,0.0919352198640504,1.688686605780087e+18,76.85408707682292,-0.0242818935463825,0.0029016085900366,0.0942259629567463,,,,,,,,,,,,1.6886866057788854e+18,76.85288549804687,18.883159637451172,37.27343978881836,-25.241799545288085,1.6886866057788854e+18,76.85288549804687,-236.46283264160155,132.29923400878906,-157.9655975341797,1.6886866057757578e+18,76.84975805664062,-0.3214596062898635,0.0969387963414191,-0.7228507399559021,0.6039480268955231,-1.7523568272590635,1.20953631401062,2.363304853439331
1.9,1.688686605819023e+18,76.89302311197916,-0.1945258975028991,0.0318950017293293,-0.049460490544637,1.688686605819023e+18,76.89302311197916,-0.7982057531674703,-9.160722096761068,3.431108315785726,1.688686605819023e+18,76.89302311197916,-0.6095258792241415,-9.17511240641276,3.417881409327189,1.6886866058319995e+18,76.90599975585938,-0.0180205243329206,-0.1219694291551907,0.03873903863132,1.6886866058319995e+18,76.90599975585938,-0.0190895392249027,-0.1174897477030753,0.041029781801626,,,,,,,,,,,,1.688686605828886e+18,76.90288603515626,18.885599517822264,37.1685188293457,-25.395519256591797,1.688686605828886e+18,76.90288603515626,-236.46039428710935,132.19431762695314,-158.11931457519532,1.688686605819023e+18,76.89302311197916,-0.320471038420995,0.0947736327846844,-0.722555677096049,0.6051681240399679,-1.747291048367818,1.2090513706207275,2.3535149892171225
1.95,1.6886866058709317e+18,76.944931640625,0.0694260994593301,0.057260513305664,0.0293930371602376,1.6886866058709317e+18,76.944931640625,-0.553340216477712,-9.133204778035482,3.5122648080190024,1.6886866058709317e+18,76.944931640625,-0.6286123394966125,-9.17296059926351,3.420184373855591,1.6886866058752548e+18,76.94925476074218,0.0016035212611313,0.0032070418819784,-0.0833831075578927,1.6886866058752548e+18,76.94925476074218,0.0005345070676412,0.0077885324135422,-0.0809396449476479,,,,,,,,,,,,1.6886866058788838e+18,76.95288388671875,18.648919677734376,37.073359680175784,-25.466279220581058,1.6886866058788838e+18,76.95288388671875,-236.69707336425785,132.09915771484376,-158.19007873535156,1.6886866058709317e+18,76.944931640625,-0.3191116948922475,0.0934175724784533,-0.7234052618344625,0.6050829887390137,-1.7525761127471924,1.2084323565165205,2.354745785395304
2.0,1.6886866059228467e+18,76.99684676106772,0.1333656112353007,0.0003611246744791,-0.1427892843882242,1.6886866059228467e+18,76.99684676106772,-0.5395814975102743,-9.184849739074709,3.344567855199178,1.6886866059228467e+18,76.99684676106772,-0.6787931323051453,-9.167706171671549,3.4246697425842285,1.6886866059185231e+18,76.99252311197917,-0.0118100613666076,0.0669406491021315,-0.1353575537602106,1.6886866059185231e+18,76.99252311197917,-0.012879075637708,0.0714712341626485,-0.1330159058173497,1.688686605926977e+18,77.00097705078124,0.0,0.4072378575801849,0.8525574803352356,6.619999885559082,0.0177130121737718,0.0,40.30000305175781,-122.7531536,49.1903752,1.68868660592889e+18,77.00288974609376,18.958799362182617,37.06359939575195,-25.341839218139647,1.68868660592889e+18,77.00288974609376,-236.38719177246097,132.08939514160156,-158.06563415527344,1.6886866059228467e+18,76.99684676106772,-0.3198217252890269,0.0950987860560417,-0.7249522606531779,0.6025889913241068,-1.7664782603581746,1.206924041112264,2.37233567237854
2.05,1.6886866059747612e+18,77.04876106770833,-0.0955992142359415,-0.058940569559733,-0.0744862556457519,1.6886866059747612e+18,77.04876106770833,-0.7655038436253866,-9.243673006693522,3.414757331212362,1.6886866059747612e+18,77.04876106770833,-0.6757506529490153,-9.167227745056152,3.42655618985494,1.688686605970435e+18,77.04443538411458,0.0076358157287662,0.0717257608970006,0.0364482930550972,1.688686605970435e+18,77.04443538411458,0.0065668014188607,0.0762563447157541,0.0387899441023667,,,,,,,,,,,,1.688686605978886e+18,77.05288618164062,19.12959976196289,37.192919921875,-25.334519577026366,1.688686605978886e+18,77.05288618164062,-236.21639404296872,132.21871643066407,-158.05831604003907,1.6886866059747612e+18,77.04876106770833,-0.3212045431137084,0.0965401455760001,-0.7246549725532532,0.6019821564356486,-1.7655211289723711,1.2067869901657104,2.375642458597819
2.1,1.6886866060266724e+18,77.10067260742188,-0.1314081947008768,0.0706939697265625,0.0247395833333333,1.6886866060266724e+18,77.10067260742188,-0.7762715419133505,-9.119844754536947,3.503291765848795,1.6886866060266724e+18,77.10067260742188,-0.6507093707720438,-9.173034032185871,3.415864785512289,1.6886866060223475e+18,77.09634741210938,0.0290670053412516,0.0104865198954939,0.0255545290807882,1.6886866060223475e+18,77.09634741210938,0.0279979904492695,0.0150171043351292,0.027896179507176,,,,,,,,,,,,1.688686606028882e+18,77.10288198242188,18.636719131469725,37.13923950195313,-25.397959518432614,1.688686606028882e+18,77.10288198242188,-236.7092742919922,132.1650360107422,-158.12175598144532,1.6886866060266724e+18,77.10067260742188,-0.3213259677092234,0.0969334865609804,-0.7237212459246317,0.6029768586158752,-1.759052872657776,1.2084532181421916,2.3698538144429526
2.15,1.6886866060785848e+18,77.15258479817707,0.0225544571876525,-0.0482486089070638,0.1311657428741455,1.6886866060785848e+18,77.15258479817707,-0.6644070943196615,-9.237292607625326,3.6053855419158936,1.6886866060785848e+18,77.15258479817707,-0.6928075750668844,-9.171539306640623,3.411532402038574,1.6886866060742566e+18,77.14825667317707,-0.0082466804111997,-0.0682132833947737,-0.116318921248118,1.6886866060742566e+18,77.14825667317707,-0.0093156949927409,-0.063682702408793,-0.1140281781554221,,,,,,,,,,,,1.688686606078887e+18,77.15288701171876,18.858759689331055,37.146559143066405,-25.436999130249024,1.688686606078887e+18,77.15288701171876,-236.48723449707032,132.17235717773437,-158.16079711914062,1.6886866060785848e+18,77.15258479817707,-0.3204824129740397,0.0972648387153943,-0.7251572410265604,0.6016446153322855,-1.7711549202601116,1.2080243428548176,2.381208658218384
2.2,1.6886866061304996e+18,77.20449943033854,0.3753280738989512,-0.0089702606201172,-0.0041320323944091,1.6886866061304996e+18,77.20449943033854,-0.3553341627120971,-9.189236323038736,3.4845479329427085,1.6886866061304996e+18,77.20449943033854,-0.736508289972941,-9.162761370340982,3.425992568333944,1.6886866061261668e+18,77.20016682942709,-0.0537561414142449,-0.1778635978698729,0.0224492972095807,1.6886866061261668e+18,77.20016682942709,-0.0547742520769436,-0.1732821067174275,0.0247400427858035,,,,,,,,,,,,1.68868660612888e+18,77.2028802734375,18.85631980895996,36.93915939331055,-25.412599563598633,1.68868660612888e+18,77.2028802734375,-236.48967590332032,131.96495666503907,-158.1363983154297,1.6886866061304996e+18,77.20449943033854,-0.3182460168997447,0.0944572463631629,-0.7270612319310507,0.6009802222251892,-1.7825678984324138,1.205511490503947,2.385166803995768
2.25,1.6886866061824074e+18,77.25640763346354,0.2956503530343373,-0.2004105250040689,-0.2636695702870686,1.6886866061824074e+18,77.25640763346354,-0.4121637046337127,-9.374281565348308,3.246860901514689,1.6886866061824074e+18,77.25640763346354,-0.7136601010958353,-9.156366348266602,3.447843074798584,1.6886866061780849e+18,77.2520849609375,-0.0646499060094356,-0.2222531388203302,0.1504764705896377,1.6886866061780849e+18,77.2520849609375,-0.0657189190387725,-0.2177225550015767,0.1527672111988067,,,,,,,,,,,,1.688686606178886e+18,77.25288603515625,19.422399520874023,36.995279693603514,-25.26375961303711,1.688686606178886e+18,77.25288603515625,-235.92359619140623,132.02107849121094,-157.98756103515626,1.6886866061824074e+18,77.25640763346354,-0.3155101835727691,0.0888882925113041,-0.7269624670346578,0.6033854087193807,-1.7749239603678386,1.2036892175674438,2.3651312987009683
2.3,1.68868660622567e+18,77.29967004394531,-0.0480309724807739,-0.083385944366455,-0.2329410314559936,1.68868660622567e+18,77.29967004394531,-0.7085746228694916,-9.259924411773682,3.2799617052078247,1.68868660622567e+18,77.29967004394531,-0.666389673948288,-9.15903377532959,3.4502153396606445,1.6886866062299968e+18,77.30399690755208,0.0102828980113069,-0.1558215419451395,0.1973603814840316,1.6886866062299968e+18,77.30399690755208,0.0092647901425759,-0.1512400557597477,0.1996511270602543,,,,,,,,,,,,1.6886866062288814e+18,77.30288144531251,19.22231979370117,37.073359680175784,-25.17347946166992,1.6886866062288814e+18,77.30288144531251,-236.12367553710936,132.09915771484376,-157.89727478027345,1.68868660622567e+18,77.29967004394531,-0.3131873309612274,0.0848297700285911,-0.7257909178733826,0.6065837740898132,-1.7616094946861267,1.2044473886489868,2.3421876430511475
2.35,1.68868660626893e+18,77.34293009440104,-0.1151477495829263,0.0277506510416666,0.0990776220957438,1.68868660626893e+18,77.34293009440104,-0.7349953452746073,-9.15892759958903,3.5926238695780435,1.68868660626893e+18,77.34293009440104,-0.6256936192512512,-9.16917355855306,3.430858850479126,1.6886866062819064e+18,77.35590641276042,0.0571159000198046,-0.0676024223988254,0.0542651950381696,1.6886866062819064e+18,77.35590641276042,0.0560977930823961,-0.0630718357861041,0.0565559406920025,,,,,,,,,,,,1.688686606278886e+18,77.35288603515625,19.48339958190918,37.46864013671875,-25.171039199829103,1.688686606278886e+18,77.35288603515625,-235.86259765625,132.49443664550782,-157.89483947753905,1.68868660626893e+18,77.34293009440104,-0.3109609683354695,0.0827909459670384,-0.7245966593424479,0.6094322999318441,-1.7512056827545166,1.2073447306950886,2.3252267837524414
2.4,1.688686606320839e+18,77.39483870442707,-0.163088043530782,0.1896282831827798,0.2024877071380615,1.688686606320839e+18,77.39483870442707,-0.7794619798660278,-9.00758139292399,3.668396552403768,1.688686606320839e+18,77.39483870442707,-0.622219959894816,-9.179704984029131,3.4032214482625327,1.6886866063251717e+18,77.39917163085937,0.0651335064321755,0.0529162008315324,-0.0124463795218616,1.6886866063251717e+18,77.39917163085937,0.0640644915401935,0.057497689500451,-0.0100792768644168,,,,,,,,,,,,1.6886866063288817e+18,77.40288178710937,19.12959976196289,37.449118041992186,-24.77331924438477,1.6886866063288817e+18,77.40288178710937,-236.21639404296872,132.47492065429688,-157.4971160888672,1.688686606320839e+18,77.39483870442707,-0.3097774485747019,0.0834893609086672,-0.7243940035502116,0.6101807554562887,-1.751653512318929,1.2103771368662517,2.324783484141032
2.45,1.6886866063727557e+18,77.44675528971355,-0.291570782661438,0.1288770039876301,0.22337539990743,1.6886866063727557e+18,77.44675528971355,-0.906281590461731,-9.07418155670166,3.67378036181132,1.6886866063727557e+18,77.44675528971355,-0.6205568313598633,-9.185553868611654,3.3877175649007163,1.68868660636843e+18,77.44242993164063,0.0214820946566759,-0.0186822960774103,0.0120645884114006,1.68868660636843e+18,77.44242993164063,0.0204130799975245,-0.0142026164879401,0.0143553332115212,,,,,,,,,,,,1.6886866063788836e+18,77.45288344726563,18.99539909362793,37.16363906860352,-24.87091941833496,1.6886866063788836e+18,77.45288344726563,-236.35059509277343,132.18943786621094,-157.59471740722657,1.6886866063727557e+18,77.44675528971355,-0.3095164199670155,0.0843658049901325,-0.7242337862650553,0.6103829741477966,-1.751985232035319,1.212071458498637,2.325946648915609
2.5,1.6886866064246633e+18,77.49866349283855,-0.1149448156356811,0.121228535970052,0.2749667167663574,1.6886866064246633e+18,77.49866349283855,-0.7312066952387491,-9.081559499104818,3.7258243560791016,1.6886866064246633e+18,77.49866349283855,-0.6221079031626383,-9.185283342997232,3.3881702423095703,1.6886866064203418e+18,77.49434171549478,-0.0015780685159066,-0.0385354161262511,0.0169006051146424,1.6886866064203418e+18,77.49434171549478,-0.0026470827093968,-0.0340048326955487,0.019242255638043,,,,,,,,,,,,1.6886866064288837e+18,77.50288388671875,18.86607971191406,37.35639953613281,-24.739159393310548,1.6886866064288837e+18,77.50288388671875,-236.47991638183595,132.3821990966797,-157.46295776367188,1.6886866064246633e+18,77.49866349283855,-0.3086723387241363,0.0833634833494822,-0.7244040369987488,0.6107460260391235,-1.7524015108744304,1.2119932572046916,2.323600689570109
2.55,1.688686606476576e+18,77.550576171875,0.0387035806973775,0.0772396723429361,0.2530548572540282,1.688686606476576e+18,77.550576171875,-0.5972086588541666,-9.121838569641112,3.710270881652832,1.688686606476576e+18,77.550576171875,-0.6417582631111145,-9.181573549906412,3.39452862739563,1.6886866064722565e+18,77.54625610351563,-0.0091120734577998,0.0574722389380136,-0.0920879368980725,1.6886866064722565e+18,77.54625610351563,-0.0101810871468235,0.0620537276069322,-0.0897971925636132,,,,,,,,,,,,1.6886866064788838e+18,77.55288393554687,19.38579978942871,37.38567962646484,-24.84163932800293,1.6886866064788838e+18,77.55288393554687,-235.96019592285157,132.4114776611328,-157.56544189453126,1.688686606476576e+18,77.550576171875,-0.3092638154824574,0.084002045293649,-0.7250211437543234,0.6096253395080566,-1.7576597929000854,1.2109193801879885,2.330759366353353
2.6,1.6886866065284908e+18,77.60249072265624,0.1849609315395355,0.0010919570922851,-0.101490577061971,1.6886866065284908e+18,77.60249072265624,-0.4791627327601115,-9.189834912618002,3.372284730275472,1.6886866065284908e+18,77.60249072265624,-0.6699697176615397,-9.17342217763265,3.411087910334269,1.6886866065241644e+18,77.59816438802083,-0.0344120760758717,0.1012509142359097,-0.0684678135439753,1.6886866065241644e+18,77.59816438802083,-0.0354301848759253,0.1058324053883552,-0.0661770667259891,,,,,,,,,,,,1.6886866065288842e+18,77.60288447265626,18.992959594726564,37.24171905517578,-25.202759170532225,1.6886866065288842e+18,77.60288447265626,-236.35303649902343,132.26751708984375,-157.9265563964844,1.6886866065284908e+18,77.60249072265624,-0.3112296958764394,0.0856685837109883,-0.7258176803588867,0.6074413061141968,-1.7647559245427449,1.2085670232772827,2.34342885017395
2.65,1.6886866065804045e+18,77.65440454101562,0.0485681295394897,-0.1369059880574543,-0.2989806334177653,1.6886866065804045e+18,77.65440454101562,-0.592223604520162,-9.322636286417644,3.1932218074798584,1.6886866065804045e+18,77.65440454101562,-0.646637757619222,-9.168225606282553,3.4295150438944497,1.6886866065760778e+18,77.65007788085937,-0.0356847116102774,0.0561486973116794,0.0384845100343227,1.6886866065760778e+18,77.65007788085937,-0.036702820410331,0.0606792814408738,0.0407752543687819,,,,,,,,,,,,1.6886866065788818e+18,77.65288188476562,18.88071975708008,37.1904800415039,-25.00023956298828,1.6886866065788818e+18,77.65288188476562,-236.46527404785155,132.21628112792968,-157.72403564453126,1.6886866065804045e+18,77.65440454101562,-0.3133503794670104,0.0862154588103294,-0.7249334454536438,0.6073301037152609,-1.7571802536646526,1.2070738474527996,2.3399378458658853
2.7,1.688686606632316e+18,77.70631591796875,0.1891429920991261,-0.1621443430582681,-0.2955147425333658,1.688686606632316e+18,77.70631591796875,-0.4408775667349497,-9.34835942586263,3.197409232457479,1.688686606632316e+18,77.70631591796875,-0.6358666022618612,-9.168710390726725,3.430236577987671,1.6886866066279887e+18,77.70198860677084,0.0101301819086074,0.0313068441367552,-0.0054468819871544,1.6886866066279887e+18,77.70198860677084,0.0091629785796006,0.0358883336496849,-0.0031561370318134,,,,,,,,,,,,1.6886866066288817e+18,77.70288173828126,18.861199569702148,37.207559967041014,-24.912399291992188,1.6886866066288817e+18,77.70288173828126,-236.48479614257812,132.23336181640624,-157.63619689941407,1.688686606632316e+18,77.70631591796875,-0.3138044476509094,0.0864552681644757,-0.7245262463887533,0.6075473626454672,-1.7541077931722004,1.2072123289108276,2.3378995259602866
2.75,1.6886866066755694e+18,77.74956945800781,0.1894304454326629,-0.0146188735961914,-0.0556297302246093,1.6886866066755694e+18,77.74956945800781,-0.4345964193344116,-9.206385135650637,3.4235310554504395,1.6886866066755694e+18,77.74956945800781,-0.6298729181289673,-9.174261569976808,3.416473388671875,1.688686606679903e+18,77.75390307617188,0.0391462811579306,0.1313360258936881,-0.027336220567425,1.688686606679903e+18,77.75390307617188,0.0381281711161136,0.1358666121959685,-0.0249945698305964,,,,,,,,,,,,1.6886866066788828e+18,77.75288266601562,18.429319763183592,37.087998962402345,-25.12711944580078,1.6886866066788828e+18,77.75288266601562,-236.91667785644532,132.11380004882812,-157.85091552734374,1.6886866066755694e+18,77.74956945800781,-0.3147418946027756,0.0885228402912616,-0.7240655422210693,0.607313722372055,-1.7531334161758425,1.2088065147399902,2.3413500785827637
2.8,1.6886866067188388e+18,77.79283878580729,-0.0884847243626912,0.0854803721110025,0.0030974547068277,1.6886866067188388e+18,77.79283878580729,-0.6967101891835531,-9.108877817789711,3.4781670570373535,1.6886866067188388e+18,77.79283878580729,-0.6140714883804321,-9.17685349782308,3.412382205327352,1.6886866067318162e+18,77.8058163248698,-0.013388129727294,0.0556396433773139,0.0344120763863125,1.6886866067318162e+18,77.8058163248698,-0.0144571447744965,0.0601702281273901,0.0367028210312127,,,,,,,,,,,,1.6886866067288842e+18,77.8028841796875,18.724559020996093,37.30271835327149,-25.263759231567384,1.6886866067288842e+18,77.8028841796875,-236.6214324951172,132.32851867675782,-157.98755493164063,1.6886866067188388e+18,77.79283878580729,-0.3163751661777496,0.0904283920923868,-0.7232736746470133,0.6071279247601827,-1.7488666375478108,1.2095530430475872,2.3423596223195395
2.85,1.688686606770746e+18,77.8447461751302,-0.1420018672943114,0.0336074829101562,-0.1004685560862223,1.688686606770746e+18,77.8447461751302,-0.7310073177019755,-9.15753173828125,3.3866416613260903,1.688686606770746e+18,77.8447461751302,-0.5948514739672343,-9.17363452911377,3.424422820409139,1.6886866067750728e+18,77.84907263183594,-0.0351247508078813,-0.0419969856739043,0.0314595596864819,1.6886866067750728e+18,77.84907263183594,-0.0361937656998633,-0.0374154951423406,0.0337503040209412,,,,,,,,,,,,1.6886866067788877e+18,77.85288784179687,18.768479537963863,37.47595977783203,-25.52727928161621,1.6886866067788877e+18,77.85288784179687,-236.5775146484375,132.5017547607422,-158.25107421875,1.688686606770746e+18,77.8447461751302,-0.3170285324255625,0.0898135403792063,-0.7226727604866028,0.6075939337412516,-1.7428107261657717,1.208626389503479,2.3364133834838867
2.9,1.688686606822665e+18,77.8966650390625,0.1033909519513448,-0.0178476969401041,-0.0336176554361978,1.688686606822665e+18,77.8966650390625,-0.511266440153122,-9.203194618225098,3.4644083976745605,1.688686606822665e+18,77.8966650390625,-0.6205034255981445,-9.167842229207356,3.4353386561075845,1.688686606818338e+18,77.89233829752604,-0.02204205468297,-0.0313577484339475,-0.0818050367136796,1.688686606818338e+18,77.89233829752604,-0.0231110683331886,-0.0268271646151939,-0.0794633850455283,,,,,,,,,,,,1.6886866068288886e+18,77.90288842773438,18.900239562988283,37.13679885864258,-25.27107925415039,1.6886866068288886e+18,77.90288842773438,-236.4457580566406,132.1626007080078,-157.99487915039063,1.688686606822665e+18,77.8966650390625,-0.3166120747725169,0.0890486960609753,-0.7236712574958801,0.6067343354225159,-1.7495091756184895,1.2069636185963948,2.341429074605306
2.95,1.6886866068745746e+18,77.94857446289063,0.1858139038085937,-0.0404221216837564,-0.1104328632354735,1.6886866068745746e+18,77.94857446289063,-0.4616153637568156,-9.220343589782717,3.3960134983062744,1.6886866068745746e+18,77.94857446289063,-0.6532753109931946,-9.162416776021322,3.443758964538574,1.6886866068702487e+18,77.9442489420573,-0.0207694179068008,-0.0199549311655573,-0.0319177079945802,1.6886866068702487e+18,77.9442489420573,-0.0217875273277361,-0.0154243474826216,-0.0295760594308376,,,,,,,,,,,,1.6886866068788826e+18,77.95288271484375,18.758719635009765,37.04407958984375,-25.212519454956055,1.6886866068788826e+18,77.95288271484375,-236.5872772216797,132.06987609863282,-157.93631591796876,1.6886866068745746e+18,77.94857446289063,-0.3164991736412048,0.0890043924252192,-0.7248300115267435,0.6054155031840006,-1.7582883437474568,1.2054115931193037,2.3500590324401855
3.0,1.6886866069264837e+18,78.00048331705729,0.1438143253326415,-0.0649922688802083,-0.1105332374572753,1.6886866069264837e+18,78.00048331705729,-0.491525650024414,-9.242875734965008,3.4035908381144204,1.6886866069264837e+18,78.00048331705729,-0.6411860187848409,-9.160378774007162,3.451436678568522,1.688686606922165e+18,77.99616479492187,-0.02647082755963,-0.1370374336838722,0.0934114754199981,1.688686606922165e+18,77.99616479492187,-0.0275398412098486,-0.1325068523486454,0.0957531283299127,1.68868660692695e+18,78.00094995117188,0.0,0.424096018075943,0.8621503710746765,6.5929999351501465,0.0347425080835819,0.0,40.30000305175781,-122.753153,49.1903759,1.6886866069288842e+18,78.00288408203124,18.839239883422852,36.89035873413086,-25.18568000793457,1.6886866069288842e+18,78.00288408203124,-236.5067565917969,131.91615600585936,-157.90947570800782,1.6886866069264837e+18,78.00048331705729,-0.3151043156782785,0.0864518533150354,-0.7247134248415629,0.606649915377299,-1.7544985214869182,1.2048300504684448,2.340369939804077
3.05,1.6886866069783913e+18,78.05239143880208,-0.121485153834025,-0.0103015899658203,-0.0432632764180501,1.6886866069783913e+18,78.05239143880208,-0.7280162970225016,-9.190033912658691,3.4711880683898926,1.6886866069783913e+18,78.05239143880208,-0.6123771667480469,-9.162227630615234,3.451763947804769,1.688686606974074e+18,78.0480741373698,-0.0026979882386512,-0.0854193245371182,0.0873028263449668,1.688686606974074e+18,78.0480741373698,-0.0037670023351286,-0.0808378358681996,0.0895935694376627,,,,,,,,,,,,1.688686606978886e+18,78.05288618164062,18.9026798248291,37.3637191772461,-25.134439086914064,1.688686606978886e+18,78.05288618164062,-236.4433166503906,132.38952026367187,-157.8582336425781,1.6886866069783913e+18,78.05239143880208,-0.3134911954402923,0.0838489731152852,-0.7240064342816671,0.6086926062901815,-1.7464019457499187,1.2053571144739788,2.325913747151693
3.1,1.6886866070303117e+18,78.10431160481771,-0.1073759794235229,0.0573701858520507,0.0305580298105875,1.6886866070303117e+18,78.10431160481771,-0.7238288720448812,-9.12343406677246,3.5403804779052734,1.6886866070303117e+18,78.10431160481771,-0.6222989161809286,-9.163299560546877,3.447135051091512,1.6886866070259848e+18,78.09998470052084,0.0003563381033018,-0.1937460949023564,0.0227038254961371,1.6886866070259848e+18,78.09998470052084,-0.0007126760513832,-0.1891646037499109,0.0250454753016431,,,,,,,,,,,,1.6886866070288858e+18,78.10288569335937,19.180839920043944,37.21731948852539,-25.07831916809082,1.6886866070288858e+18,78.10288569335937,-236.1651580810547,132.243115234375,-157.80211791992187,1.6886866070303117e+18,78.10431160481771,-0.3106803894042968,0.0810940042138099,-0.7246684233347574,0.6097170909245809,-1.749420960744222,1.2056633631388347,2.320569117863973
3.15,1.688686607082227e+18,78.15622688802084,0.138438860575358,0.0550352732340494,0.1707173983256021,1.688686607082227e+18,78.15622688802084,-0.5030909677346548,-9.126424789428713,3.6741792360941568,1.688686607082227e+18,78.15622688802084,-0.6473758618036906,-9.163955370585125,3.440774440765381,1.6886866070778954e+18,78.15189575195312,0.0050905437674372,-0.1303688238064447,0.0071776666057605,1.6886866070778954e+18,78.15189575195312,0.0040215294187266,-0.1257873351375261,0.0094684114058811,,,,,,,,,,,,1.6886866070788833e+18,78.15288325195313,19.297959518432616,37.012360382080075,-24.863599395751955,1.6886866070788833e+18,78.15288325195313,-236.04803466796875,132.0381591796875,-157.58739624023437,1.688686607082227e+18,78.15622688802084,-0.3075013160705566,0.0783708095550536,-0.7258495489756266,0.6102810303370158,-1.7567923466364543,1.2058507601420083,2.319089333216349
3.2,1.688686607125485e+18,78.19948522949218,-0.0495541989803314,0.0524787902832031,0.1605266332626342,1.688686607125485e+18,78.19948522949218,-0.6987042129039764,-9.128319263458252,3.664308786392212,1.688686607125485e+18,78.19948522949218,-0.6549960374832153,-9.163293361663818,3.441094756126404,1.688686607129807e+18,78.20380704752604,-0.0143553329010803,-0.1199841151634851,0.0288633822153011,1.688686607129807e+18,78.20380704752604,-0.0153734418563543,-0.1155044337113698,0.0312050326416889,,,,,,,,,,,,1.688686607128884e+18,78.20288403320312,19.424839782714844,36.99283981323242,-24.42683944702149,1.688686607128884e+18,78.20288403320312,-235.92115478515623,132.01863708496094,-157.1506378173828,1.688686607125485e+18,78.19948522949218,-0.3061795830726623,0.0769395940005779,-0.7262701392173767,0.6106273531913757,-1.7589132189750671,1.2056618332862854,2.3171006441116333
3.25,1.6886866071687442e+18,78.24274389648438,0.0335010886192321,0.0505072275797525,0.1331594785054524,1.6886866071687442e+18,78.24274389648438,-0.6207380692164103,-9.12762133280436,3.6430724461873374,1.6886866071687442e+18,78.24274389648438,-0.6600851813952128,-9.160623868306478,3.447225570678711,1.6886866071817234e+18,78.25572338867187,-0.0275398418307304,-0.1567378391822179,0.0582358216245968,1.6886866071817234e+18,78.25572338867187,-0.0285579500099022,-0.1522072578469911,0.0605774695674577,,,,,,,,,,,,1.6886866071788849e+18,78.25288496093751,19.600519561767577,37.288079833984376,-24.678159332275392,1.6886866071788849e+18,78.25288496093751,-235.74547424316407,132.31387329101562,-157.4019561767578,1.6886866071687442e+18,78.24274389648438,-0.3040651480356852,0.0740493610501289,-0.7267482876777649,0.611470619837443,-1.7600106398264568,1.2049007415771484,2.3107550144195557
