time,Barometer_relativeAltitude,Barometer_pressure,Location_altitude,Location_speedAccuracy,Location_bearingAccuracy,Location_latitude,Location_altitudeAboveMeanSeaLevel,Location_bearing,Location_horizontalAccuracy,Location_verticalAccuracy,Location_longitude,Location_speed,Orientation_yaw,Orientation_qx,Orientation_qz,Orientation_roll,Orientation_qw,Orientation_qy,Orientation_pitch,Magnetometer_z,Magnetometer_y,Magnetometer_x,GyroscopeUncalibrated_z,GyroscopeUncalibrated_y,GyroscopeUncalibrated_x,MagnetometerUncalibrated_z,MagnetometerUncalibrated_y,MagnetometerUncalibrated_x,Accelerometer_z,Accelerometer_y,Accelerometer_x,AccelerometerUncalibrated_z,AccelerometerUncalibrated_y,AccelerometerUncalibrated_x,Gyroscope_z,Gyroscope_y,Gyroscope_x,Gravity_z,Gravity_y,Gravity_x
3.1,0.2721586227416992,1011.9188690185548,42.96025220118463,1.2792967519187832,-1.0,49.27590680851461,61.998822605237365,-1.0,4.8141054566582815,3.2632691713926683,-122.87162779942037,0.3858608788394533,1.698789328378464,0.0216441411115011,0.729120334026119,-0.9919710800030641,0.32327921786075253,-0.5894913249692416,-1.0056696789428208,-20.742570686340333,34.8565315246582,-33.18702239990235,-0.3033615529537201,-5.427341379970312,-2.085565721988678,18.123861694335936,57.21569061279297,97.01624908447266,11.772452469238937,8.441923664885461,3.894846724149138,0.9183380126953125,1.7423751831054688,-0.0122894287109375,-0.3017696175724268,-5.809646928310395,-3.0631090046837928,-2.772468995332835,8.271294886379838,-3.913925547854602
3.2,0.3020168304443359,1011.9152832031251,42.96025220118463,1.2792967519187832,-1.0,49.27590680851461,61.998822605237365,-1.0,4.8141054566582815,3.2632691713926683,-122.87162779942037,0.3858608788394533,1.064072922148523,0.15436124627372927,0.5731937028005648,-1.9224389426437565,0.25832882581062167,-0.7608504685846271,-0.9168207707044285,9.339562606811523,31.492921829223633,-41.426283264160155,-2.155191797018051,-0.799349605385214,-0.7806760758161545,48.654483032226565,53.77763061523437,88.95452728271485,-9.748831169724912,-8.765784856772422,12.413374349991678,-0.8007415771484375,-0.09544830322265625,0.699786376953125,-2.0665273040533068,-0.500595086812973,-0.31937112659215927,2.045891218184903,7.763257452149988,-5.579320064603984
3.3,0.33187503814697267,1011.9116973876954,42.96025220118463,1.2792967519187832,-1.0,49.27590680851461,61.998822605237365,-1.0,4.8141054566582815,3.2632691713926683,-122.87162779942037,0.3858608788394533,1.1609071265535074,0.07813389919788312,0.6186299241904735,-1.6515650467298781,0.3011575321707821,-0.7169472465319329,-1.0078099934444933,5.079421573215061,29.682715945773655,-43.35296376546224,4.514393746852875,3.8072296380996704,0.027362410165369534,42.14984130859375,53.68879089355469,88.24631958007812,-0.9816941080212283,-2.2100011471655634,11.679060529777075,-0.04328460693359375,0.6564361572265625,0.6882736206054687,4.620184315575494,3.927182568444146,-0.0022064712312486437,0.5106848113478355,8.231103005372484,-5.149274632731245
3.4,0.36173324584960936,1011.9081115722657,42.96025220118463,1.2792967519187832,-1.0,49.27590680851461,61.998822605237365,-1.0,4.8141054566582815,3.2632691713926683,-122.87162779942037,0.3858608788394533,-0.783312177192818,-0.11773583970339525,0.7040056542190765,0.12322526031124079,0.07665739404427574,-0.6772303120051173,-1.3766359873527914,-2.3314579010009764,47.56886863708496,-21.23310241699219,5.560853588581085,-5.159332907199859,2.638050764799118,36.116885375976565,72.20534057617188,113.69667053222656,-9.5458196154958,26.388616849736866,2.6174599420525135,-0.9853866577148438,4.216697692871094,0.09725799560546874,5.8440334558486935,-5.221186535060406,3.1484741032123567,-0.4712509409147548,9.559797112087308,0.5026038904466293
3.5,0.3915914535522461,1011.904525756836,42.96025220118463,1.2792967519187832,-1.0,49.27590680851461,61.998822605237365,-1.0,4.8141054566582815,3.2632691713926683,-122.87162779942037,0.3858608788394533,-2.3225053020799318,-0.15041586554110825,0.7880568345660093,0.9205396688662594,-0.08032696083689256,-0.5904487224612901,-1.1369138504637948,-7.583784484863282,52.734197998046874,-2.5994918823242186,-1.0779663667082786,1.5260734423995017,-1.8169513165950775,29.262793404715403,75.39231872558594,129.4822278703962,23.315041603067293,6.809462163540422,-17.019955882132948,2.0749801635742187,0.923187255859375,-1.3062042236328124,-0.9214054316282272,2.0238499911502004,-1.9086132884025573,-2.513575131620839,8.882464544495344,3.246667302709669
3.6,0.4214496612548828,1011.9009399414064,42.96025220118463,1.2792967519187832,-1.0,49.27590680851461,61.998822605237365,-1.0,4.8141054566582815,3.2632691713926683,-122.87162779942037,0.3858608788394533,-1.1837845376033678,-0.07752720213371299,0.7040521176774297,0.8162435430508357,0.0033040446681716303,-0.7012783546128509,-1.4035678497857635,1.896651840209961,51.6038101196289,-11.372999572753907,-4.251765656471252,-0.4341399516910315,-2.812682646512985,42.06026713053385,73.82693820529514,117.5442403157552,-5.055484874165952,-6.961213047740161,-9.268385477549732,-0.6573379516601563,0.517852783203125,-0.8883148193359375,-4.1273561239242555,-0.7265641391277313,-2.906092417240143,0.05910036163887009,9.648076693208218,1.0496002794462487
3.7,0.4513078689575195,1011.8973541259766,42.96025220118463,1.2792967519187832,-1.0,49.27590680851461,61.998822605237365,-1.0,4.8141054566582815,3.2632691713926683,-122.87162779942037,0.3858608788394533,1.3476650572400928,-0.03678703418690549,0.6870246274721425,-1.2932680665591731,0.3031143613134926,-0.6465928280608588,-1.1593350228844064,-9.304328346252442,40.000633239746094,-31.893190002441408,-1.6978992193937301,4.563182866573333,3.1633845984935762,26.624859619140626,61.55479736328125,98.04358825683593,5.560266229209304,22.40367721143454,0.5300654923558227,0.8967239379882812,3.007588195800781,-0.0594329833984375,-1.964090856909752,5.190957975387573,3.3889668613672255,-1.4602256237428635,8.921862956521512,-3.223377656376138
3.8,0.48116607666015626,1011.8937683105469,42.96025220118463,1.2792967519187832,-1.0,49.27590680851461,61.998822605237365,-1.0,4.8141054566582815,3.2632691713926683,-122.87162779942037,0.3858608788394533,1.2737550965703526,0.061295385564932525,0.664938230631348,-1.6559715537195856,0.20672689565047125,-0.7077394614376804,-1.1594595676151884,-0.6112586975097655,38.91923713684082,-34.497240447998045,1.0640388899017126,-5.316300874948501,-2.717905056476593,42.387168884277344,62.31234588623047,96.41505279541016,0.12575140899866816,-9.241205151227117,6.338917161584943,-0.32537078857421875,-0.07016754150390625,0.1816558837890625,1.11964862793684,-5.699623045325279,-2.8931672528386114,0.17476594772232695,8.980028086790144,-3.5709657461962103
3.9,0.511024284362793,1011.8901824951172,42.96025220118463,1.2792967519187832,-1.0,49.27590680851461,61.998822605237365,-1.0,4.8141054566582815,3.2632691713926683,-122.87162779942037,0.3858608788394533,1.113827923359088,0.05134732748892455,0.6488720998342516,-1.8484254433971752,0.17598289040939105,-0.7366708719793038,-1.2239077056304235,5.97625961303711,41.38259658813477,-32.696248626708986,0.40054700560867784,3.564111828804016,0.05504732653498652,43.428770277235245,64.12365383572049,97.81202528211806,-3.1860063516503567,-5.814243211461306,6.6463436145344374,-0.20259552001953124,0.4750640869140625,0.40449371337890627,0.33870542906224727,3.4640748739242553,0.12861135676503183,0.9174257228852808,9.221985194711387,-3.186901780733168
4.0,0.5408824920654297,1011.8865966796875,42.96025220118463,1.2792967519187832,-1.0,49.27590680851461,61.998822605237365,-1.0,4.8141054566582815,3.2632691713926683,-122.87162779942037,0.3858608788394533,0.34039035212859353,-0.08640770450441507,0.6602909633995033,-0.5514915958382517,0.16825390680172697,-0.7212217816744695,-1.3787493727488096,0.18064613342285157,46.142146301269534,-25.203567504882812,4.680573523044586,-3.3627040922641753,0.06575524285435677,39.3002426147461,70.09349365234375,108.44776306152343,-4.228317258626409,14.800665792368054,9.444734445720016,-0.48433990478515626,2.7278778076171877,0.7048019409179688,4.559112763404846,-2.897832876443863,-0.14067101776599883,0.5564648134087957,9.596937574505805,-1.2513724092934662
4.1,0.5707406997680664,1011.8830108642578,42.96025220118463,1.2792967519187832,-1.0,49.27590680851461,61.998822605237365,-1.0,4.8141054566582815,3.2632691713926683,-122.87162779942037,0.3858608788394533,-2.271624415533267,-0.11535205652760469,0.7874368290121988,0.9013116547383175,-0.09380201870298094,-0.5942488129171747,-1.1583937825464645,-8.993661499023437,51.74662780761719,-2.3854721069335936,1.0358473889529705,-0.9788090601563454,3.03376349657774,27.49100579155816,74.36287943522136,129.45841471354166,16.119645544699576,15.635367142493724,-15.978976581780312,1.5713760375976564,2.14033203125,-1.36693115234375,1.2374829329550265,-1.1216686725616454,2.9372742388397457,-2.5581385761120856,8.930997280091642,2.8730269553618877
4.2,0.7662725448608398,1011.8595886230469,42.96025220118463,1.2792967519187832,-1.0,49.27590680851461,61.998822605237365,-1.0,4.8141054566582815,3.2632691713926683,-122.87162779942037,0.3858608788394533,-2.2694207317956496,-0.11961392451432984,0.7637734268572718,0.9660720452813552,-0.054167675119664006,-0.6303180906239324,-1.2588160178448191,-6.506917190551758,52.4618522644043,-3.511216735839844,-2.456517976522446,-0.8070164442062377,-1.9015680313110352,32.722120666503905,75.06184234619141,126.4089126586914,0.3969092139281333,-10.124018147379754,-10.086504467734693,-0.2548492431640625,0.004808044433593761,-0.813360595703125,-2.2639420568943023,-0.48580974638462066,-1.8972792625427246,-1.702362545210421,9.30578482471317,2.4601341291842234
4.3,0.9618043899536132,1011.836166381836,42.96025220118463,1.2792967519187832,-1.0,49.27590680851461,61.998822605237365,-1.0,4.8141054566582815,3.2632691713926683,-122.87162779942037,0.3858608788394533,1.3919682065156191,-0.01863111050203896,0.7154975045164108,-0.8140148388963819,0.1906047948659591,-0.6502671215397534,-1.2919327689114628,-5.791326332092285,45.24858016967774,-24.44545669555664,-5.267954617738724,6.548022007942199,1.8233993776142596,29.695631408691405,65.42600708007812,102.89579010009766,-8.938177780793309,23.756977604910432,-5.092751856347471,-0.9826583862304688,3.489801025390625,-0.6060409545898438,-5.497619393467903,6.656718266010285,1.4079086571931838,-1.448018578196503,9.309296866035163,-2.07390149800553
4.4,0.9678096771240233,1011.8354311856358,42.96025220118463,1.2792967519187832,-1.0,49.27590680851461,61.998822605237365,-1.0,4.8141054566582815,3.2632691713926683,-122.87162779942037,0.3858608788394533,1.5741165004663988,0.061431974871759096,0.7053107743029111,-1.232331192896438,0.28745593143739756,-0.6349686051001553,-1.034565160914494,-9.819441032409667,35.09520149230957,-37.0880485534668,0.149417906999588,-5.88081648349762,-3.348483622074127,31.570970323350693,57.85620795355903,92.9356452094184,13.855335199051797,-2.6547951963907472,11.615182266321927,1.0991287231445312,0.35186767578125,0.7918167114257812,0.21880361791700126,-6.093604350090027,-3.047831392288208,-1.6823163706568813,8.419090018691122,-4.307555097137987
4.5,0.9738149642944335,1011.8346959894354,42.96025220118463,1.2792967519187832,-1.0,49.27590680851461,61.998822605237365,-1.0,4.8141054566582815,3.2632691713926683,-122.87162779942037,0.3858608788394533,1.1484950100892617,0.1123730307143163,0.6174428041569316,-1.800685487322765,0.24326671142483608,-0.7378711726564232,-1.0330534880413211,7.173989486694336,34.30699157714844,-40.078182220458984,0.739150008559227,2.912701690196991,-0.2594421729445457,45.051788330078125,57.26460418701172,90.73582611083984,-5.984605038819909,-6.140128778008818,10.510536987875103,-0.39749298095703123,0.38591461181640624,0.6051651000976562,0.523217374831438,2.6648395538330076,-0.2923910178244114,1.1471807098570839,8.420246787510811,-4.872611034271568
4.6,0.9798202514648436,1011.8339607932352,42.96025220118463,1.2792967519187832,-1.0,49.27590680851461,61.998822605237365,-1.0,4.8141054566582815,3.2632691713926683,-122.87162779942037,0.3858608788394533,0.6690453217544585,-0.07607799799231835,0.6661444632481845,-0.8115423974326648,0.205430474199482,-0.7073781433225961,-1.3569963586376534,-1.5990821838378906,44.40570068359375,-28.098392486572266,5.629687404632568,-1.9663580730557442,-0.32607075199484825,37.2119873046875,69.11790313720704,106.0910888671875,-1.802964958357513,11.120058177357315,7.900128250282258,-0.26938018798828123,2.3605026245117187,0.54000244140625,5.589581155776978,-1.5311479687690734,-0.36674677282571794,0.17359097252991107,9.491833173764347,-1.8391018496637137
4.7,0.9858255386352538,1011.8332255970349,42.96025220118463,1.2792967519187832,-1.0,49.27590680851461,61.998822605237365,-1.0,4.8141054566582815,3.2632691713926683,-122.87162779942037,0.3858608788394533,-2.228560012381718,-0.15258373380365545,0.7772135198852723,1.0571996071923486,-0.05398250292368667,-0.5985795829030132,-1.1703627850345284,-9.096540832519532,51.48753356933594,-2.168707275390625,2.630709997937083,-0.21558150053024275,3.986532483994961,27.289649115668404,74.04658338758681,130.38633897569446,11.50986585949108,20.812594131564794,-15.673829135839565,1.1147216796875,2.7078933715820312,-1.3842376708984374,2.8291709154844282,-0.9617022752761841,4.296674963831902,-2.153863793860501,8.89784775777936,2.978604921125322
4.8,0.991830825805664,1011.8324904008346,42.96025220118463,1.2792967519187832,-1.0,49.27590680851461,61.998822605237365,-1.0,4.8141054566582815,3.2632691713926683,-122.87162779942037,0.3858608788394533,-2.349697968566555,-0.1780784309486034,0.7963046082982698,0.9302273234170265,-0.0834425778957443,-0.5712315554882178,-1.0774583887181608,-13.826373863220216,51.522709655761716,3.5895782470703126,-1.5684231132268907,-1.207254950888455,-1.545669400691986,25.557366943359376,74.34463500976562,133.1706069946289,2.8635444174890217,-9.050572455447314,-13.11639659618318,-0.03475189208984375,-0.07849578857421875,-0.9683380126953125,-1.3813454940915109,-1.0793919250369073,-1.54341402053833,-2.7687339879076927,8.625586638557015,3.717299603009373
4.9,0.9978361129760742,1011.8317552046343,42.96025220118463,1.2792967519187832,-1.0,49.27590680851461,61.998822605237365,-1.0,4.8141054566582815,3.2632691713926683,-122.87162779942037,0.3858608788394533,0.661019881162482,-0.03578282977989026,0.7403640343779057,-0.3631100606445138,0.12241123654826198,-0.6318151680055868,-1.286771908234122,-8.59275417327881,47.34547805786133,-18.97772216796875,-7.316425859928131,7.193573927879333,-0.5100676119327545,29.60849846733941,68.78204684787326,108.5248786078559,-8.610310246648343,19.827509327748118,-7.5874731321251385,-1.1222061157226562,3.370713806152344,-0.7192230224609375,-7.484699010848999,6.946086764335632,-0.9253291070461274,-1.8962396662715448,9.362028865339159,-0.9731893741962313
5.0,1.0038414001464844,1011.8310200084339,42.96025220118463,1.2792967519187832,-1.0,49.27590680851461,61.998822605237365,-1.0,4.8141054566582815,3.2632691713926683,-122.87162779942037,0.3858608788394533,1.5941093946984468,0.0187619425273697,0.7125912566631312,-1.1095085083407557,0.3126451983650891,-0.6150012218522647,-1.0614121175858295,-13.856277656555175,36.032707595825194,-34.845942687988284,1.9524294843897223,-6.253726470470428,-2.3055686950683594,25.65125274658203,58.761834716796876,95.59160461425782,16.612400741801856,4.751243802480399,9.750034612617492,1.4793365478515625,0.9184005737304688,0.5532958984375,1.8759935155510903,-6.007221221923828,-1.8627657413482666,-2.228321749200379,8.528824066607653,-3.900625716715902
5.1,1.0098466873168945,1011.8302848122337,42.96025220118463,1.2792967519187832,-1.0,49.27590680851461,61.998822605237365,-1.0,4.8141054566582815,3.2632691713926683,-122.87162779942037,0.3858608788394533,1.0133954027435357,0.01982192521193465,0.6379898892394,-1.8566042904130236,0.20813150852479137,-0.7401372558274697,-1.2155465227599889,4.695309066772461,41.401760482788085,-33.15370101928711,0.40944677256047723,2.1076511323451994,-0.719177114032209,42.712364196777344,64.18255920410157,97.53838958740235,-6.040887716342807,-10.695741813387274,5.284657553124726,-0.47005462646484375,-0.0949615478515625,0.2164825439453125,0.4571413975208998,1.985676109790802,-0.8138905111700296,0.9611250908149034,9.19421835912466,-3.271148833015412
5.2,1.0158519744873047,1011.8295496160334,42.96025220118463,1.2792967519187832,-1.0,49.27590680851461,61.998822605237365,-1.0,4.8141054566582815,3.2632691713926683,-122.87162779942037,0.3858608788394533,0.8023200710739739,-0.08025760710363282,0.6225931331523293,-1.8289764083508953,0.27223859325140987,-0.7286935480193895,-1.2588065635985572,-0.7488613128662109,43.14192276000976,-31.28423614501953,1.9846886992454529,0.1752188742160797,-0.30542859099805353,37.55435689290365,66.08991834852431,99.74448988172743,-2.3822577736711503,5.303015456757545,9.486103164131938,-0.173126220703125,1.6868560791015625,0.6991363525390625,1.7798598900437355,0.4689158707857132,-0.31997510381042954,0.7454770793396979,9.324090062923728,-2.9094104911593344
5.3,1.0218572616577148,1011.8288144198331,42.96025220118463,1.2792967519187832,-1.0,49.27590680851461,61.998822605237365,-1.0,4.8141054566582815,3.2632691713926683,-122.87162779942037,0.3858608788394533,-1.4218618633362003,-0.12240066927467567,0.7247598268117645,0.675338454652515,0.026285573083818604,-0.6633062112979031,-1.324813811414539,-3.5995864868164062,50.99550247192383,-11.162649536132813,4.461833987385035,-4.17938964664936,4.0257484629750255,34.42970275878906,73.86609649658203,120.51860656738282,7.072232956135719,21.353804527434704,-7.05083398604026,1.2308822631835938,2.9485504150390627,-0.860711669921875,4.670749814808369,-4.805179405212402,4.216874063014984,-0.7852393197095766,9.409562010051905,1.2728023673260003
5.4,1.027862548828125,1011.8280792236328,42.96025220118463,1.2792967519187832,-1.0,49.27590680851461,61.998822605237365,-1.0,4.8141054566582815,3.2632691713926683,-122.87162779942037,0.3858608788394533,-2.4017889688990097,-0.1127296384452549,0.7953981795762154,0.7853228177386493,-0.08113437867315891,-0.5888644922349846,-1.1661570384008688,-11.918168258666991,52.16079330444336,-2.414592742919922,-0.745372025668621,0.4770240195095539,-1.722793662548065,27.263202243381077,74.93145073784723,127.93738640679254,6.385022801551743,-5.934506135272383,-11.27592280971229,-0.199810791015625,0.25993804931640624,-0.7306961059570313,-0.6665853440761567,0.4854113280773163,-1.6638206601142884,-2.74170625102438,9.003797786338627,2.6868589692929388
5.5,1.0690827369689941,1011.8231353759766,42.96025220118463,1.2792967519187832,-1.0,49.27590680851461,61.998822605237365,-1.0,4.8141054566582815,3.2632691713926683,-122.87162779942037,0.3858608788394533,-0.24749004420032855,-0.04114325381291078,0.7290434882690247,-0.10445862842851641,0.05818321872049455,-0.6674733563497381,-1.3685010885632054,-3.1545413970947265,49.57109756469727,-16.226094818115236,-6.657377552986145,5.358203729987144,-1.227146902680397,35.29617156982422,71.77351531982421,113.26097564697265,-7.260093520321062,9.605245150315165,-9.695618313488364,-0.8652969360351562,2.4495941162109376,-0.989630126953125,-6.534670758247375,4.814106678962707,-1.4052191451191902,-0.9879760719320364,9.564094926185607,-0.1609808720836415
5.6,1.1103029251098633,1011.8181915283203,42.96025220118463,1.2792967519187832,-1.0,49.27590680851461,61.998822605237365,-1.0,4.8141054566582815,3.2632691713926683,-122.87162779942037,0.3858608788394533,1.676256224143105,-0.02041526903372093,0.7259456770180815,-0.8875085896610685,0.3661186321631111,-0.5748282226894623,-1.023555988596252,-21.459014701843262,34.83155632019043,-33.72550506591797,0.3102678477764129,-4.088500547409057,-0.18281443119049073,19.09912109375,57.55927276611328,96.26215972900391,15.204784119344353,14.03706223622471,7.295488724587858,1.2356094360351562,1.8407730102539062,0.42571563720703126,0.09756276607513427,-3.46541907787323,0.20852186679840087,-3.218677486635074,8.354229365532696,-3.8078250925870236
5.7,1.1515231132507324,1011.8132476806641,42.96025220118463,1.2792967519187832,-1.0,49.27590680851461,61.998822605237365,-1.0,4.8141054566582815,3.2632691713926683,-122.87162779942037,0.3858608788394533,1.136570769092414,0.10688048440049414,0.618617201363261,-1.8133558932348142,0.2375617325395866,-0.7402734888371894,-1.046038307666108,5.871886444091797,35.43500747680664,-38.85404586791992,-0.8471618600189685,0.21280994415283203,-0.9237926885485649,46.04395039876302,57.773551093207466,91.50823805067274,-9.146230164120793,-9.022835488929152,9.55726923027098,-0.795623779296875,-0.090960693359375,0.5071212768554687,-0.865070235170424,-0.1376318335533142,-1.248603780567646,1.1803169771080388,8.481671211836337,-4.7357210930474105
5.8,1.1927433013916016,1011.8083038330078,42.96025220118463,1.2792967519187832,-1.0,49.27590680851461,61.998822605237365,-1.0,4.8141054566582815,3.2632691713926683,-122.87162779942037,0.3858608788394533,1.145288446118022,-0.01162625889369674,0.6413469951673199,-1.536201613052906,0.30347891643364316,-0.7007245681501981,-1.1456917323161375,-3.208681106567383,38.3667797088623,-36.00920715332031,3.746445190906525,3.089691174030304,-0.6748982299119234,34.88600463867188,61.46439971923828,95.09811859130859,-1.0640390396139026,-0.7267080668488146,9.97616923905462,-0.1022003173828125,0.990032958984375,0.627459716796875,3.569214332103729,3.2396028995513917,-0.5936823796713725,-0.07034870075375015,8.882420939162373,-4.010641650313735
5.9,1.2339634895324707,1011.8033599853516,42.96025220118463,1.2792967519187832,-1.0,49.27590680851461,61.998822605237365,-1.0,4.8141054566582815,3.2632691713926683,-122.87162779942037,0.3858608788394533,-0.9547995052476186,-0.11535577873848654,0.7047475677083528,0.5604098478616628,0.06520482590734714,-0.6796035928478952,-1.3843057728902601,-0.8523155212402344,50.573412322998045,-14.521943664550781,4.031233620643616,-5.4722088098526,3.5031094014644624,35.65536804199219,73.47887725830078,118.1587921142578,-8.41217665088625,25.72712704653859,-2.7166045795262974,-0.3167236328125,3.677503967285156,-0.3669403076171875,4.1985904455184935,-5.412552601099014,3.242804300785065,-0.3996226229922473,9.577545943911074,0.6201069352467055
6.0,1.2751836776733398,1011.7984161376954,42.96025220118463,1.2792967519187832,-1.0,49.27590680851461,61.998822605237365,-1.0,4.8141054566582815,3.2632691713926683,-122.87162779942037,0.3858608788394533,-2.45870858016474,-0.15172233750790948,0.7977893665516246,0.8290486072936449,-0.05072488762115492,-0.5802107018072781,-1.146261687951844,-12.984706687927247,51.83261260986328,-1.3076576232910155,-0.48041205741465093,1.6483457803726196,-1.4676049019501078,25.89165751139323,74.56619093153212,129.49667188856336,21.229872881209108,-2.9791995844697956,-13.423570214189288,1.275276184082031,0.35713653564453124,-1.0188339233398438,-0.4003972470760345,1.848070104420185,-1.52778953127563,-2.73960260058254,8.928251897680163,2.9410219756363327
6.1,1.316403865814209,1011.7934722900392,42.96025220118463,1.2792967519187832,-1.0,49.27590680851461,61.998822605237365,-1.0,4.8141054566582815,3.2632691713926683,-122.87162779942037,0.3858608788394533,-1.0713108038327417,-0.08620638106986107,0.7261824893306279,0.34913159466692534,0.02838722831887064,-0.6731818543036192,-1.371722169778133,-1.6896331787109375,50.928795623779294,-11.602899169921875,-6.053996562957764,0.041634321212768735,-1.7081555366516112,37.29713745117188,73.25847015380859,117.91815185546875,-5.565123116575516,-0.18605489569634237,-12.856597717457712,-0.7558441162109375,1.355560302734375,-1.2463333129882812,-5.812177217006683,-0.3692682713270187,-1.8244710206985473,-0.5999013943104992,9.569080371834934,0.8718974553748033
6.2,1.3576240539550781,1011.7885284423829,42.96025220118463,1.2792967519187832,-1.0,49.27590680851461,61.998822605237365,-1.0,4.8141054566582815,3.2632691713926683,-122.87162779942037,0.3858608788394533,1.4948093373669138,-0.01580016058440467,0.6938544668722868,-1.0498012808933284,0.38197494652634434,-0.6017253346916883,-1.0253575138321378,-16.27543411254883,35.31842727661133,-35.01854782104492,-2.3071276677979364,2.57462469736735,2.090846489701006,20.507244533962673,56.75145806206597,94.93099297417535,14.447291534975022,23.977104632269736,7.04727685250774,1.4739159478081598,3.2229478624131946,0.3884955512152778,-2.244795048236847,2.081980276107788,1.363052922487259,-2.6145929279423132,8.320766071870029,-4.241122664618194
6.3,1.3988442420959473,1011.7835845947267,42.96025220118463,1.2792967519187832,-1.0,49.27590680851461,61.998822605237365,-1.0,4.8141054566582815,3.2632691713926683,-122.87162779942037,0.3858608788394533,1.2050477524988552,0.1096220377461536,0.6313513918376507,-1.7366669798027998,0.24537138267647127,-0.7248179440008469,-1.0368249251912915,3.431338310241699,34.53632278442383,-39.33713073730469,1.0891115410253405,-3.965480077266693,-2.258578324317932,43.10357818603516,57.414720153808595,91.30571136474609,-7.926387216669731,-9.226156226011813,7.8163597460711,-0.7243255615234375,-0.07780303955078124,0.31459808349609375,1.0337862608022987,-3.1012012645602227,-1.9453656420111656,0.7621876103177666,8.437371349956393,-4.813147856242507
6.4,1.4400644302368164,1011.7786407470704,42.96025220118463,1.2792967519187832,-1.0,49.27590680851461,61.998822605237365,-1.0,4.8141054566582815,3.2632691713926683,-122.87162779942037,0.3858608788394533,1.1203714774272453,0.04891510797111889,0.6376157032384517,-1.7494354102064946,0.23620016267241645,-0.7300352224155982,-1.1435466896371596,3.9245128631591797,38.857656478881836,-36.040245819091794,1.5632234871387483,2.7836230218410494,-0.2809179089963436,42.128746032714844,61.72890777587891,94.7568115234375,-3.35060257199347,-3.5977634444898365,7.810463147700131,-0.26675567626953123,0.5188064575195312,0.3809051513671875,1.716495406627655,2.8933173537254335,-0.33929513543844225,0.7341139664976671,8.91568935322702,-3.990259927316159
6.5,1.47825795953924,1011.7740561745385,42.96025220118463,1.2792967519187832,-1.0,49.27590680851461,61.998822605237365,-1.0,4.8141054566582815,3.2632691713926683,-122.87162779942037,0.3858608788394533,0.07160783982945693,-0.09887842805078323,0.674556897864731,-0.8112159196681397,0.16200551998640106,-0.7059260506748122,-1.4185751454134536,-0.9005775451660156,47.30751419067383,-23.310791015625,4.580878472328186,-3.2988291442394257,0.6484790181275457,37.73307800292969,70.97234429253473,109.23815239800348,-4.225075609824061,19.48773733311951,5.779788554060683,-0.40336151123046876,2.9551925659179688,0.5151824951171875,4.620248794555664,-3.9613814041018487,1.001587849855423,0.16774170524813697,9.655038524270951,-0.9446533626016043
6.6,1.5164514888416638,1011.7694716020064,42.96025220118463,1.2792967519187832,-1.0,49.27590680851461,61.998822605237365,-1.0,4.8141054566582815,3.2632691713926683,-122.87162779942037,0.3858608788394533,-2.524363649908964,-0.173330478559578,0.8020496016375492,0.8254833436038214,-0.030873809094962523,-0.5664021302025349,-1.1250231097096945,-13.191624641418457,51.3345703125,-1.0761581420898438,1.8151798717677594,1.2076806455850602,3.1402482360601427,24.72259521484375,73.93955841064454,130.0606887817383,15.85278228054583,8.673589446608126,-16.38257982806742,1.2970413208007812,1.822735595703125,-1.3540817260742188,1.5503779277205467,1.9349916189908982,2.5644271579571067,-2.8404011865823344,8.803783631133735,3.0903764369927345
6.7,1.5546450181440874,1011.7648870294745,42.96025220118463,1.2792967519187832,-1.0,49.27590680851461,61.998822605237365,-1.0,4.8141054566582815,3.2632691713926683,-122.87162779942037,0.3858608788394533,-2.3599051899213803,-0.19412383007250641,0.7650936278458959,1.0553338042062963,-0.00458152552759247,-0.6121865723536171,-1.2129059119756964,-9.411119651794433,52.53491287231445,-0.7089729309082031,-2.088858000934124,-0.1059190571308136,-1.9357188940048218,29.293928358289932,75.1763899061415,129.822509765625,-0.19332760472610594,-11.149583371692597,-11.74560309921026,-0.185784912109375,-0.20809326171875,-0.8926483154296875,-2.5117651909589767,-0.4310005806386471,-1.9134073495864867,-1.6846243078459053,9.152684513278901,2.9662899655316024
6.8,1.5928385474465112,1011.7603024569426,42.96025220118463,1.2792967519187832,-1.0,49.27590680851461,61.998822605237365,-1.0,4.8141054566582815,3.2632691713926683,-122.87162779942037,0.3858608788394533,1.253471247827164,-0.06512591056333879,0.7044600372831432,-0.7941686979843339,0.2520201679709243,-0.6420279520019145,-1.2712769769420784,-9.356707954406739,44.66530303955078,-24.99745864868164,-6.250595694780349,6.0509044289588925,0.6732393950223923,28.513621520996093,66.6511001586914,104.60385131835938,-9.865089914008975,25.686265342413783,-6.191586285784543,-1.16402587890625,3.52939453125,-0.8652618408203125,-5.801725804805756,6.40554626993835,1.4093992531299588,-1.5886211978812887,9.26295830870837,-2.1817897280857617
6.9,1.6310320767489348,1011.7557178844106,42.96025220118463,1.2792967519187832,-1.0,49.27590680851461,61.998822605237365,-1.0,4.8141054566582815,3.2632691713926683,-122.87162779942037,0.3858608788394533,1.4797625239346746,0.0186812274377177,0.6915059271022377,-1.177555173447668,0.34220250272840114,-0.6233212702194202,-1.0186458051426073,-13.373162078857423,34.496738815307616,-36.41698684692383,0.7647161364555359,-6.1127134129405025,-2.0151272296905516,26.29085693359375,57.16480255126953,93.89169464111328,16.19269429739311,-1.4643812967306373,8.898016158535778,1.4510299682617187,0.7441925048828125,0.46478729248046874,0.836133849620819,-6.01466598957777,-2.97735800743103,-2.0004204963978074,8.333016598538459,-4.2925596849016845
7.0,1.6692256060513584,1011.7511333118786,42.96025220118463,1.2792967519187832,-1.0,49.27590680851461,61.998822605237365,-1.0,4.8141054566582815,3.2632691713926683,-122.87162779942037,0.3858608788394533,0.9062750487689468,0.0027784785996044503,0.6001270970022239,-1.8101161722245749,0.2928529435036712,-0.7433996544169836,-1.1016496654540693,2.8733146667480467,37.832875442504886,-37.55492935180664,0.5417130321264267,2.053229308128357,-1.155900889635086,41.36245897081163,60.556315104166664,93.09435696072049,-5.810442416325808,-6.5463036283496026,7.8156077002078295,-0.4955718994140625,0.198876953125,0.351983642578125,0.5816376149654389,2.0851890325546263,-1.041688734292984,1.0509340734601766,8.74669419649869,-4.306815297008305
7.1,1.7074191353537822,1011.7465487393466,42.96025220118463,1.2792967519187832,-1.0,49.27590680851461,61.998822605237365,-1.0,4.8141054566582815,3.2632691713926683,-122.87162779942037,0.3858608788394533,0.6413060164407227,-0.075943245772361,0.6199174148311585,-2.0417130334452613,0.2409873630673562,-0.7396125999375194,-1.2779207329971478,1.9560386657714843,43.415658950805664,-30.70170669555664,3.5816635966300963,-2.0540191399864853,0.6299445986747741,40.629075622558595,66.45200958251954,100.49847869873047,-2.3746405912787467,10.039270189064144,8.786084684599992,-0.13511962890625,1.9703872680664063,0.6440170288085938,3.839365518093109,-2.386042393743992,0.7528459012508393,1.0417590452469512,9.329013549252748,-2.5691807062932472
7.2,1.7456126646562058,1011.7419641668147,42.96025220118463,1.2792967519187832,-1.0,49.27590680851461,61.998822605237365,-1.0,4.8141054566582815,3.2632691713926683,-122.87162779942037,0.3858608788394533,-1.9965471210440875,-0.14929421351238187,0.7482366790481094,1.3777507657428059,0.01229263323689847,-0.6374493453471469,-1.297114251653471,-5.18785514831543,51.80351867675781,-7.266907501220703,3.357897760719061,0.06241888403892517,4.356392988562584,32.63031921386719,74.5410385131836,124.21482696533204,10.073875317012222,17.809279278205334,-14.964541516416892,0.8875595092773436,2.7783905029296876,-1.305889892578125,2.975780948996544,0.6768267631530762,4.073155372962356,-1.2564496719723006,9.332453051408232,2.0450850337215463
7.3,1.7838061939586294,1011.7373795942827,42.96025220118463,1.2792967519187832,-1.0,49.27590680851461,61.998822605237365,-1.0,4.8141054566582815,3.2632691713926683,-122.87162779942037,0.3858608788394533,-2.433818074777726,-0.1783351435027074,0.7774408269588301,0.9524455069895446,-0.00895358358413093,-0.6016652013333499,-1.2037481642748582,-10.957658195495606,52.17483673095703,-1.8078079223632812,-0.6925770029425621,-1.9074057832360267,-1.9229177925735712,28.288292778862846,74.91519165039062,128.51615058051215,2.7506771568872033,-9.498083992400467,-9.90379461545646,0.06749725341796875,-0.01776123046875,-0.72034912109375,-0.8227651685476303,-1.9572752349078655,-2.049464136362076,-2.057914833455756,9.141213271193802,2.8373383868651834
7.4,1.8219997232610532,1011.7327950217507,42.96025220118463,1.2792967519187832,-1.0,49.27590680851461,61.998822605237365,-1.0,4.8141054566582815,3.2632691713926683,-122.87162779942037,0.3858608788394533,0.05955874940306596,-0.05716419151506631,0.7249146369205104,-0.2983599038018518,0.1299373914951189,-0.6584525995568533,-1.345403012609339,-5.159790992736816,48.08620834350586,-19.374008178710938,-6.627932739257813,4.237396979331971,-0.936568746715784,33.10907897949219,70.21807556152343,110.09285888671874,-8.647916821434722,15.194079594621957,-9.969456706577837,-1.0060028076171874,2.4521530151367186,-1.1087371826171875,-6.679765725135804,5.011705243587494,-0.6738579481840133,-1.2143534758827834,9.507961652457713,-0.83795454506197
7.5,1.8601932525634768,1011.7282104492188,42.96025220118463,1.2792967519187832,-1.0,49.27590680851461,61.998822605237365,-1.0,4.8141054566582815,3.2632691713926683,-122.87162779942037,0.3858608788394533,1.5991270636556383,-0.003068667170358087,0.7112981946423305,-0.9890727268942466,0.3668794936749638,-0.5914665924776003,-1.009826855684098,-17.12707862854004,34.12322769165039,-35.77883758544922,-0.5364358976483345,-3.603875696659088,0.05710031390190142,19.96103074815538,56.474270290798614,94.9561258951823,15.134153073397465,7.679250959851444,9.19612971647784,1.2542739868164063,1.6892410278320313,0.504986572265625,-0.3331758677959442,-4.397936767339706,-0.5814242839813233,-2.817990541526568,8.291315462527871,-4.15557201161757
7.6,1.8963930130004885,1011.7238693237305,42.96025220118463,1.2792967519187832,-1.0,49.27590680851461,61.998822605237365,-1.0,4.8141054566582815,3.2632691713926683,-122.87162779942037,0.3858608788394533,1.0769541124318733,0.09474355684972677,0.6017742917103475,-1.793241491372185,0.2782217153324523,-0.7417261735762692,-0.9991561376852539,6.014791107177734,33.0204360961914,-40.858436584472656,-0.05937035381793976,0.6246186375617981,-1.3952973573468626,44.44952239990234,55.653167724609375,89.66887817382812,-7.418290285418034,-9.43016687428087,10.09791690691769,-0.6406524658203125,-0.11958770751953125,0.5037460327148438,0.08074039667844775,1.0683766305446625,-0.9703883610665798,1.173045401616916,8.246040150518416,-5.159516618787646
7.7,1.9325927734375001,1011.7195281982422,42.96025220118463,1.2792967519187832,-1.0,49.27590680851461,61.998822605237365,-1.0,4.8141054566582815,3.2632691713926683,-122.87162779942037,0.3858608788394533,0.9466706956618809,-0.04653669345452333,0.6249317650849763,-1.6972487995477024,0.29526823653094686,-0.7189751489824514,-1.1915426786709844,-1.273259735107422,39.722425842285155,-35.00326690673828,3.381522536277771,1.4150965481996536,-0.4495505392551422,37.13553009033203,62.830552673339845,96.11380767822266,-1.6380335220171882,2.0029701119253036,9.864628726238012,-0.125408935546875,1.1079940795898438,0.6361419677734375,3.484364414215088,1.1735167756676674,-0.4986065477132797,0.42752533799875525,9.062132194146514,-3.584607785675227
7.8,1.9687925338745118,1011.7151870727539,42.96025220118463,1.2792967519187832,-1.0,49.27590680851461,61.998822605237365,-1.0,4.8141054566582815,3.2632691713926683,-122.87162779942037,0.3858608788394533,-0.8986931358668324,-0.11470913105112186,0.6935300153040678,-0.005648269259342942,0.07052022595343815,-0.6952384095527435,-1.3696930424353346,1.253411865234375,50.214186096191405,-15.526164245605468,4.46782238483429,-4.594689249992371,3.805760461091995,39.83378770616319,72.87536112467448,115.21676635742188,-8.119086664947085,27.819728154193758,-3.6762385769201815,-0.848907470703125,3.779612731933594,-0.298590087890625,4.416497206687927,-4.565806531906128,3.88088351637125,0.0008126078109349955,9.565042436168788,0.5120168428151588
7.9,2.0049922943115237,1011.7108459472656,42.96025220118463,1.2792967519187832,-1.0,49.27590680851461,61.998822605237365,-1.0,4.8141054566582815,3.2632691713926683,-122.87162779942037,0.3858608788394533,-2.4399991837854884,-0.13736667066990849,0.7960139599098881,0.8126295013023428,-0.06055880851313639,-0.5856325285233877,-1.1592127415434565,-11.494398752848307,52.063246409098305,-1.9798846774631076,-0.5380717545747757,1.0191219627857209,-1.238867136836052,27.500881958007813,74.77500915527344,128.3868377685547,22.695349354388973,-3.0532773684660595,-16.15190087516705,1.8608627319335938,0.5783843994140625,-1.2717132568359375,-0.7198485612041421,0.4759340551164415,-1.1666452934344609,-2.700706007093357,8.97821141224106,2.8372799362998866
8.0,2.041192054748535,1011.7065048217773,42.96025220118463,1.2792967519187832,-1.0,49.27590680851461,61.998822605237365,-1.0,4.8141054566582815,3.2632691713926683,-122.87162779942037,0.3858608788394533,-1.282489179780837,-0.0895693216316535,0.735932112990915,0.17093966195484445,0.048608824561977335,-0.6643008394542279,-1.3916147904461915,-2.963307571411133,50.95822601318359,-12.87219696044922,-4.968514633178711,-0.45538952946662903,-2.026560664176941,37.21368560791016,72.45976409912109,114.35713043212891,-2.4750257084133476,-5.606540313771665,-8.194053650432526,-0.461041259765625,0.7268463134765625,-0.8352432250976562,-4.8068561315536495,-0.5815874055027962,-2.029801678657532,-0.8947382473492436,9.621571723476945,0.6683296116632782
8.1,2.077391815185547,1011.7021636962892,42.96025220118463,1.2792967519187832,-1.0,49.27590680851461,61.998822605237365,-1.0,4.8141054566582815,3.2632691713926683,-122.87162779942037,0.3858608788394533,1.4790839889767389,-0.01616137900700836,0.6970929481460164,-1.1527901261746398,0.3278317124728756,-0.6269570470571738,-1.103948845757812,-11.920487403869629,37.96645240783691,-33.45178375244141,-2.1909257054328917,3.7366841554641725,2.8519357055425645,24.088241577148438,58.886964586046005,95.74915228949652,-1.6160861644446107,23.21454813018739,-1.1615431944847108,0.37339324951171876,2.986553955078125,-0.14037933349609374,-2.463357239961624,4.080691540241242,3.0017543844878674,-1.9895666692584217,8.687156608833075,-3.7307683025220038
8.2,2.1135915756225585,1011.6978225708009,42.96025220118463,1.2792967519187832,-1.0,49.27590680851461,61.998822605237365,-1.0,4.8141054566582815,3.2632691713926683,-122.87162779942037,0.3858608788394533,1.4107469871550447,0.13521363894923036,0.655846131785131,-1.5028174123368432,0.28819858674443666,-0.6778996924544919,-0.9459239034945062,-1.8998071670532226,31.425133514404298,-40.89735412597656,-1.2252820700407028,-4.202615201473236,-2.1841900408267976,40.335183715820314,53.67799682617188,88.92245788574219,4.313129850449972,-7.618222373749613,14.183734560438097,-0.24122467041015624,0.01276397705078125,0.6935272216796875,-1.1907349824905396,-4.500511813163757,-2.360256043449044,-0.3248837217155873,7.950178550834655,-5.4887125081530215
8.3,2.1497913360595704,1011.6934814453126,42.96025220118463,1.2792967519187832,-1.0,49.27590680851461,61.998822605237365,-1.0,4.8141054566582815,3.2632691713926683,-122.87162779942037,0.3858608788394533,1.3777950817848466,0.11611295184411703,0.6547685743326869,-1.4858667433707957,0.30339262149418544,-0.6800737455574127,-0.9659201853557251,-0.6387233734130859,31.752313232421876,-41.585045623779294,2.4541497439146043,3.0949820399284365,0.014331027865409856,36.48297627766927,55.07337443033854,89.46312798394098,-0.4885000019562617,-4.306847767199278,10.620449198063612,-0.06553497314453124,0.5001968383789063,0.5438552856445312,2.266476098448038,3.1667657136917113,0.06291364729404451,-0.4167925211610884,8.048027339811622,-5.519153648289441
8.4,2.185991096496582,1011.6891403198243,42.96025220118463,1.2792967519187832,-1.0,49.27590680851461,61.998822605237365,-1.0,4.8141054566582815,3.2632691713926683,-122.87162779942037,0.3858608788394533,0.7235499231717986,-0.05695301026679743,0.6925550407584855,-0.836529458526242,0.1691524802253916,-0.6893095686742714,-1.3700596330580626,-3.52950382232666,45.33285484313965,-25.031391906738282,5.413045191764832,-4.672551542520523,-1.0578345835208893,36.63311767578125,69.27237243652344,108.39770965576172,-3.2361482979285343,16.829894264239368,6.990039161201902,-0.5338836669921875,2.96112060546875,0.36409912109375,5.484908032417297,-4.2631167087703945,-1.271155595779419,-0.3921896508467476,9.526360121909677,-1.4689952134170128
8.5,2.2221908569335938,1011.684799194336,42.96025220118463,1.2792967519187832,-1.0,49.27590680851461,61.998822605237365,-1.0,4.8141054566582815,3.2632691713926683,-122.87162779942037,0.3858608788394533,-2.384596426084669,-0.1432478473398307,0.7934887089809639,0.8716507448156132,-0.06611893871563286,-0.5761697633026739,-1.1363063717237922,-10.253068542480468,50.863826751708984,-0.65390625,1.5340436095604673,2.1727716267108916,3.6474338352680205,25.481852722167968,73.35184936523437,131.86179809570314,13.909082688234744,17.370361966596246,-16.889141461430192,1.3080886840820312,2.283430480957031,-1.3689300537109375,1.6194529600441456,1.7191189765930175,3.9840974897146224,-2.668276203742418,8.79380332903266,3.042814899129197
8.6,2.266870065168901,1011.6794586181642,42.96025220118463,1.2792967519187832,-1.0,49.27590680851461,61.998822605237365,-1.0,4.8141054566582815,3.2632691713926683,-122.87162779942037,0.3858608788394533,-2.3584957709492853,-0.20838996288672007,0.7782360219166444,1.035244213525751,-0.03486753922349142,-0.5894436332202729,-1.1299813329819606,-11.527844619750976,51.454165649414065,2.987152099609375,-2.522761980444193,1.006244106590748,-1.1837223961949348,27.80096944173177,74.26520623101129,133.13990614149304,-0.12384195134162904,-11.084402985060512,-13.820668374818263,-0.2328704833984375,-0.2355499267578125,-1.0365966796875,-2.2636175855994223,1.127543830871582,-1.217709055542946,-2.12042285907343,8.844896328957976,3.568308027455136
8.7,2.311549273404208,1011.6741180419923,42.96025220118463,1.2792967519187832,-1.0,49.27590680851461,61.998822605237365,-1.0,4.8141054566582815,3.2632691713926683,-122.87162779942037,0.3858608788394533,0.9766317799783032,-0.039215489544595014,0.7321373520365977,-0.6046583887328238,0.17065664004609685,-0.6461515436460843,-1.2984051030286838,-7.316632461547852,46.510579681396486,-21.890132904052734,-6.152902245521545,4.335148974508047,0.04938392043113708,29.450503540039062,67.25281677246093,105.82290802001953,-6.565519946216568,21.202337837777733,-7.895900783393382,-0.8668869018554688,3.46204833984375,-0.9516769409179687,-6.285453796386719,3.9935303330421448,-0.2444513261318207,-1.5356952030686288,9.397773606389462,-1.5678845367526169
8.8,2.356228481639515,1011.6687774658203,42.96025220118463,1.2792967519187832,-1.0,49.27590680851461,61.998822605237365,-1.0,4.8141054566582815,3.2632691713926683,-122.87162779942037,0.3858608788394533,1.4738522323115368,0.04733979520436976,0.6784881416759905,-1.1706549800227317,0.3765750158777299,-0.6169367440666409,-0.9242905508981039,-14.226570892333985,31.237869644165038,-38.14302215576172,-1.9622068762779237,-5.742603299021721,-2.460970389842987,26.111465454101562,52.794460720486114,91.06301879882812,13.491735344946681,5.150095704135,12.15759996292889,1.0565185546875002,0.9416717529296875,0.8570159912109375,-2.071473681926727,-5.375967359542846,-2.2120301723480225,-2.0935694320975147,7.818411827069222,-5.069326440192014
8.9,2.4009076898748223,1011.6634368896484,42.96025220118463,1.2792967519187832,-1.0,49.27590680851461,61.998822605237365,-1.0,4.8141054566582815,3.2632691713926683,-122.87162779942037,0.3858608788394533,1.042799068175703,0.09835177490587975,0.5727495626001694,-1.7076912472938885,0.35664989517862405,-0.7301946708710378,-0.8756034822692504,1.7073802947998047,28.31459159851074,-44.220707702636716,1.0832372330129147,2.2652679830789566,-0.2836817532777786,39.995358276367185,51.19234619140625,86.52635345458984,-5.855002390446662,-6.516921291164159,12.639996759945749,-0.36760711669921875,0.213885498046875,0.6279556274414062,0.8923394560813904,2.123336100578308,-0.2840043090283871,0.8645433260990678,7.527603594478369,-6.202736742256581
9.0,2.4455868981101294,1011.6580963134766,42.96025220118463,1.2792967519187832,-1.0,49.27590680851461,61.998822605237365,-1.0,4.8141054566582815,3.2632691713926683,-122.87162779942037,0.3858608788394533,0.6224486642575563,-0.08786005657413697,0.6172853448114254,-1.9732128529890225,0.28676886484989245,-0.7205563712934515,-1.2342221857208089,-2.234485626220703,40.75385971069336,-32.089837646484376,6.329817152023315,-1.4049327025189995,-1.2252535581588746,37.10422973632812,66.05779418945312,102.2397232055664,-2.023047912766337,9.248045167928039,8.618788678206055,-0.1928985595703125,2.1760833740234373,0.5405776977539063,6.262037229537964,-1.070669424533844,-1.2450812399387359,0.6271237154769896,9.132195968905986,-2.9619635176238903
9.1,2.490266106345437,1011.6527557373047,42.96025220118463,1.2792967519187832,-1.0,49.27590680851461,61.998822605237365,-1.0,4.8141054566582815,3.2632691713926683,-122.87162779942037,0.3858608788394533,-1.9683154448684732,-0.17419561546839957,0.7456100471319735,1.413235916447627,-0.00809089992491876,-0.6321736001177655,-1.2275216171337662,-5.8326057434082035,51.412234497070315,-3.9521087646484374,3.078423425555229,-1.7805417895317077,4.250648121535778,30.897501627604168,74.13972473144531,128.82608710394965,12.349624200745373,22.946673204773067,-11.709535672850757,1.24635009765625,2.9691482543945313,-1.0111724853515625,3.2825733363628387,-2.189640164375305,4.507641625404358,-1.2248164320928918,9.126366122934817,2.6093095149531957
9.2,2.534945314580744,1011.6474151611328,42.96025220118463,1.2792967519187832,-1.0,49.27590680851461,61.998822605237365,-1.0,4.8141054566582815,3.2632691713926683,-122.87162779942037,0.3858608788394533,-2.3196456473354727,-0.20855551733239386,0.7734547201039292,1.0754724434503085,-0.0338443394816505,-0.595895237402879,-1.1411045254426893,-11.277179336547851,51.85485687255859,2.8518951416015623,-2.3117580369114874,0.6282638810575009,-1.6640128135681151,27.871270751953126,74.57474365234376,132.4456039428711,1.2283781433907897,-8.917140019652843,-12.236005858741404,-0.1645111083984375,-0.11807098388671874,-0.950927734375,-2.055967902392149,0.5556008033454418,-1.6970753729343415,-1.973453561207466,8.890594659458994,3.5454728468908363
9.3,2.5796245228160513,1011.6420745849609,42.96025220118463,1.2792967519187832,-1.0,49.27590680851461,61.998822605237365,-1.0,4.8141054566582815,3.2632691713926683,-122.87162779942037,0.3858608788394533,0.2616120713776173,-0.045176588876148706,0.7049087906475964,-0.7473194289961465,0.12749663504527403,-0.686323746952537,-1.3676889740172626,-2.190807914733887,48.065494537353516,-19.595359802246094,-5.822867774963379,3.721206879615784,-1.2647463798522949,35.61090087890625,68.99346771240235,107.07671203613282,-8.189572402405458,9.748882052355407,-10.599477721705437,-0.8645858764648438,2.468096923828125,-1.1705596923828125,-5.902911138534546,3.1537690460681915,-1.3813903093338014,-0.43570365501204966,9.561820200799703,-1.070579441353958
9.4,2.6243037310513584,1011.636734008789,42.96025220118463,1.2792967519187832,-1.0,49.27590680851461,61.998822605237365,-1.0,4.8141054566582815,3.2632691713926683,-122.87162779942037,0.3858608788394533,1.4700981498077768,0.01014302233824641,0.6832586579532596,-1.0706329736864368,0.4079993352099864,-0.5976728442239014,-0.9510095813324495,-17.25921459197998,31.90859489440918,-37.52478866577148,-1.7671956554055215,-3.6596056461334228,0.7287100315093996,21.096847534179688,53.12501525878906,91.9308590359158,15.90104292120248,13.950558549509049,9.274997939879,1.328216552734375,1.7758026123046875,0.5848983764648438,-1.9296460025012494,-3.13983194231987,0.978486967086792,-2.6460389634984356,7.943756759545802,-4.8903166991537805
9.5,2.6689829392866655,1011.6313934326171,42.96025220118463,1.2792967519187832,-1.0,49.27590680851461,61.998822605237365,-1.0,4.8141054566582815,3.2632691713926683,-122.87162779942037,0.3858608788394533,1.142784247683184,0.09943706419525475,0.6005235111399325,-1.6146731087262798,0.35425249968977496,-0.7094147335077754,-0.8978054398221985,-0.7585975646972656,28.83718338012695,-44.32822952270508,0.6980498172342777,0.6708903327584267,-1.2990792572498322,37.79696197509766,51.882469177246094,86.49345092773437,-5.050511060502231,-7.750239798953534,11.340941283780932,-0.45332794189453124,0.0204071044921875,0.5355270385742188,0.5756593853235245,0.5302928149700165,-1.4425345480442047,0.2684523270967416,7.6670710434272875,-6.103385615118741
9.6,2.7136621475219727,1011.6260528564452,42.96025220118463,1.2792967519187832,-1.0,49.27590680851461,61.998822605237365,-1.0,4.8141054566582815,3.2632691713926683,-122.87162779942037,0.3858608788394533,0.9200589438403008,-0.04623400897644131,0.6167981254145778,-1.6966680740896436,0.31249583522751545,-0.7170962484235555,-1.1636271296714025,-2.5003742218017577,38.66950912475586,-35.60306930541992,4.892192769050598,0.5896579027175903,-0.6831619322299958,35.95907084147135,62.78187900119357,96.52461242675781,-1.9474997444725033,5.080628258607387,11.52996397246778,-0.16418609619140626,1.5966522216796875,0.81947021484375,4.773414897918701,0.7113513976335526,-0.6793389409780503,0.4029250474580749,8.915425675402581,-3.8188688299750537
9.7,2.7554588317871094,1011.6210243918678,42.96025220118463,1.2792967519187832,-1.0,49.27590680851461,61.998822605237365,-1.0,4.8141054566582815,3.2632691713926683,-122.87162779942037,0.3858608788394533,-1.440552722071952,-0.17038620509426505,0.7165161873764372,0.7741418125256633,0.05941807889186347,-0.6600714256781071,-1.32767007545524,-4.444056510925293,51.075890350341794,-9.462679290771485,4.795188200473786,-2.0840970516204833,3.9974884361028673,33.61734313964844,73.88875885009766,122.30211181640625,3.387807214915455,27.429093811977502,-5.15445481996648,0.9610153198242187,3.682600402832031,-0.7342514038085938,4.93685497045517,-2.634749317169189,3.7609392441809177,-0.5963321719703133,9.407000342870354,1.5276432313751056
9.8,2.797255516052246,1011.6159959272904,42.96025220118463,1.2792967519187832,-1.0,49.27590680851461,61.998822605237365,-1.0,4.8141054566582815,3.2632691713926683,-122.87162779942037,0.3858608788394533,-2.4435267935825964,-0.24347361665419878,0.7905745924572922,1.0233196900517703,-0.02180693621407438,-0.5606388436911992,-1.0682444288374942,-15.263279914855957,50.92851181030274,5.123408508300781,-0.7800860427320003,-0.17564263045787812,-1.3256234169006347,24.090478515625,73.7951904296875,135.25562438964843,8.894084503562226,-4.081125228694379,-14.413273909978269,-0.03081207275390625,0.29362030029296876,-0.8556900024414062,-0.5923622272908687,-0.038568973541259766,-1.2086035549640655,-2.4670897131692615,8.587746094271242,4.0153011665573715
9.9,2.839052200317383,1011.610967462713,42.96025220118463,1.2792967519187832,-1.0,49.27590680851461,61.998822605237365,-1.0,4.8141054566582815,3.2632691713926683,-122.87162779942037,0.3858608788394533,-0.3305247253095038,-0.11466616080133094,0.7323934234758235,-0.026154453825985358,0.09790657957537521,-0.6541024885829712,-1.3365059760035127,-6.7799779891967775,49.89290084838867,-12.707451629638673,-6.831412744522095,-1.0863637950271368,-2.239015045762062,32.806693183051216,71.93391927083333,114.78494771321614,-2.8513464685645693,-6.655633011761904,-8.291760108329354,-0.49779510498046875,0.6165481567382812,-0.7864013671875,-6.800302934646607,-1.3271289840340614,-2.1816674798727034,-0.9768023606219423,9.50281791828066,0.4003519044678612
10.0,2.8808488845825195,1011.6059389981356,42.96025220118463,1.2792967519187832,-1.0,49.27590680851461,61.998822605237365,-1.0,4.8141054566582815,3.2632691713926683,-122.87162779942037,0.3858608788394533,1.4004294984164531,-0.035839656685186023,0.6824278398669669,-1.1426907213354363,0.36634809702087323,-0.6225778527382821,-1.0767887038065025,-14.395133018493652,36.820235061645505,-34.25402984619141,-1.387941873818636,2.4549133181571956,2.707862263917923,23.378842163085938,58.947364807128906,95.97769317626953,6.264874867809413,26.451630063010754,-0.49444423155471673,0.9423568725585938,3.2752975463867187,-0.1729461669921875,-1.509680050611496,2.8738925576210024,2.8151977956295013,-2.0638738541979667,8.583935479167996,-3.931237391113639
10.1,2.9226455688476562,1011.6009105335581,42.96755899625238,1.2689363121373343,-1.0,49.275908367930256,62.00612940030511,-1.0,4.952750987966904,3.3112332382680294,-122.87162636191306,0.3795615112083649,1.1273735269233136,0.08823892783457521,0.5990022056125464,-1.639774037189511,0.3374991463318008,-0.7165381544942975,-0.9184433805403535,-1.9052040100097656,30.62084197998047,-42.529431915283205,-1.026302507519722,-1.859089994430542,-3.8899646162986756,39.628390842013886,53.03965420193143,87.34307861328125,-2.876559001945555,-6.285134747219085,13.211478609247504,-0.6414474487304688,0.155902099609375,0.6137481689453125,-1.0882299341261388,-2.1911654353141783,-4.0527742266654965,0.47207719274523663,7.786179302697479,-5.75424361769408
10.2,2.9644422531127934,1011.5958820689808,42.97486579132012,1.2585758723558853,-1.0,49.27590992734591,62.013436195372854,-1.0,5.091396519275526,3.359197305143391,-122.87162492440574,0.37326214357727644,0.8274462825042729,0.029799484625236912,0.5535354663744663,-1.8497449793616205,0.34027170720704203,-0.7580022528180372,-0.9624035602670332,3.7685214996337892,32.429744720458984,-41.900133514404295,3.4229926586151125,0.8877922337502241,-0.3261953920125961,42.223121643066406,55.50279235839844,89.03436126708985,-3.174519239795953,-3.309298443250358,11.02111644935101,-0.1591766357421875,0.5605361938476563,0.5790847778320313,3.215548837184906,0.8637836039066314,-0.33897769749164575,1.5187644242425262,8.016986889381707,-5.372206978727132
10.3,3.00623893737793,1011.5908536044034,42.98217258638787,1.2482154325744361,-1.0,49.27591148676155,62.0207429904406,-1.0,5.2300420505841485,3.407161372018752,-122.87162348689843,0.36696277594618804,-0.39491824297809963,-0.15192048949098913,0.6276758767055088,0.0493986956510792,0.1563061059329929,-0.7373780401331954,-1.323594808975477,3.9735260009765625,48.4713020324707,-19.77660217285156,5.704888701438904,-5.200795596837997,1.6209265619516373,41.9726058959961,71.86054382324218,112.87350158691406,-8.405305545840635,22.688889815975426,3.9541305854754896,-0.7710952758789062,3.573954772949219,0.2279754638671875,5.851565337181091,-4.807307702302933,1.295503418147564,1.3353027272587514,9.49132066497147,-0.4099788987059239
10.4,3.048035621643067,1011.5858251398259,42.98947938145562,1.2378549927929872,-1.0,49.2759130461772,62.02804978550835,-1.0,5.368687581892771,3.4551254388941137,-122.8716220493911,0.36066340831509963,-2.3012828007405655,-0.12708622827733845,0.7897431386658342,0.8807499134141192,-0.09908220207575567,-0.5907889056410496,-1.139809321297212,-9.62667236328125,52.47615737915039,-0.5164627075195314,0.5479741066694259,-0.17745286226272583,1.2934069637674839,27.295579698350693,75.0038350423177,130.78052435980902,19.713402895353212,8.715048590556382,-12.364483653190135,1.804046630859375,1.4150970458984375,-0.9315704345703125,0.739171897713095,-0.5211738534737378,1.8305984996259212,-2.6320466346639764,8.896234886529147,3.1096820551913975
10.5,3.0898323059082036,1011.5807966752485,42.996786176523365,1.2274945530115382,-1.0,49.275914605592845,62.0353565805761,-1.0,5.507333113201393,3.503089505769475,-122.8716206118838,0.3543640406840112,-2.0227049991812045,-0.12560056325687627,0.75334470640713,0.6889309567670334,0.01332870631250902,-0.6418438093374564,-1.3340853360379148,-6.648936653137207,52.209984588623044,-7.732952117919922,-4.521893954277038,0.009755298495292664,-1.53867666721344,32.2394287109375,74.7374282836914,122.0911148071289,-0.4553457669362425,-9.442058153795896,-8.995538433585168,-0.2262176513671875,0.14173736572265624,-0.8318374633789063,-4.311010885238647,0.2951874017715454,-1.4276152908802033,-1.3750960822311415,9.482924358739258,1.6785890535761787
10.6,3.1316289901733403,1011.5757682106712,43.004092971591106,1.2171341132300892,-1.0,49.275916165008496,62.04266337564384,-1.0,5.645978644510016,3.5510535726448365,-122.87161917437649,0.34806467305292277,1.3914248180446072,-0.015913740430153138,0.6842857510692149,-1.3151066070427597,0.2788757170832681,-0.658297618581763,-1.1841774421647988,-6.906064224243164,41.33973083496094,-31.546345520019532,-3.9482160091400145,4.118007040023803,2.650607633590698,29.301289367675782,62.18251953125,97.83563079833985,-5.309297342732101,26.903168254357574,-6.471607137675136,-0.5756103515625,3.690809631347656,-0.8294921875,-4.1023437738418576,4.385994911193848,2.214106500148773,-1.2058490477140247,8.982173165220917,-3.266763004533574
10.7,3.173425674438477,1011.5707397460938,43.011399766658855,1.20677367344864,-1.0,49.27591772442414,62.04997017071159,-1.0,5.784624175818639,3.5990176395201976,-122.87161773686917,0.3417653054218343,1.3759157366774042,0.12563417811487693,0.6416113143546498,-1.4062815037352316,0.36172166121324917,-0.6556575227070355,-0.8381255167429436,-7.4775896072387695,27.414306640625,-43.66817169189453,-1.9209280759096146,-3.199180406332016,-3.8446742862463,33.77098592122396,49.30109151204427,85.90066189236111,9.04920747993052,-3.1961235487779973,16.748319207645356,0.7090377807617188,0.25207977294921874,1.1741668701171875,-2.0774298548698424,-3.703711587190628,-3.498154503107071,-0.9323552649845089,7.283265378187298,-6.147766374828219
10.8,3.2207232475280767,1011.565071105957,43.0187065617266,1.196413233667191,-1.0,49.27591928383979,62.05727696577934,-1.0,5.923269707127261,3.646981706395559,-122.87161629936186,0.3354659377907459,1.0394360977868828,0.09813536559938298,0.5696263883748516,-1.690601723260185,0.368949761382321,-0.7260005982159511,-0.8583498889711121,1.1803703308105469,27.230509185791014,-45.41624069213867,3.1220099760426416,1.213841011126836,-0.5280793954928716,39.50650634765625,50.330918884277345,85.45321350097656,-3.2616713220307973,-4.069555143957734,12.278300985896289,-0.1902381049262153,0.3639628092447917,0.5387895372178819,3.1469872549176214,1.2314687252044678,-0.5189502492547036,0.7592366734772547,7.3883820538884395,-6.3358624209633465
10.9,3.268020820617676,1011.5594024658203,43.02601335679435,1.1860527938857421,-1.0,49.275920843255435,62.064583760847086,-1.0,6.061915238435883,3.6949457732709203,-122.87161486185454,0.3291665701596575,0.3869343596420953,-0.09365772971959427,0.6249692000377056,-1.6751780886258552,0.21917433337957698,-0.7383034762859362,-1.2986941985361482,1.7755191802978516,44.40261535644531,-28.390646362304686,5.754383945465088,-1.0616908054798841,-0.8568381503224373,40.697318183051216,68.02207268608942,103.79356553819444,-2.4201230943785235,10.822920566388367,8.153204133589117,-0.11540679931640625,2.022406005859375,0.6284820556640625,5.758485174179077,-1.33772861212492,-0.7171713501214981,1.1195330144445226,9.38590699369818,-2.0103858991272467
11.0,3.3153183937072757,1011.5537338256836,43.03332015186209,1.1756923541042932,-1.0,49.275922402671085,62.07189055591483,-1.0,6.200560769744506,3.742909840146282,-122.87161342434723,0.32286720252856904,-2.1156805849507547,-0.1770019157847023,0.7573999288780118,1.25412562574007,-0.01891200911316328,-0.6206987955354482,-1.2052735825015148,-6.678055763244629,52.033643341064455,-3.185718536376953,2.995928558707237,-2.493295741081238,3.9626745760440825,31.14449462890625,74.719580078125,128.13587341308593,12.761293527623117,23.44790201112747,-15.405434424334839,1.1326980590820312,3.359049987792969,-1.26363525390625,2.5582240603864195,-2.347061002254486,3.9475105956196783,-1.5395205567999906,9.079841629194913,2.8256704896968228
