time,TotalAcceleration_z,TotalAcceleration_y,TotalAcceleration_x,Location_bearingAccuracy,Location_speedAccuracy,Location_verticalAccuracy,Location_horizontalAccuracy,Location_speed,Location_bearing,Location_altitude,Location_longitude,Location_latitude,Orientation_qz,Orientation_qy,Orientation_qx,Orientation_qw,Orientation_roll,Orientation_pitch,Orientation_yaw,Magnetometer_z,Magnetometer_y,Magnetometer_x,GyroscopeUncalibrated_z,GyroscopeUncalibrated_y,GyroscopeUncalibrated_x,MagnetometerUncalibrated_z,MagnetometerUncalibrated_y,MagnetometerUncalibrated_x,Accelerometer_z,Accelerometer_y,Accelerometer_x,AccelerometerUncalibrated_z,AccelerometerUncalibrated_y,AccelerometerUncalibrated_x,Gyroscope_z,Gyroscope_y,Gyroscope_x,Gravity_z,Gravity_y,Gravity_x
3.1,-2.8508736404279866,-7.343248610695203,3.675824203838905,0.0,0.0,1.218705415725708,9.371333122253418,0.01565101820354655,0.0,28.58505811830257,-122.75001735000001,49.19207888333333,0.30084360639254254,-0.5032852788766226,-0.4745374570290248,0.6557865540186564,-1.4674451152483623,1.1822014848391216,0.23064594219128287,4.789414954185487,49.10377922058105,-2.368324953317642,0.3260522215401359,1.0825764439774281,-1.9338506864327374,-250.83717880249023,143.9587772369385,-135.4947238922119,-3.0320869286855063,-6.080963293711345,-1.094527006149292,-2.6289076782537233,-6.517242303851879,3.8205650816812664,0.28720847249011666,0.8970174097145598,-1.9253836559752622,0.4429832932849725,-8.98844321568807,3.872686187426249
3.2,-4.884698073069255,-15.208032886187235,4.679962220291297,0.0,0.0,1.218705415725708,9.449999809265137,0.0152193615213036,0.0,28.58505811830257,-122.7500174,49.1920789,0.1720130344231923,-0.43902450799942017,-0.6045293907324473,0.6341257592042288,-1.8745374083518982,1.1795074741045635,0.9593285024166107,16.352269768714905,47.831319618225095,-0.179340022802353,0.10803986137563532,2.556526606733149,-2.527857558293776,-239.27432556152343,142.68631744384766,-133.30573806762695,-4.169026056925456,-5.629108905792236,3.4329805771509805,-3.900051643451055,-14.856836507717768,5.008427048722903,0.04720206558704378,2.2511656588564315,-2.6384160916010537,-1.0875766972700756,-8.983667055765787,3.676287372907003
3.3,4.051233233387271,-14.059552737077077,0.5835296583672367,0.0,0.0,1.2211471557617186,9.609799766540528,0.01415290180593724,0.0,28.462023476514254,-122.75001752,49.1920789,0.015340425850202635,-0.47528907656669617,-0.7059448758761088,0.5227807263533274,-2.325189709663391,0.8541054626305898,1.565475841363271,29.019834339618683,39.578019523620604,-4.248649904131889,-0.3941515433517369,1.141225857265068,-2.6038617026625257,-226.60676116943358,134.43301696777343,-137.37504844665528,14.047274510065714,-5.271507263183594,-7.974353631337483,2.9482317517201104,-13.7502557237943,0.9603942508498831,-0.4166495561599731,1.0675048264985283,-2.61202799876531,-4.273561159769694,-7.356422583262126,4.822001616160075
3.4,12.987164539843798,-12.911072587966919,-3.5129029035568236,0.0,0.0,1.2235888957977294,9.769599723815919,0.013086442090570881,0.0,28.338988834725935,-122.75001764,49.1920789,-0.019397952652070647,-0.42128447194894153,-0.7005917628606161,0.5736217399438223,-2.1476914286613464,0.9077678322792053,1.536550482114156,41.68739891052246,31.324719429016113,-8.317959785461426,-0.8963429480791092,-0.2740748922030131,-2.6798658470312753,-213.93919677734374,126.17971649169922,-141.4443588256836,2.3998313347498574,5.9855178991953535,-7.704822858174642,9.796515146891275,-12.643674939870834,-3.0876385470231376,-0.88050117790699,-0.116156005859375,-2.5856399059295656,-3.155434509118398,-7.679145256678264,5.144495248794556
3.5,1.5353944996992748,-13.65344585214431,2.91261355082194,0.0,0.0,1.22603063583374,9.929399681091308,0.01201998237520452,0.0,28.21595419293762,-122.75001776,49.1920789,0.10017490833997719,-0.39061697721481325,-0.603643000125885,0.6853576183319092,-1.6554954767227172,1.128285813331604,0.9279963850975037,31.46318926811218,39.07598924636841,-10.737219858169556,0.6746370387263596,0.2420935519039631,3.2768848091363907,-224.1634048461914,133.93098640441895,-143.86361694335938,3.6770278930664064,-18.84198455810547,3.8971808433532713,1.1756373102014714,-13.502861285751516,2.363782499324192,0.6610198308868954,0.2775873467326165,3.216434563199679,-0.23406499028205877,-8.797317504882812,4.233164691925049
3.6,-1.0311887422858763,-7.218547680873819,2.258255830599052,0.0,0.0,1.2284723758697509,10.089199638366699,0.01095352265983816,0.0,28.0929195511493,-122.75001788,49.1920789,0.18226079146067298,-0.3870132515827815,-0.46373792986075085,0.7728972931702932,-1.0311275323232014,1.0348194241523743,0.16739371372386813,15.913984606415033,44.661454153060916,-9.913109838962555,0.2869221387981352,-0.6974224172193896,2.1572405364025724,-239.7126091003418,139.51645183563232,-143.03950729370118,-6.687148312727611,-4.598785797754924,-0.7097769975662231,-1.1859608151399617,-7.738644363753723,2.398217820576533,0.2802176575465692,-0.6910875858104024,2.2107108820116883,2.672620475292206,-8.317777633666992,4.398604551951091
3.7,-3.5977719842710276,-0.7836495096033276,1.6038981103761634,0.0,0.0,1.2309141159057615,10.24899959564209,0.0098870629444718,0.0,27.969884909360985,-122.750018,49.1920789,0.2292908281087875,-0.4685531109571457,-0.37055398027102154,0.7676964700222015,-1.0970779458681743,0.9002361098925272,-0.0030168555676936826,0.36477994471788405,50.24691905975342,-9.088999819755553,-0.10079276113008913,-1.6369383863427422,1.037596263668754,-255.26181335449218,145.1019172668457,-142.21539764404298,-5.9508786996205645,16.555094559987385,-4.504361351331075,-3.5475589404813945,-1.9744274417559307,2.4326531418288746,-0.100584515793757,-1.6597625183534215,1.2049872008236973,2.8246859510739646,-7.5558953285217285,5.5514131387074785
3.8,2.197277358704896,-7.972885223952208,3.1254296563001294,0.0,0.0,1.2309141159057615,10.351399612426757,0.009423066023737159,0.0,27.969884909360985,-122.75001806,49.1920789,0.18686775366465247,-0.4582240829865138,-0.46367114285628,0.734592616558075,-1.280450205008189,1.0205877621968586,0.2926964089274406,4.086999843269587,50.16273908615112,-9.073139798641204,0.1572087237075197,-0.4446832901149085,0.3632947644501021,-251.53959274291992,145.01773567199706,-142.1995391845703,4.637554824352264,-10.364673296610514,0.8005826870600385,1.3253744954708964,-10.301574900746344,4.18581950928395,0.17047189729231776,-0.5647911909953549,0.42319192127747973,1.537951151529948,-8.248303413391113,5.073689619700114
3.9,7.9923267016808195,-15.162120938301086,4.646961202224095,0.0,0.0,1.2309141159057615,10.453799629211426,0.00895906910300252,0.0,27.969884909360985,-122.75001812,49.1920789,0.11649489247550561,-0.35819213589032484,-0.5879410207271576,0.7071260313193003,-1.4937134981155396,1.166499376296997,0.7906071643034617,7.809219741821289,50.07855911254883,-9.057279777526855,0.4152102085451285,0.7475718061129252,-0.3110067347685496,-247.81737213134767,144.93355407714844,-142.18368072509764,-10.597446064154306,3.625691175460816,0.8411446015040079,6.198307931423188,-18.62872235973676,5.938985876739025,0.4415283103783925,0.5301801363627116,-0.3586033582687378,0.48809916774431866,-8.935671329498291,3.879288593928019
4.0,-2.179612415532271,-15.403746018807093,4.015206280319641,0.0,0.0,1.2309141159057615,10.556199645996093,0.00849507218226788,0.0,27.969884909360985,-122.75001818,49.1920789,-0.027054251998197283,-0.37750481963157656,-0.7159020662307739,0.5795503973960876,-2.131580877304077,0.944919753074646,1.601656174659729,26.636869740486144,41.516599559783934,-8.862079799175262,-0.3616322223097086,1.6552920540173848,-4.188346713781357,-228.98972396850587,136.3715961456299,-141.9884765625,12.531928443908692,-17.40146951675415,-3.257135248184204,-1.1400168294256383,-14.409251440655101,3.309164892543446,-0.3649919703602791,1.5594753921031952,-4.272531459728877,-2.9589115023612975,-7.892267513275146,4.730408477783203
4.1,-1.9581832837200526,-11.167224059953835,0.49996170819962815,0.0,0.0,1.2309141159057615,10.658599662780762,0.00803107526153324,0.0,27.969884909360985,-122.75001823999999,49.1920789,-0.10316335161526992,-0.38019975026448566,-0.7421937684218088,0.5412740310033163,-2.1757946014404297,0.8103405932585398,1.750546157360077,32.32999941110611,36.9382444858551,-12.756319683790206,0.056977066211402416,0.7766734733877732,-0.9171332107348875,-223.29659461975098,131.7932424545288,-145.88271789550782,6.684751709302266,7.214742342631022,-6.730015238126119,-1.0804273985100514,-11.37843129490361,0.4995968594695581,0.050139549442312914,0.8287249342961744,-1.0285240783158578,-3.669366240501404,-7.101290146509807,5.655929327011108
4.2,-1.7367541519078342,-6.930702101100575,-3.015282863920385,0.0,0.0,1.2309141159057615,10.76099967956543,0.0075670783407986,0.0,27.969884909360985,-122.7500183,49.1920789,-0.03519667840252316,-0.36485418180624646,-0.6872530778249105,0.6236744523048401,-1.9597171743710835,0.9844913880030314,1.4679302374521892,38.023129081726076,32.35988941192627,-16.65055956840515,0.4755863547325134,-0.10194510724183847,2.354080292311582,-217.60346527099608,127.21488876342774,-149.77695922851564,-3.1676666736602783,-8.658355712890625,-8.764014720916748,-1.0208379675944645,-8.34761114915212,-2.3099711736043296,0.46527106924490497,0.09797447648915378,2.2154833030971615,-1.9349975089232128,-8.118828058242798,5.088731527328491
4.3,-0.10556517925226316,-16.890631462588455,4.177954524981253,0.0,0.0,1.2309141159057615,10.883999824523926,0.00715876482427118,0.0,27.969884909360985,-122.75001838,49.1920789,0.12840190902352328,-0.3988887369632721,-0.5259142965078354,0.7372631231943766,-1.3083893458048503,1.068712592124939,0.5173918555180231,26.502974271774292,40.27433443069458,-13.306539607048034,0.42553243041038513,-0.8932920974047827,3.4879815045631295,-229.12362060546874,135.12933235168458,-146.43293838500978,-0.49713122844696045,-16.30735508600871,6.361964821815491,-0.09152539446949959,-16.592604974905647,4.368496557076773,0.41911487586118956,-0.7949739840079211,3.486539997273322,1.312116878728072,-8.514498074849447,4.620286146799724
4.4,1.5256237934033077,-26.850560824076336,11.37119191388289,0.0,0.0,1.2309141159057615,11.006999969482422,0.0067504513077437595,0.0,27.969884909360985,-122.75001845999999,49.1920789,0.24811546504497523,-0.4548696279525757,-0.409306401014328,0.7494071006774903,-1.0911245346069336,0.9999816536903381,0.00012270491570236103,14.98281946182251,48.18877944946289,-9.962519645690918,0.37547850608825684,-1.6846390875677268,4.621882716814677,-240.6437759399414,143.0437759399414,-143.08891754150392,-12.477551078796386,16.82041072845459,-6.339109325408936,0.8377871786554655,-24.83759880065918,11.046964287757874,0.3729586824774742,-1.687922444504996,4.757596691449483,2.452511692047119,-8.160473823547363,4.841214847564697
4.5,-2.6679974297682443,0.6932706038157145,1.4654542865852516,0.0,0.0,1.2309141159057615,11.130000114440918,0.00634213779121634,0.0,27.969884909360985,-122.75001854,49.1920789,0.2615574498971303,-0.49807147185007733,-0.4376591245333354,0.7008356948693594,-1.3232375184694927,1.0640989045302074,0.14634135241309795,2.798679919540882,51.05760879516602,-5.283819937705994,0.3050716532902284,-1.3690461976961656,0.13339076800779867,-252.82791442871093,145.91260375976563,-138.41021728515625,6.079334745804469,3.502180894215902,-1.3596611022949219,-0.5681321973150427,1.2048406302928925,1.2403522096574306,0.214426410694917,-1.4605533462017775,0.3092378079891205,1.1914866467316945,-8.481054147084555,4.7632443110148115
4.6,-6.060258542497953,-8.953967329227565,3.0697807126650307,0.0,0.0,1.2309141159057615,11.253000259399414,0.00593382427468892,0.0,27.969884909360985,-122.75001861999999,49.1920789,0.2707442492246628,-0.46725597977638245,-0.4642813255389531,0.6970179577668508,-1.3231377800305684,1.1248841087023418,0.1899295151233673,10.190964815765618,48.33151888847351,-5.412529918691144,0.10218398961605446,0.30029988469499536,-1.8594581864096902,-245.43562965393068,143.18651676177979,-138.5389263153076,-5.087273895740509,-7.909438053766887,1.0878480672836304,-2.045756755001617,-8.684248810013136,3.009559047408402,0.11251663258581446,0.5335757335309277,-1.9184009337967094,1.2110310941934586,-8.728363037109375,4.122814655303955
4.7,-9.452519655227661,-18.60120526227084,4.67410713874481,0.0,0.0,1.2309141159057615,11.37600040435791,0.0055255107581615,0.0,27.969884909360985,-122.7500187,49.1920789,0.02579490871479115,-0.35762254397074383,-0.6844822863737742,0.6256675819555918,-1.9837783575057983,1.076095809539159,1.4152352412541707,17.583249711990355,45.605428981781,-5.5412398996762935,-0.10070367405811946,1.9696459670861561,-3.852307140827179,-238.0433448791504,140.46042976379394,-138.667635345459,-1.3899463415145874,-11.939859628677368,0.036338210105895996,-3.523381312688192,-18.573338250319164,4.778765885159373,0.010606854476711926,2.527704813263633,-4.146039675582539,-1.8261763155460358,-8.537524302800497,4.181103944778442
4.8,1.4125765363375358,-11.331710255507268,1.9524073573111584,0.0,0.0,1.2296950817108152,11.701800346374512,0.0064195070415734795,0.0,28.0929195511493,-122.7500187,49.1920796,-0.11971588370700671,-0.35644395649433136,-0.7398292422294617,0.554567684729894,-2.1220598022143045,0.8278737763563792,1.760169009367625,29.253464341163635,37.09501414299011,-11.737619766732678,-0.30370819692810375,2.8531670421361923,-1.782905662121872,-226.37313041687014,131.95001392364503,-144.86401557922363,7.011975089708964,3.292979081471761,-7.069759845733643,0.10959639151891087,-11.255613187948864,1.7309080303336182,-0.2896935744493297,3.0080890112528293,-2.172361808970119,-3.292202909787496,-7.215122063954671,5.688096443812053
4.9,12.277672727902731,-4.062215248743693,-0.7692924241224924,0.0,0.0,1.2284760475158691,12.027600288391113,0.007313503324985459,0.0,28.21595419293762,-122.7500187,49.1920803,-0.08449673578143115,-0.30224132537841797,-0.7076729774475098,0.6311348438262939,-1.9177004098892212,1.0036706566810607,1.595699715614319,40.923678970336915,28.58459930419922,-17.933999633789064,-0.5067127197980881,3.7366881171862283,0.28649581658343476,-214.70291595458986,123.4395980834961,-151.06039581298828,2.704467844963074,2.8024898529052735,-11.20581226348877,3.742574095726013,-3.9378881255785623,-1.3169498244921367,-0.5899940033753713,3.488473209242026,-0.19868394235769907,-1.676341700553894,-8.225750255584718,5.007457065582275
5.0,-0.0565303191542624,-19.79836365332206,1.7317554056644437,0.0,0.0,1.2272570133209229,12.353400230407715,0.00820749960839744,0.0,28.338988834725935,-122.7500187,49.192080999999995,0.017430470325052717,-0.2943354348341624,-0.5964453319708506,0.7433548172314962,-1.3241683046023052,1.1080825130144756,0.8667612969875336,25.790799570083617,40.99077920913696,-16.37056965827942,1.2830530366098338,-1.1920618891546673,3.387817046859048,-229.83579483032227,135.84577713012695,-149.4969680786133,-0.8388560215632115,-24.86875120798747,4.535915056864421,0.6832595630125563,-20.800644419410013,2.0226420055736196,1.2974269079665344,-1.2065352126955986,3.4256559213002524,1.1929237445195515,-8.717512289683023,4.218916813532512
5.1,-0.6746808104217054,-9.024061244432673,1.6500981179150667,0.0,0.0,1.2260379791259768,12.679200172424316,0.009101495891809419,0.0,28.462023476514254,-122.7500187,49.192081699999996,0.1674932849903901,-0.3539787183205287,-0.4475175788005193,0.8017866015434265,-0.8840345541636149,0.9956939915815989,0.09249080783532308,13.948564800620078,45.70577387809753,-12.198779797554016,0.8805148172276941,-1.3085225313817235,2.0176670946829924,-241.67802848815919,140.56077156066894,-145.32517738342284,-9.88815156618754,10.18403164545695,-1.4396411577860515,0.003020443699576547,-10.276144674330046,1.9566105649326788,0.8523745347717495,-1.349751891398972,1.8819473864454213,3.4226750135421753,-8.148545026779175,4.231559077898662
5.2,-1.2928313016891482,1.7502411644567148,1.5684408301656896,0.0,0.0,1.2248189449310305,13.005000114440918,0.0099954921752214,0.0,28.58505811830257,-122.7500187,49.1920824,0.19581619401772812,-0.4382138152917226,-0.453289399544398,0.7499038875102997,-1.1759039759635925,1.01889568567276,0.2059893514961004,2.10633003115654,50.4207685470581,-8.026989936828613,0.47797659784555435,-1.42498317360878,0.6475171425069371,-253.5202621459961,145.27576599121093,-141.15338668823242,3.0466362039248147,6.759312470753987,-3.9592907428741455,-0.6772186756134033,0.2483550707499186,1.8905791242917378,0.40732216157696466,-1.492968570102345,0.33823885159059003,2.018800437450409,-8.26659901936849,4.819104194641113
5.3,-3.7942736844221754,-8.148064035132077,4.854112610446684,0.0,0.0,1.2248189449310305,13.226200103759766,0.01157593987882132,0.0,28.58505811830257,-122.75001852,49.1920836,0.21932542920112605,-0.4204476296901703,-0.451491641998291,0.7543874263763428,-1.0734214901924133,1.0505622386932374,0.09737750738859172,2.8648649662733074,50.68093385696411,-6.858534896373749,0.7996989575525125,-0.1000228226184845,-0.07395289946968353,-252.76172790527346,145.53593215942382,-139.98493156433105,-7.90545392036438,-12.271818351745605,4.834257698059082,-3.1146425724029543,-10.236086706320446,5.5979537228743235,0.7122573197791071,-0.21051369652603613,-0.0736104367357312,2.3305861949920654,-8.432964897155761,4.4063574314117435
5.4,-6.295716067155202,-18.046369234720867,8.139784390727678,0.0,0.0,1.2248189449310305,13.447400093078613,0.013156387582421238,0.0,28.58505811830257,-122.75001834,49.192084799999996,0.0797326100679735,-0.3174585998058319,-0.6466448307037354,0.6804826656977335,-1.651295781135559,1.1991258263587952,1.0706657965977986,3.6233999013900755,50.94109916687012,-5.690079855918884,1.1214213172594707,1.224937528371811,-0.7954229414463043,-252.0031936645508,145.7960983276367,-138.81647644042968,-10.342304746309916,-5.431168874104817,0.950461228688558,-5.552066469192505,-20.720528483390808,9.305328321456908,1.0171924779812496,1.0719411770502727,-0.4854597250620524,-0.3591657628615697,-9.07901414235433,3.418127417564392
5.5,2.5976263501427392,-13.255095674233003,2.3446942676197398,0.0,0.0,1.2248189449310305,13.668600082397461,0.014736835286021158,0.0,28.58505811830257,-122.75001816,49.192086,-0.07624487501258646,-0.3351071725289027,-0.7666833798090616,0.5382445007562637,-2.268981138865153,0.8892238438129425,1.8779639800389607,32.32816934585571,37.503409481048585,-10.002779753506184,-1.162421016530557,2.2484700679779053,-4.08316213705323,-223.29842529296874,132.3584072113037,-143.12917785644532,14.214448968569437,-2.8548197746276855,-5.500308911005656,-0.1426720271507899,-12.494721534351507,1.8820547113815944,-1.0617948601191693,2.2531348141756924,-4.202266936952418,-3.843925356864929,-7.592949390411377,4.766402761141459
5.6,1.3337583346010158,-14.571494870452266,1.6421629443313135,0.0,0.0,1.2248189449310305,13.889800071716309,0.01631728298962108,0.0,28.58505811830257,-122.75001798,49.1920872,-0.1343665222326914,-0.30008484919865924,-0.7291718125343323,0.5985048711299896,-1.980231801668803,0.9155987799167633,1.7323107719421387,30.727529430389403,37.63455944061279,-14.355129758268596,-0.29653458074299666,0.6888153723751504,-0.2882578264583242,-224.89906578063966,132.4895574569702,-147.48152809143068,2.6819648146629333,5.8040391604105634,-11.009891033172607,-0.29583764572938287,-14.564139412095148,1.6167753860354424,-0.27105699750510126,0.7488554379705226,-0.39992465101408214,-2.2963911096254983,-7.744925022125244,5.519851048787435
5.7,0.06989031905929233,-15.88789406667153,0.9396316210428873,0.0,0.0,1.2248189449310305,14.111000061035156,0.017897730693221,0.0,28.58505811830257,-122.7500178,49.1920884,-0.000855752266943449,-0.3129001756509145,-0.6181411941846212,0.7160510818163554,-1.4996018807093303,1.0821212728818257,1.0400233666102092,29.126889514923096,37.765709400177,-18.707479763031007,0.5693518550445636,-0.8708393232276043,3.5066464841365814,-226.49970626831055,132.6207077026367,-151.83387832641603,-1.7199025948842366,-22.680194854736328,3.5175893306732178,-0.44900326430797594,-16.63355728983879,1.3514960606892903,0.5196808651089668,-0.7554239382346472,3.402417634924253,0.39071931689977646,-8.614542643229166,4.546016295750936
5.8,-2.4602204567442336,-11.772812124341726,1.5269449005524316,0.0,0.0,1.2264795541763307,14.260799980163574,0.019025765731930638,0.0,28.37815999398914,-122.75001764,49.192089440000004,0.14008909910917278,-0.36217416524887086,-0.4509544372558594,0.8015473008155822,-0.9539111733436585,0.9708998560905456,0.19055963773280377,15.397314774990082,43.87638421058655,-14.910839796066284,0.5762240902210276,-1.9145280523225665,3.655646726489067,-240.22928123474122,138.73138122558595,-148.0372371673584,-8.183246636390686,0.04191017150878871,-2.576662302017212,-2.6900660738348963,-12.322483310103417,1.7014912734429042,0.5798447417716186,-1.8590092783172927,3.6727000748117766,3.2293163776397704,-8.03757438659668,4.5634352684021
5.9,-4.99033123254776,-7.657730182011922,2.114258180061976,0.0,0.0,1.228140163421631,14.410599899291991,0.02015380077064028,0.0,28.171261869675707,-122.75001748,49.192090480000005,0.21676063537597653,-0.4570087691148122,-0.3829466601212819,0.7722657223542532,-1.0847152868906658,0.9102773666381836,0.028866567959388068,1.667740035057068,49.98705902099609,-11.114199829101562,0.5830963253974915,-2.9582167814175286,3.8046469688415527,-253.95885620117187,144.84205474853516,-144.24059600830077,-9.325504700342814,15.70205028851827,-7.350780963897705,-4.931128883361817,-8.011409330368043,2.051486486196518,0.6400086184342703,-2.962594618399938,3.9429825146993003,2.8144648671150208,-7.686500867207845,5.3689180215199785
6.0,1.2522620938040994,-7.386697846380147,3.4993399544195696,0.0,0.0,1.229800772666931,14.56039981842041,0.02128183580934992,0.0,27.964363745362277,-122.75001732,49.19209152,0.2401546314358711,-0.46423157552878064,-0.41434717178344727,0.7433584531148275,-1.1500358581542969,0.9981823762257894,0.056381743866950246,-1.0979999735951425,50.43845920562744,-9.762439846992493,0.2833442904732444,-0.5019924180074171,-0.07086035676977852,-256.72459564208987,145.2934585571289,-142.88883743286132,7.786346872647603,-16.21973975499471,5.4843283494313555,1.7426229752600193,-8.214061637719473,4.269393771886826,0.27300123463977466,-0.5748936398462816,0.02254649183966896,2.1643362641334534,-8.192441781361898,4.9068953196207685
6.1,-0.895878518282464,-9.79078448947632,3.692168373050112,0.0,0.0,1.2314613819122313,14.710199737548828,0.02240987084805956,0.0,27.757465621048844,-122.75001716,49.19209256,0.18951733782887456,-0.37428625921408326,-0.5568892111380895,0.7057890395323435,-1.4088328977425892,1.1917168299357097,0.5681302572290102,10.224819723516704,46.96877937316894,-8.192299902439117,0.2446029275994409,1.0232114202596925,-2.523312501947988,-245.40177650451662,141.82377796173097,-141.3186985015869,-6.598582824071248,5.115095933278401,-1.0500308672587078,0.24887848222120246,-10.012054924712036,3.6652060781012885,0.2730035457308545,1.0243989992322344,-2.50160365802885,0.7902351170778275,-9.039033571879068,3.310243805249532
6.2,-3.0440191303690276,-12.194871132572493,3.884996791680654,0.0,0.0,1.2331219911575315,14.859999656677246,0.0235379058867692,0.0,27.550567496735415,-122.750017,49.1920936,-0.022716673777904338,-0.3210397124290466,-0.7395963907241822,0.584645664691925,-2.17657675743103,1.013049352169037,1.7326343297958373,21.54763942062855,43.499099540710446,-6.622159957885742,0.20586156472563744,2.548415258526802,-4.975764647126198,-234.07895736694337,138.354097366333,-139.7485595703125,7.140792560577393,-12.968103408813477,-0.14957213401794434,-1.2448660108176144,-11.8100482117046,3.061018384315751,0.27300585682193435,2.6236916383107505,-5.025753807897369,-2.959644103050232,-8.270637798309327,4.029187440872192
6.3,-2.44818148513635,-7.984325798849265,-0.9218099812666574,0.0,0.0,1.2331219911575315,15.117399597167969,0.02436310574412338,0.0,27.550567496735415,-122.75001694,49.19209452,-0.1334469864765803,-0.3083005249500274,-0.7534454663594564,0.5626615683237711,-2.1087417801221213,0.8732209801673889,1.8442814151446025,29.742379547655585,37.0617696762085,-13.486489915847779,0.12730429582297803,2.871085746586323,-1.8992067590355872,-225.88421592712405,131.91676654815674,-146.61288757324218,2.5190536181131997,3.7622386614481607,-9.50812061627706,-0.9253743128343062,-7.781395867015376,-0.48604211120894414,0.28871018874148524,2.673286259174347,-1.8407087931409478,-3.147737741470337,-7.499237060546875,5.4103043874104815
6.4,-1.8523438399036725,-3.7737804651260376,-5.728616754213969,0.0,0.0,1.2331219911575315,15.374799537658692,0.02518830560147756,0.0,27.550567496735415,-122.75001688,49.192095439999996,-0.05696431836501381,-0.2599229365587234,-0.6926528712113699,0.6676653325557709,-1.7690441211064656,1.1084782282511394,1.4732287128766377,37.93711967468262,30.624439811706544,-20.350819873809815,0.048747026920318605,3.1937562346458437,1.1773511290550231,-217.6894744873047,125.47943572998047,-153.4772155761719,1.4131872455279033,-10.72870922088623,-6.542612036069234,-0.605882614850998,-3.7527435223261514,-4.03310260673364,0.3044145206610362,2.7228808800379434,1.3443362216154735,-0.8962077548106512,-8.738504886627197,4.2537699937820435
6.5,-0.4064534916119142,-21.91939740018411,3.641495265743949,0.0,0.0,1.2331219911575315,15.632199478149413,0.026013505458831743,0.0,27.550567496735415,-122.75001682,49.19209636,0.07748676355307295,-0.2704064846038818,-0.5499260127544403,0.783033569653829,-0.9594858388106028,1.1262610952059429,0.44860713680585224,18.028549736738206,45.418158531188965,-13.013129782676696,1.4114041365683079,-1.6416876049091418,3.8820613821347556,-237.5980438232422,140.2731575012207,-146.1395278930664,-4.941836913426717,-11.856309175491333,4.647998412450155,-0.9746765090773503,-20.089989150563877,2.9572296937306723,1.3497622717510571,-1.6201118129220875,3.982563712380149,2.4299014806747437,-8.824963410695394,3.425875941912333
6.6,-0.3121251942533437,-11.338313046899257,2.774661326498696,0.0,0.0,1.2331219911575315,15.889599418640136,0.026838705316185922,0.0,27.550567496735415,-122.75001676000001,49.19209728,0.20881149669488266,-0.36917420228322345,-0.4242728998263677,0.7991372446219126,-0.84583048025767,0.9842498997847239,-0.03702897935484844,8.714764860272409,48.13448867797852,-9.343064790964126,0.7965810045910379,-1.8155296758438149,2.0469649235407514,-246.91182899475098,142.98948669433594,-142.4694625854492,-12.022610187530518,17.72216494878133,-1.9863702456156414,-0.5716579788166917,-10.150713789417889,2.2930174894405133,0.7830997374698971,-1.8011338560644425,2.1046482495624907,3.5714900493621826,-8.141908963521322,4.107201178868611
6.7,-0.21779689689477313,-0.7572286936144036,1.9078273872534435,0.0,0.0,1.2331219911575315,16.14699935913086,0.0276639051735401,0.0,27.550567496735415,-122.7500167,49.1920982,0.2227936208248138,-0.41216959357261657,-0.4841694116592407,0.7377901315689087,-1.1190691471099854,1.1158252000808715,0.16050272211432454,-0.59902001619339,50.85081882476807,-5.672999799251556,0.18175787261376777,-1.9893717467784882,0.21186846494674683,-256.2256141662598,145.70581588745117,-138.79939727783204,7.881831932067871,-3.143393707275391,-3.00224027633667,-0.16863944855603305,-0.21143842827190085,1.6288052851503545,0.21643720318873724,-1.9821558992067974,0.226732786744833,1.8383429765701294,-8.783438682556152,3.8982451438903807
6.8,-3.380884158114592,-7.25608534179628,4.496138731638591,0.0,0.0,1.2277737379074094,16.328399658203125,0.02829057797789572,0.0,27.668186549344504,-122.75001668,49.19209902,0.21238665034373597,-0.36269483466943103,-0.504848912358284,0.7489087283611298,-1.0126291314760845,1.1588273445765178,0.15120947880980865,1.4786399915814399,50.86179895401001,-4.2358398558571935,0.8659142103356618,1.01338087618351,-1.5844521164894103,-254.147953414917,145.7167972564697,-137.36223754882815,-9.344809710979462,-5.868731498718262,3.5900587836901345,-3.7013203028702373,-7.50891311511849,4.299399264382593,0.6642714204887549,0.8722264791528385,-1.769511219734947,2.0880070328712463,-8.921910762786865,3.315221150716146
6.9,-6.543971419334412,-13.754941989978155,7.084450076023738,0.0,0.0,1.2224254846572875,16.50979995727539,0.028917250782251342,0.0,27.785805601953594,-122.75001666,49.19209984,-0.012875320389866817,-0.2764139423767726,-0.7094910045464834,0.6411290764808655,-1.9374362031618755,1.134756863117218,1.5520066618919373,3.55629999935627,50.872779083251956,-2.7986799124628305,1.550070548057556,4.016133499145508,-3.3807726979255674,-252.0702926635742,145.72777862548827,-135.92507781982422,-2.4198598861694336,-13.13353451093038,0.13066486517588297,-7.234001157184442,-14.806387801965078,6.969993243614833,1.1121056377887726,3.726608857512474,-3.765755226214727,-1.605334758758545,-8.811248938242594,3.688172976175944
7.0,3.1939285776831885,-13.549412445588546,1.4526609155264767,0.0,0.0,1.2170772314071654,16.691200256347656,0.02954392358660696,0.0,27.903424654562684,-122.75001664,49.19210066,-0.1184134526799122,-0.30695131917794544,-0.775555153687795,0.5364962965250015,-2.2246797482172647,0.8633833924929301,1.9391215840975444,34.58028917312622,35.29337921142578,-13.854929804801941,-1.400039521647462,2.1489857832590737,-2.733481985827287,-221.04630584716796,130.14837837219238,-146.98132858276367,11.747928698857626,3.0179619789123535,-6.314188520113627,1.973779837290446,-13.198361098766327,1.3487543836236,-1.4767944995652547,1.8942515179514885,-2.4513051076368852,-3.820775826772054,-7.43841020266215,5.063432614008586
7.1,1.417702005893895,-16.620049720686495,1.000931773221854,0.0,0.0,1.2117289781570435,16.872600555419922,0.030170596390962583,0.0,28.021043707171774,-122.75001662,49.19210148,-0.10308152660727496,-0.24656278491020203,-0.7179479122161865,0.6397653102874756,-1.872422742843628,1.0522911190986632,1.6623457193374633,27.744019466638562,39.175419092178345,-14.52623473405838,0.170367761059121,0.6852253770921379,0.5267376539607844,-227.88257522583007,134.03041801452636,-147.65263290405272,1.858494234085083,4.6706830024719235,-9.608598995208741,1.1306767879110393,-16.884728575294666,1.0117924128743736,0.12722424496755447,0.6087509488376479,0.6389118103366909,-1.4856425166130065,-8.470413208007812,4.6070136547088625
7.2,-0.35852456589539844,-19.690686995784443,0.5492026309172312,0.0,0.0,1.2063807249069214,17.054000854492188,0.0307972691953182,0.0,28.138662759780864,-122.7500166,49.1921023,0.012894223347151035,-0.22455025712649024,-0.5999719301859537,0.7649392485618591,-1.094281405210495,1.1692967017491658,0.7497449070215225,20.90774976015091,43.05745897293091,-15.197539663314819,1.740775043765704,-0.778535029074798,3.7869572937488556,-234.71884460449218,137.91245765686034,-148.3239372253418,-1.5546875794728596,-25.508960247039795,2.0121131340662637,0.2875737385316327,-20.57109605182301,0.6748304421251472,1.7312429895003636,-0.6767496202761928,3.729128728310267,1.7293936591595411,-9.009406566619873,3.274422287940979
7.3,-2.441277268032233,-7.602321575085323,1.7449409514665604,0.0,0.0,1.2063807249069214,17.417600631713867,0.03141271770000456,0.0,28.138662759780864,-122.75001658,49.1921032,0.1731635803977648,-0.279620202879111,-0.46190033853054047,0.8210860788822174,-0.6295114457607269,1.034006416797638,-0.0496348942009111,8.490894876420498,46.971218538284305,-9.824049735069275,1.1535846506555876,-2.2254368408427885,2.7927944630384447,-247.1356994628906,141.82621707916257,-142.9504482269287,-7.688147783279419,9.863668282826742,0.04980067412058512,-1.677599853659613,-9.570891613310033,1.8922015803329872,1.1109347989161809,-1.970148570059488,2.606892905508478,4.022572954495748,-8.418610095977783,2.9950585762659707
7.4,-4.524029970169067,4.486043845613796,2.9406792720158896,0.0,0.0,1.2063807249069214,17.781200408935547,0.03202816620469092,0.0,28.138662759780864,-122.75001655999999,49.1921041,0.1948636025190353,-0.3817668010791142,-0.4819011092185974,0.7628672818342844,-1.033389796813329,1.083235462506612,0.16582054086029527,-3.9259600073099135,50.88497810363769,-4.450559806823731,0.5663942575454712,-3.6723386526107786,1.7986316323280334,-259.55255432128905,145.73997650146484,-137.57695922851562,1.2226567268371582,6.581606388092041,-2.5181192557017007,-3.642773445850859,1.429312825202942,3.1095727185408273,0.49062660833199817,-3.2635475198427835,1.4846570827066898,2.3465673327445984,-8.644028345743815,3.905450383822123
7.5,-0.7874560301954096,-10.349066508087246,3.5920618880878794,0.0,0.0,1.2063807249069214,18.144800186157223,0.03264361470937728,0.0,28.138662759780864,-122.75001654,49.192105,0.20104482024908063,-0.35444435973962146,-0.49379997452100116,0.7656865417957306,-0.9288401901721954,1.1254683534304302,0.09754366365571814,2.0715599983930586,50.65439853668213,-5.191099846363068,0.4493168386009832,0.8453866392374039,-1.1250483815868695,-253.55503311157227,145.5093978881836,-138.3174964904785,-8.130629380544027,-7.190624872843425,2.9850379625956216,-1.019741396109263,-9.059874713420868,3.9630128515321608,0.48384691368449817,0.8388151689009233,-0.993253003467213,2.476319432258606,-8.835212707519531,3.4242300192515054
7.6,-0.4559662758132837,-12.37737811221318,2.7623324845776414,0.0,0.0,1.2063807249069214,18.508399963378903,0.03325906321406364,0.0,28.138662759780864,-122.75001652,49.1921059,0.02867011204361914,-0.2558178842067718,-0.6702345371246338,0.6914391398429871,-1.6077793836593628,1.227204394340515,1.1964180946350098,16.258939598500728,43.90169906616211,-9.084119802713396,-0.555222126732891,1.36253033104268,-2.7024476116128042,-239.36765441894534,138.75669708251954,-142.21051712036132,-8.242842555046082,-8.264567184448243,3.1034959316253663,1.024064713355267,-11.907662025906824,3.253509198617504,-0.5057374228243575,1.5014789980469327,-2.467029611721183,-0.3315481066703796,-9.194231224060058,3.165950965881348
7.7,-0.12447652143115784,-14.405689716339111,1.932603081067403,0.0,0.0,1.2063807249069214,18.871999740600582,0.03387451171875,0.0,28.138662759780864,-122.7500165,49.1921068,-0.10000457180043056,-0.29833960533142084,-0.7792359391848246,0.5375408927599589,-2.256639281908671,0.894750157992045,1.9584684173266094,30.4463191986084,37.14899959564209,-12.977139759063721,-1.5597610920667648,1.8796740228479558,-4.279846841638738,-225.18027572631837,132.00399627685547,-146.10353775024413,16.598090410232544,-4.870365937550862,-5.389140963554382,3.0678708228197964,-14.755449338392777,2.5440055457028476,-1.495321759333213,2.164142827192942,-3.9408062199751535,-3.8701374530792236,-7.603425741195679,4.709970633188884
7.8,-0.01635586878595245,-7.0297241568565365,-2.613241477807363,0.0,0.0,1.2085058450698853,19.07419967651367,0.0342035301029682,0.0,28.131178849304312,-122.75001648,49.192107299999996,-0.20068548868099845,-0.24752195427815116,-0.740441252787908,0.5907085140546163,-1.923806369304657,0.8879720369974772,1.8534440000851948,31.314349269866945,33.897699642181394,-19.858549547195437,-0.35023866345485044,1.5404193726452915,-1.2716930084156268,-224.31224479675294,128.75269660949706,-152.984948348999,0.9408155282338457,6.917664051055908,-12.932875315348307,0.939069718940917,-7.713218313274961,-2.2561643159750737,-0.1727450473854939,1.4894574483235676,-1.1009433140357334,-2.153348465760549,-7.572906255722046,5.8118274211883545
7.9,0.09176478385925294,0.3462414026260377,-7.159086036682129,0.0,0.0,1.210630965232849,19.276399612426754,0.0345325484871864,0.0,28.12369493882776,-122.75001646,49.192107799999995,-0.07621097688873604,-0.22583672404289243,-0.6647568941116333,0.7045328716437022,-1.5163065989812214,1.1192559401194255,1.2988624076048534,32.18237934112549,30.646399688720702,-26.73995933532715,0.8592837651570638,1.201164722442627,1.7364608248074849,-223.4442138671875,125.50139694213867,-159.8663589477539,-0.24575388431549103,-23.641259511311848,0.9377754131952925,-1.1897313849379623,-0.6709872881571451,-7.056334177652995,1.1498316645622253,0.8147720694541931,1.7389195919036866,0.09274297455946608,-8.796648184458414,4.158929189046224
8.0,-2.868346323569616,-20.72368852297465,4.569443762302399,0.0,0.0,1.212756085395813,19.478599548339844,0.034861566871404605,0.0,28.116211028351206,-122.75001644000001,49.1921083,0.06502591464668513,-0.24498961865901941,-0.5287730932235718,0.8072416305541992,-0.8169677019119262,1.0903549909591674,0.3604147613048553,13.599949726462365,45.656669235229494,-14.910229635238647,1.415972923549513,-2.241086439539989,4.027294556299846,-242.02664489746093,140.51166534423828,-148.03662796020507,-9.02394437789917,-2.4229648590087893,2.794706106185913,-2.7636556408622046,-22.761997439644553,5.6037186059084805,1.4682273616393406,-2.181692451238632,4.029610753059387,3.0773515701293945,-8.693299293518066,3.2750596523284914
8.1,-1.8853449175755186,-12.532433484991392,4.273581199968855,0.0,0.0,1.2148812055587768,19.68079948425293,0.035190585255622804,0.0,28.108727117874654,-122.75001642000001,49.1921088,0.17168258378903067,-0.3407190889120102,-0.4452027330795924,0.809300551811854,-0.8273478746414185,0.9933543602625529,0.05196597254447016,7.1089398339390755,48.005779170989996,-11.214849734306334,0.8253281188804206,-1.7424803944586804,1.7303515722354255,-248.51765518188478,142.86077690124512,-144.34124679565429,-11.469113032023111,20.496812025705974,-2.3793110052744546,-0.15690208757013968,-12.88426468679399,4.188574798292283,0.8675431950638691,-1.4478778739770253,1.677264144488921,3.5860885779062905,-8.224531014760336,3.9160937865575156
8.2,-0.9023435115814212,-4.341178447008133,3.9777186376353106,0.0,0.0,1.2170063257217407,19.882999420166016,0.035519603639841,0.0,28.101243207398102,-122.7500164,49.1921093,0.18556289374828336,-0.38729581733544666,-0.49690381189187366,0.7534697353839874,-1.0981268088022869,1.1044025619824727,0.23878355572621024,0.6179299414157867,50.35488910675049,-7.519469833374023,0.23468331421132796,-1.243874349377372,-0.5665914118289948,-255.0086654663086,145.20988845825195,-140.6458656311035,10.771779497464498,-9.487547159194946,-0.04845909277598063,2.4498514657219252,-3.00653193394343,2.773430990676085,0.2668590284883976,-0.7140632967154185,-0.6750824640815457,1.965344210465749,-8.766307512919107,3.929111361503601
8.3,-4.161602258682251,-5.886642837524414,5.681941734875242,0.0,0.0,1.2227914844240462,20.213571003505162,0.04903203781161982,0.5741171836853027,28.040003783346563,-122.75001638571429,49.19211098571429,0.07930690174301465,-0.26341031491756434,-0.6206488509972891,0.7260214487711588,-1.3214245637257893,1.237191100915273,0.8227103998263677,7.35934479534626,49.234624195098874,-6.950034880638123,0.016917959723452308,2.2625812499812152,-2.8161593625942865,-248.26725006103516,144.08962364196776,-140.07643089294433,-10.639839172363281,-3.0987046559651694,6.811446885267894,-3.719792409489552,-7.6850734154383336,6.2791404860715065,0.05421557016670703,2.2278140852848693,-3.0353817319187026,0.7276014784971873,-9.249164740244547,2.9086894591649375
8.4,-7.420861005783081,-7.432107228040695,7.386164832115173,0.0,0.0,1.2285766431263514,20.54414258684431,0.06254447198339863,1.1482343673706055,27.978764359295027,-122.75001637142857,49.19211267142857,-0.10061912673215069,-0.2585517490903536,-0.7698363562424978,0.5675440927346548,-2.1637577414512634,0.9657672842343649,1.9282301863034566,14.100759649276734,48.114359283447264,-6.380599927902222,-0.20084739476442337,5.769036849339803,-5.065727313359578,-241.5258346557617,142.9693588256836,-139.50699615478516,7.885826230049134,-12.453372875849405,-2.187440236409505,-9.889436284701029,-12.363614896933237,9.784849981466929,-0.15842788815498351,5.169691467285157,-5.395680999755859,-3.223381996154785,-7.984829028447469,4.382049838701884
8.5,2.0955643566946187,-11.73210921883583,-0.4002494166294734,0.0,0.0,1.2343618018286568,20.874714170183456,0.07605690615517745,1.7223515510559082,27.917524935243488,-122.75001635714285,49.192114357142856,-0.22926721572875972,-0.23973679542541496,-0.7700429558753967,0.543662941455841,-2.0273303031921386,0.8139756798744202,2.011302423477173,35.288499641418454,30.53293933868408,-22.073459720611574,-0.7495952807366848,1.458046317100525,-1.4177545855442684,-220.33809509277344,125.38793830871582,-155.19985809326172,0.6736083507537842,6.016835498809814,-10.89592752456665,1.5109041279012507,-11.654514437372034,-0.9484822275963697,-0.8637380053599676,1.5810846959551175,-1.5657240251700084,-2.9947159767150877,-7.096285152435303,6.03336534500122
8.6,0.40093152874121163,-17.406175958839327,1.9021059760090073,0.0,0.0,1.2401469605309623,21.2052857535226,0.08956934032695626,2.296468734741211,27.85628551119195,-122.75001634285715,49.192116042857144,-0.16845914473136267,-0.20563670744498566,-0.718226412932078,0.639013002316157,-1.7845831712086995,1.0181502103805542,1.7309420506159465,27.123344710469244,36.21783447265625,-21.00138468742371,0.4719101859425958,-0.24803498793732048,1.4030782307187717,-228.50324935913085,131.0728328704834,-154.12778244018557,-0.14012426137924164,-9.388221263885498,-8.984806458155314,-0.3617219504984941,-16.558518332965445,1.3487407454487053,0.43015210082133615,-0.14570581800106797,1.2824386579520775,-1.2004245445132256,-8.291953484217325,5.004238843917847
8.7,-1.2937012992121957,-23.080242698842827,4.204461368647488,0.0,0.0,1.2459321192332677,21.535857336861746,0.10308177449873508,2.8705859184265137,27.79504608714041,-122.75001632857143,49.19211772857143,-0.005946178610126182,-0.2265760898590088,-0.5826941629250845,0.7766962150732676,-1.0557938416798909,1.1232081254323323,0.7336611896753311,18.958189779520033,41.90272960662842,-19.92930965423584,1.6934156526218762,-1.9541162929751656,4.2239110469818115,-236.66840362548828,136.757727432251,-153.0557067871094,-5.205897927284241,-16.366478045781452,7.555575092633565,-2.234348028898239,-21.462522228558857,3.6459637184937796,1.7240422070026398,-1.8724963319572536,4.130601341074163,2.032147854566574,-8.846900463104248,3.5874930222829184
8.8,-5.191419069062579,-6.444306465712462,3.1953518068925897,0.0,0.0,1.251717277935573,21.866428920200892,0.1165942086705139,3.4447031021118164,27.733806663088874,-122.75001631428572,49.19211941428571,0.1241588791211446,-0.32156997919082636,-0.43819985290368396,0.8287873069445292,-0.8064808150132498,0.9408206641674042,0.12945563097794846,6.68468492925167,45.82106409072876,-15.869454669952393,0.7195587665632819,-2.3426601430683425,2.729705731074015,-248.94191055297853,140.67606220245364,-148.99585113525393,-12.945015748341879,19.376939296722412,-2.2687546809514365,-5.624155188600223,-5.0307101408640555,2.7985057619710765,0.750283674026529,-2.297141385688023,2.867697618675954,3.908251722653707,-7.9600919882456465,4.155088980992635
8.9,-9.089136838912964,10.191629767417908,2.1862422451376915,0.0,0.0,1.2575024366378784,22.19700050354004,0.1301066428422927,4.018820285797119,27.672567239037335,-122.7500163,49.1921211,0.12088768432537711,-0.3699290305376053,-0.504839246471723,0.7697839339574178,-1.124562680721283,1.0498723189036052,0.38925767938296,-5.588819921016693,49.7393985748291,-11.809599685668946,-0.2542981194953124,-2.7312039931615195,1.235500415166219,-261.2154174804688,144.59439697265626,-144.93599548339844,5.948649863402049,-3.5525816281636557,-1.4099418719609578,-9.013962348302206,11.40110194683075,1.951047805448373,-0.22347485894958177,-2.7217864394187927,1.6047938962777455,2.0378252069155374,-8.529086748758951,4.377532998720805
9.0,-1.2927224518110354,-11.955539191762606,3.946761578321457,0.0,0.0,1.2575024366378784,22.21940040588379,0.1584460258483886,3.5214443683624266,27.672567239037335,-122.75001725999999,49.19212632,0.13331996649503702,-0.33550426959991453,-0.543456780910492,0.7554612040519715,-1.1263344764709473,1.1511191844940185,0.43286903500556945,6.2909298777580265,49.879088973999025,-9.947269773483276,0.8381198272109032,0.9728537698586782,-2.1120920727650323,-249.33566513061524,144.7340881347656,-143.07366561889648,-9.789192295074463,-5.710930633544922,1.5194989204406746,0.6851087266748602,-13.270757674493574,3.9867688424207945,0.8951085035999616,0.8306621660788854,-2.066378933688005,1.6624988913536072,-8.952094650268554,3.5479137897491455
9.1,0.29075500687979394,-12.833614315724734,3.0532507977702403,0.0,0.0,1.2575024366378784,22.24180030822754,0.18678540885448452,3.0240684509277345,27.672567239037335,-122.75001822,49.19213154,-0.07970065064728256,-0.22707084814707434,-0.7124961018562317,0.6521243552366892,-1.8235683639844258,1.1130540768305461,1.6092283725738525,19.372989553213124,41.95976400375366,-15.058764708042144,-0.43541561846028687,1.4738072432351834,-2.4472430513212173,-236.25360565185548,136.81476287841798,-148.1851619720459,-7.50918443997701,-10.45124101638794,3.8486146926879883,0.6665574985020084,-13.056269128778666,2.9894217529305904,-0.4362775120093966,1.494480104383194,-2.5065200892135953,-1.298367081830899,-8.741796175638834,4.070025404294332
9.2,1.8742324655706233,-13.711689439686863,2.1597400172190233,0.0,0.0,1.2575024366378784,22.26420021057129,0.21512479186058042,2.526692533493042,27.672567239037335,-122.75001918,49.192136760000004,-0.17755854005614913,-0.2666580329338709,-0.7889155646165212,0.5213545908530554,-2.182704528172811,0.8166470229625702,2.047261039415995,32.455049228668216,34.0404390335083,-20.170259642601014,-1.7089510641314767,1.9747607166116887,-2.7823940298774024,-223.1715461730957,128.89543762207032,-153.29665832519532,13.93890392780304,0.6440530220667522,-9.525189399719238,0.6480062703291566,-12.84178058306376,1.9920746634403865,-1.767663527618755,2.1582980426875027,-2.9466612447391856,-3.8809434175491333,-7.103086630503337,5.461271683375041
9.3,1.4248033945984913,-7.90200671914852,-1.381546915141922,0.0,0.0,1.2575024366378784,22.28660011291504,0.24346417486667632,2.02931661605835,27.672567239037335,-122.75002014,49.19214198,-0.19103000064690903,-0.2283596868316332,-0.745523065328598,0.594771534204483,-1.9379080335299175,0.9282161494096121,1.8826153079668682,32.24612441062928,32.63682909011841,-23.526479423046112,-0.16219976950775483,0.7772299773765332,-0.4032624752232521,-223.38046989440917,127.49182777404786,-156.65287704467772,2.7709641257921853,4.369632879892985,-9.914796113967896,0.6166254182656601,-8.144121433297792,-1.1904542464762928,-0.2113582089994892,0.9160989062352614,-0.49898783907745825,-2.208521068096161,-7.800349950790405,5.477099577585856
9.4,0.9753743236263593,-2.0923239986101785,-4.922833847502868,0.0,0.0,1.2575024366378784,22.30900001525879,0.2718035578727722,1.5319406986236572,27.672567239037335,-122.7500211,49.1921472,-0.0746219880878925,-0.209665036201477,-0.6640424251556396,0.7111931800842285,-1.4852752447128297,1.1447593450546265,1.2896230101585389,32.03719959259033,31.233219146728516,-26.88269920349121,1.3845515251159668,-0.42030076185862225,1.975869079430898,-223.58939361572266,126.0882179260254,-160.00909576416015,-3.4369696617126464,-32.303907012939455,7.976434183120728,0.5852445662021637,-3.4464622835318246,-4.372983156392972,1.3449471096197765,-0.32610023021698,1.9486855665842693,0.17500349879264832,-8.923873710632325,3.916265344619751
9.5,-3.421736349662145,-17.613567287723225,6.587689993282159,0.0,0.0,1.2575024366378784,22.360833485921223,0.314907431602478,1.3566109637419383,27.672567239037335,-122.75002226666666,49.192154450000004,0.08230773018052175,-0.25848867247502005,-0.5155013004938761,0.8087938725948334,-0.8154328167438507,1.0776225328445435,0.31027967606981594,10.09122989103198,47.110908889770506,-14.42161979675293,1.1179389438845895,-2.256272397258065,4.207500977949663,-245.5353645324707,141.9659080505371,-147.5480163574219,-8.06927259763082,7.07321826616923,-0.35186155637105304,-4.170363729650324,-19.614891439676285,7.08096035908569,1.0509427338838577,-2.1971041342864432,3.984508534272512,3.1001078486442566,-8.648500601450602,3.304397702217102
9.6,-1.9738339081858145,-13.139913559185736,5.48461010267563,0.0,0.0,1.2575024366378784,22.41266695658366,0.35801130533218384,1.1812812288602192,27.672567239037335,-122.75002343333333,49.1921617,0.13804311553637183,-0.3545938978592555,-0.48059074580669403,0.7877780497074127,-1.007776568333308,1.025743991136551,0.2670617016653219,6.032594928145409,48.71124401092529,-12.014254760742187,0.9409066026070805,-1.097580254981012,1.631398945369504,-249.59400024414063,143.56624221801758,-145.14065170288086,2.853037416934967,12.39600658416748,-3.4858282009760537,-2.23463367693352,-13.505602851510048,6.003591937774962,0.9069011875174262,-1.1465882672222725,1.478752601665981,2.676805396874746,-8.407178401947021,4.125202775001526
9.7,-0.5259314667094838,-8.666259830648249,4.3815302120691,0.0,0.0,1.2575024366378784,22.464500427246094,0.40111517906188965,1.0059514939785004,27.672567239037335,-122.7500246,49.192168949999996,0.15128002688288686,-0.34715991218884784,-0.5136841088533401,0.768473227818807,-1.026397297779719,1.1120006442070007,0.28444552918275195,1.9739599652588367,50.31157913208008,-9.606889724731445,0.7638742613295714,0.061111887296040855,-0.9447030872106552,-253.65263595581055,145.16657638549805,-142.73328704833983,-8.308361967404684,-9.920684814453125,5.415445884068807,-0.2989036242167156,-7.396314263343811,4.926223516464233,0.7628596411509947,-0.09607240015810187,-1.02700333094055,2.1351091861724854,-8.829281171162924,3.66819965839386
9.8,-6.114065244342341,-10.972614579128496,6.33438607389954,0.0,0.0,1.2575024366378784,22.516333897908527,0.44421905279159546,0.8306217590967814,27.672567239037335,-122.75002576666667,49.1921762,-0.005020064612229667,-0.22635560482740394,-0.6900774637858073,0.6777979731559753,-1.6839811404546101,1.2117192546526592,1.3645209769407909,10.664629719033838,48.2052490234375,-9.67185468673706,-0.2603749427944423,2.253227273623149,-3.3392567162712417,-244.9619655609131,143.06024742126465,-142.79825286865236,-11.096786548693975,-5.331359386444092,3.882387121518453,-6.050999894738198,-10.941978911558788,6.018247981866201,-0.14945027299902658,2.373013663021001,-3.3900024706892893,-0.729111467798551,-9.140538533528646,3.163171728452047
9.9,-11.702199021975199,-13.278969327608744,8.28724193572998,0.0,0.0,1.2575024366378784,22.568167368570965,0.48732292652130127,0.6552920242150624,27.672567239037335,-122.75002693333333,49.19218345,-0.14181142598390575,-0.2393766045570373,-0.8162997245788575,0.5023995697498321,-2.32554931640625,0.854074227809906,2.178009510040283,19.355299472808838,46.09891891479492,-9.736819648742676,-1.2846241469184558,4.445342659950256,-5.733810345331828,-236.27129516601562,140.95391845703125,-142.86321868896485,20.559827041625976,-6.9456642150878904,-5.881097793579102,-11.80309616525968,-14.487643559773764,7.110272447268168,-1.0617601871490479,4.842099726200104,-5.753001610438029,-4.513389015197754,-7.308188343048096,4.60992317199707
10.0,3.74631275733312,-8.23011331136028,-3.934498322506746,0.0,0.0,1.2575024366378784,22.6200008392334,0.5304268002510071,0.4799622893333435,27.672567239037335,-122.7500281,49.1921907,-0.2530511990189552,-0.20289713889360425,-0.7825137674808502,0.5307314395904541,-2.0363377730051675,0.8153311808904012,2.112606644630432,37.10629940032959,27.61652946472168,-24.853229665756224,-0.4327286021275954,0.8736205967989835,-1.1226315051317215,-218.5202964782715,122.47152748107911,-157.9796257019043,1.566289981206258,6.125269651412964,-11.96044635772705,6.465624603358182,-7.0147226696664635,-3.76140842248093,-0.26362652083237964,0.808454712231954,-0.9112200691985587,-3.126479903856913,-7.078517993291219,6.005201578140259
10.1,-0.2312223933862918,-15.701865247168548,1.4636779108056515,0.0,0.0,1.2433064937591554,22.644400787353515,0.5932981252670289,0.444515198469162,27.27805356234803,-122.75002961999999,49.19219954,-0.15047875419259066,-0.16610943029324213,-0.7290638188521067,0.6423559884230295,-1.816537876923879,1.0936289032300313,1.7946396470069885,27.367344515025614,35.700554275512694,-21.662624573707582,0.5935412006396237,-0.5452892023957138,1.6203449442982674,-228.25925064086914,130.5555519104004,-154.78902168273925,0.04244748751322428,-19.45095721880595,-1.2742486794789631,1.2765053474541865,-14.152281525008608,1.041455773467367,0.6636582384958412,-0.6586712316581697,1.7503076651712148,-1.3042324011524518,-8.65005930264791,4.2893967628479
10.2,-4.208757544105703,-23.17361718297682,6.861854144118049,0.0,0.0,1.229110550880432,22.66880073547363,0.6561694502830505,0.40906810760498047,26.883539885658728,-122.75003113999999,49.19220838,0.010519458446651683,-0.20828912655512488,-0.5732830415169398,0.7881293197472891,-0.9314795732498169,1.1373573541641235,0.6122469007968903,17.628389629721642,43.78457908630371,-18.472019481658936,1.6198110034068425,-1.964199001590411,4.363321393728256,-237.9982048034668,138.63957633972169,-151.59841766357422,-8.937235514322916,-5.515667041142781,5.3985713720321655,-3.9126139084498086,-21.28984038035075,5.844319969415665,1.590942997824062,-2.125797175548293,4.411835399540988,2.3281896313031516,-8.93150552113851,3.145493467648824
10.3,-6.205028794480093,-5.373346079790004,3.281375645688086,0.0,0.0,1.214914608001709,22.69320068359375,0.7190407752990723,0.37362101674079895,26.489026208969428,-122.75003266,49.19221722,0.12387204021215434,-0.31520867347717285,-0.45347819924354554,0.8238915205001831,-0.8086846232414245,0.9714607477188111,0.1465000495314598,6.248534874618054,47.112129020690915,-15.37077956199646,0.8030587198833624,-2.4051737263798714,2.085563932855924,-249.37806205749513,141.96712551116946,-148.49717712402344,-11.115718555450439,21.982203674316406,-3.5622371196746827,-5.65124382575353,-3.7504206021626807,3.139607772231102,0.7553707366019036,-2.5371073500225036,2.2710130449497337,3.7030433177948,-8.177459526062012,3.9324191570281983
10.4,-8.201300044854483,12.42692502339681,-0.29910285274187726,0.0,0.0,1.2007186651229858,22.717600631713868,0.781912100315094,0.33817392587661743,26.094512532280124,-122.75003418,49.19222606,0.14065390825271604,-0.3583899835745494,-0.5123580495516459,0.7668081521987915,-1.0831609268983204,1.091658850510915,0.3390410269300143,-5.131319880485535,50.43967895507812,-12.269539642333985,-0.013693563640117645,-2.846148451169332,-0.1921935280164083,-260.75791931152344,145.2946746826172,-145.39593658447265,6.11928113301595,-3.5737274487813315,0.23330851395924887,-7.389873743057251,13.78899917602539,0.4348955750465393,-0.08020152462025483,-2.948417524496714,0.13019069035847983,2.002985874811808,-8.75918706258138,3.9041733741760254
10.5,-1.021137148141861,-14.418007070367986,5.974660727110776,0.0,0.0,1.1865227222442627,22.742000579833984,0.8447834253311157,0.3027268350124359,25.69999885559082,-122.7500357,49.1922349,0.1267413112024466,-0.3080692539612452,-0.5656459132830302,0.7479077875614166,-1.1914259791374207,1.1871618628501892,0.5507772217194239,5.401549914479256,50.32926921844482,-9.578219866752624,0.8876843750476837,1.1482183716513894,-2.0108850598335266,-250.22504653930665,145.18426742553712,-142.70461730957032,-8.915372053782145,-5.061869780222575,3.173156420389811,0.3203888237476349,-13.2584308385849,5.272883832454681,0.9248777573758905,0.9971958805214275,-1.9444951685992153,1.3882796913385391,-9.0905868212382,3.1057027180989585
10.6,0.5633352547883987,-13.161997367712583,3.633043516540166,0.0,0.0,1.1865227222442627,22.780400466918945,0.8643458604812622,0.31725371479988096,25.69999885559082,-122.75003622,49.1922379,-0.06284465873613952,-0.22671540578206376,-0.7583460509777069,0.6015941699345907,-2.137440264225006,1.0867424209912617,1.8973864714304607,19.62674946933985,42.00612440109253,-14.254479742050172,-0.061267012264579535,1.7855122220053365,-2.1293327671786146,-235.9998462677002,136.86112270355227,-147.38087730407716,5.159917712211609,-13.189231395721436,1.2549513181050618,0.897059261798859,-12.446266969045002,3.1868409824868045,-0.040201413981390766,1.7205829692397718,-2.211196819828315,-2.6910932064056396,-8.590446472167969,3.5590015649795532
10.7,2.1478076577186584,-11.905987665057182,1.2914263059695563,0.0,0.0,1.1865227222442627,22.818800354003905,0.8839082956314086,0.331780594587326,25.69999885559082,-122.75003674,49.1922409,-0.2004065737128257,-0.18976654360691703,-0.8035345474878947,0.5254920125007629,-2.182505170504252,0.8766881922880808,2.1985872189203897,33.85194902420044,33.682979583740234,-18.93073961734772,-1.0102183995768428,2.422806072359284,-2.247780474523703,-221.77464599609374,128.5379779815674,-152.057137298584,4.156820893287659,6.011292378107707,-7.842895785967509,1.473729699850083,-11.634103099505106,1.1007981325189273,-1.005280585338672,2.4439700579581163,-2.477898471057415,-3.7237898111343384,-7.468329509099324,5.1011122067769366
10.8,0.9040632794300716,-9.9359468643864,-0.6907281372696161,0.0,0.0,1.1865227222442627,22.85720024108887,0.9034707307815552,0.3463074743747711,25.69999885559082,-122.75003726,49.1922439,-0.20885929763317104,-0.18414989113807675,-0.7490162968635559,0.6003326535224914,-1.9087200880050659,0.9653319716453552,1.9454300165176392,31.54096426963806,33.695179557800294,-22.917699730396272,0.07890342284614826,1.2618630495853722,0.05005275582273816,-224.08563156127929,128.550177192688,-156.04409675598146,1.5744807600975037,0.6957867622375489,-7.811448192596435,0.5204938560724262,-9.484411116441091,-0.6988936262826126,0.012459098671873337,1.2887602373181533,-0.08611924077073763,-2.030024218559265,-8.014760780334473,5.248149108886719
10.9,-0.33968109885851544,-7.965906063715617,-2.6728825805087886,0.0,0.0,1.1865227222442627,22.89560012817383,0.9230331659317016,0.36083435416221615,25.69999885559082,-122.75003778,49.1922469,-0.09229595152040317,-0.17275689045588172,-0.6533424655596415,0.7272560397783915,-1.3475319147109985,1.1590335567792256,1.23123703400294,29.229979515075684,33.707379531860354,-26.904659843444826,1.1680252452691395,0.10092002681146067,2.3478859861691794,-226.39661712646483,128.5623764038086,-160.03105621337892,-1.7594187259674072,-24.38127072652181,7.101176778475444,-0.4327419877052307,-7.334719133377075,-2.4985853850841524,1.0301987826824188,0.13355041667819023,2.30565998951594,0.6432967682679495,-8.999208768208822,3.6907445987065635
11.0,-2.3797708448361266,-17.033688696947966,6.6423124535517255,0.0,0.0,1.1865227222442627,22.93400001525879,0.942595601081848,0.3753612339496612,25.69999885559082,-122.7500383,49.1922499,0.07383959538613753,-0.23339020709196726,-0.49900790055592853,0.8278887867927551,-0.6870439251263937,1.0460366507371266,0.23074299966295556,7.3071898996829985,47.972839736938475,-14.370379781723022,1.2036960809068247,-2.786697791381316,3.977301911874251,-248.31940536499025,142.8278366088867,-147.49677658081055,-8.084323048591614,9.377130270004272,-1.6367192268371582,-2.7617660065491996,-16.29517187178135,6.167500279843807,1.3062520081346685,-2.738883712413636,4.040207169272683,3.631310065587362,-8.55550241470337,3.0503713289896646
11.1,-2.0080563076630686,-13.058621124787765,5.695584017529406,0.0,0.0,1.1937320431073506,22.91950003306071,0.9428664247194924,0.3617003013690312,25.69999885559082,-122.75003960000001,49.192252966666665,0.11822970832387598,-0.3453752100467682,-0.4854254126548767,0.7924437820911407,-1.0046320656935375,1.0172208448251088,0.30871643622716266,4.658569912612438,49.097069549560544,-12.662989830970764,0.8243047980535211,-1.2786207690157674,1.4933601375845629,-250.96802444458007,143.9520664215088,-145.78938751220704,-1.5487861434618633,11.04861561457316,-3.7181344032287598,-1.3024364958206813,-13.44505047459494,5.706582904200662,0.8524971566247669,-1.2644493799148635,1.5451876691570785,2.673343241214752,-8.409339745839437,4.145445068677266
11.2,-1.6363417704900105,-9.083553552627563,4.748855581507087,0.0,0.0,1.2009413639704385,22.90500005086263,0.943137248357137,0.34803936878840125,25.69999885559082,-122.7500409,49.19225603333334,0.10767964869737623,-0.31364520788192746,-0.5329486846923828,0.777684211730957,-1.0147882223129272,1.1132751941680907,0.3925420522689819,2.0099499255418776,50.22129936218262,-10.955599880218506,0.44491351520021755,0.22945625334978104,-0.9905816367051253,-253.61664352416992,145.07629623413087,-144.0819984436035,-3.1977720260620104,-17.573993301391603,7.304922294616699,0.15689301490783691,-10.59492907740853,5.2456655285575176,0.3987423051148653,0.20998495258390903,-0.9498318309585253,2.1433063745498657,-8.867341232299804,3.5803995609283445
