time,TotalAcceleration_z,TotalAcceleration_y,TotalAcceleration_x,Location_bearingAccuracy,Location_speedAccuracy,Location_verticalAccuracy,Location_horizontalAccuracy,Location_speed,Location_bearing,Location_altitude,Location_longitude,Location_latitude,Orientation_qz,Orientation_qy,Orientation_qx,Orientation_qw,Orientation_roll,Orientation_pitch,Orientation_yaw,Magnetometer_z,Magnetometer_y,Magnetometer_x,GyroscopeUncalibrated_z,GyroscopeUncalibrated_y,GyroscopeUncalibrated_x,MagnetometerUncalibrated_z,MagnetometerUncalibrated_y,MagnetometerUncalibrated_x,Accelerometer_z,Accelerometer_y,Accelerometer_x,AccelerometerUncalibrated_z,AccelerometerUncalibrated_y,AccelerometerUncalibrated_x,Gyroscope_z,Gyroscope_y,Gyroscope_x,Gravity_z,Gravity_y,Gravity_x
3.1,-5.7122658888498945,-25.039692401885986,3.0149565239747367,94.57627118644068,0.5018428139767405,6.947091979495551,44.85982940156581,1.0703986721523737,103.73704735707429,43.400001525878906,-122.75345047457627,49.18758053050848,0.7820055981477102,-0.5882792671521505,-0.17254805564880368,0.10797958821058268,0.507877824207147,1.2773671547571819,0.9431335926055908,-19.37969970703125,46.85653915405273,7.8616798400878904,-1.6092481315135956,0.927166166404883,-0.2461277941862742,-273.9204986572266,142.3215362548828,-125.35011749267578,-8.171704610188803,-15.665005366007486,4.443352123101552,-5.706283807754517,-25.057040532430012,3.0777681271235147,-1.6082554658253987,0.9225337862347563,-0.2484185372789701,2.4595746199289956,-9.374530474344889,-1.428271492322286
3.2,3.7016423398798164,-11.408652218905361,-3.3597405783154746,97.62711864406779,0.5049125441050125,6.816719006683868,44.915549714686506,1.086307280144449,104.8673333636785,43.400001525878906,-122.75344700762712,49.187577600847455,0.6869348666884683,-0.7002495418895375,-0.00784668152813209,0.1706313931129195,-1.3651586017063395,1.302239558913491,-1.5201769525354558,-7.845209842547774,47.90207862854004,-12.172549667954446,-1.935119276245435,-0.5109124630689621,-1.205720749994119,-262.3860038757324,143.3670753479004,-145.38434524536132,3.543635693463412,-1.9805578751997515,-5.559654235839844,3.707624175331809,-11.425999944860285,-3.2969289096918972,-1.934152066707611,-0.5155957266688347,-1.2080242224037647,0.15814256447960032,-9.427937420931729,2.2000378769907085
3.3,1.383173875736468,-6.45602135868235,-3.0564910785266846,100.6779661016949,0.5079822742332847,6.6863460338721845,44.9712700278072,1.1022158881365243,105.9976193702827,43.400001525878906,-122.75344354067796,49.18757467118644,0.6914588998664509,-0.6902982637737737,0.025154901915370932,0.1959804392447977,-1.3806849738484193,1.2367528785358775,-1.514768960801038,-8.938024833612143,46.68512878417969,-16.811294479668142,-0.7573838162546356,-0.7615835517644882,0.01724420115351677,-263.47882041931155,142.1501262664795,-150.023091506958,0.9528511600060896,2.781075260855935,-6.017427961031595,1.3891558439442604,-6.473369225464536,-2.9936794277393455,-0.7564166088898976,-0.766254103432099,0.01492164097726345,0.43045869856282615,-9.236939943198001,2.961061080409722
3.4,-0.9352945884068807,-1.5033904984593391,-2.7532415787378945,103.72881355932203,0.5110520043615567,6.555973061060502,45.0269903409279,1.1181244961285994,107.12790537688691,43.400001525878906,-122.75344007372881,49.187571741525424,0.6959829330444336,-0.6803469856580099,0.058156485358873945,0.22132948537667588,-1.3962113459904988,1.1712661981582642,-1.5093609690666199,-10.030839824676514,45.46817893981934,-21.450039291381835,0.4203516437361638,-1.0122546404600143,1.2402091523011525,-264.57163696289064,140.93317718505858,-154.66183776855468,-1.637933373451233,7.542708396911621,-6.475201686223348,-0.9293124874432882,-1.520738506068786,-2.690429945786794,0.42131884892781574,-1.0169124801953633,1.2378675043582916,0.702774832646052,-9.045942465464273,3.7220842838287354
3.5,0.6368897358576454,-30.476185480753582,-1.9939192558328311,106.77966101694915,0.5141217344898289,6.425600088248819,45.0827106540486,1.1340331041206748,108.25819138349112,43.400001525878906,-122.75343660677966,49.18756881186441,0.758682539065679,-0.6147717833518982,-0.07399889081716539,0.1059186036388079,-0.13381155331929526,1.2508172591527302,-0.6515111525853475,-16.22721948623657,46.64547882080078,-5.380200077593327,6.7619422435760494,6.926723122596741,2.214997386932373,-270.7680145263672,142.1104766845703,-138.59199752807618,-1.1223750114440918,-21.192914326985676,-2.122612198193868,0.6428717374801636,-30.493533929189045,-1.931107610464096,6.7629807472229,6.9221111536026,2.2127066612243653,1.759400725364685,-9.283114433288574,0.12881721059481302
3.6,-1.1060823003451032,-6.536892294883728,3.2361929217974343,109.83050847457626,0.517191464618101,6.295227115437137,45.13843096716929,1.14994171211275,109.38847739009535,43.400001525878906,-122.7534331398305,49.18756588220339,0.7009351352850596,-0.5937439997990926,-0.37515761454900104,0.08437384540836011,1.5408648451169331,1.121417760848999,2.2835589249928794,-6.07193987891078,43.98343963623047,24.68059959411621,-0.4144720807671547,-1.0711522499720256,-1.1822278102238972,-260.6127365112305,139.4484390258789,-108.53119812011718,-1.1286146988471348,2.2770426273345947,7.400944153467814,-1.100100214282672,-6.5542402267456055,3.2990044951438904,-0.41353031744559604,-1.0758100748062134,-1.184518575668335,0.02266850198308627,-8.813778559366861,-4.164627194404602
3.7,-0.11414851925589825,-0.8926315578547391,2.3833057338541206,112.88135593220339,0.520261194746373,6.164854142625454,45.19415128028999,1.1658503201048254,110.51876339669955,43.400001525878906,-122.75342967288135,49.18756295254237,0.8170038949359547,-0.5651892748746005,0.02344628707082431,0.04592504284598606,-0.20278708365830508,1.1711718819358132,-1.1931283690712668,-23.494759607315064,44.35553894042969,-3.634989920258522,-1.631964695950349,-2.5308019891381264,0.7906250817080339,-278.03555450439455,139.8205352783203,-136.84678840637207,-3.454299731688066,8.133989984338934,1.4947233416817405,-0.10816646164113823,-0.9099796143445101,2.446117336099798,-1.631010207037131,-2.5354598263899484,0.7883088756352663,3.340287273580378,-9.026465155861594,0.888706562193957
3.8,-4.016797016967427,-13.981964999076093,2.7797891822728245,115.9322033898305,0.5233309248746452,6.034481169813771,45.24987159341069,1.1817589280969005,111.64904940330376,43.400001525878906,-122.7534262059322,49.18756002288136,0.8100628103270675,-0.5781326804197195,-0.002146227807371011,0.04588756598814414,-0.11114873912072543,1.2179179480581572,-1.581433982560129,-22.759099698066713,45.05093898773194,-2.332334949448705,-0.34637967968980465,-0.07963520362973231,-0.599680055057009,-277.29989547729497,140.51593627929685,-135.54413166046143,-7.127920371113401,-4.8013524936907235,2.2846363493890474,-4.010814868139498,-13.99931333101157,2.8426008197394284,-0.34542901938160253,-0.08431594272454568,-0.6019987797364592,3.111259502894951,-9.180456349343963,0.49527700917061523
3.9,-7.919445514678955,-27.071298440297443,3.1762726306915283,118.98305084745762,0.5264006550029172,5.904108197002088,45.30559190653138,1.1976675360889757,112.77933540990797,43.400001525878906,-122.75342273898305,49.187557093220335,0.8031217257181803,-0.5910760859648386,-0.027738742685566333,0.04585008913030223,-0.019510394583145768,1.2646640141805012,-1.969739596048991,-22.023439788818358,45.74633903503418,-1.0296799786388875,0.9392053365707398,2.371531581878662,-1.989985191822052,-276.5642364501953,141.21133728027343,-134.2414749145508,-10.801541010538736,-17.73669497172038,3.074549357096354,-7.913463274637858,-27.08864704767863,3.239084303379059,0.9401521682739258,2.366827940940857,-1.9923064351081847,2.8822317322095237,-9.334447542826334,0.10184745614727336
4.0,14.846865773200989,-11.054043213526407,-3.9666019678115845,122.03389830508473,0.5294703851311894,5.773735224190405,45.36131221965208,1.213576144081051,113.90962141651218,43.400001525878906,-122.7534192720339,49.18755416355932,0.6805600623289744,-0.7219894826412201,0.07181870549296336,0.05452188321699695,-1.705415556828181,1.3475388487180073,-1.4611629744370778,-2.8145398966968065,48.67555961608887,-8.816939878463746,-2.502078572909037,-2.8188122510910034,-2.5335127115249634,-257.35533752441404,144.14055786132812,-142.02873840332032,15.48609459400177,-1.5024505456288655,-5.625243624051412,14.852848569552103,-11.071391026178995,-3.9037903944651284,-2.501111368338267,-2.823495626449585,-2.535803437232971,-0.6390925248463949,-9.551435947418213,1.6587657829125722
4.1,-3.3696925044059753,-1.653340735162298,-2.076770623524984,125.08474576271186,0.5325401152594614,5.643362251378723,45.41703253277277,1.2294847520731262,115.03990742311639,43.400001525878906,-122.75341580508474,49.187551233898304,-0.2636695404847463,0.1926707923412323,-0.07294951876004535,0.045069941203109865,-1.1839748919010162,1.3286132017771404,-2.208479404449463,-8.119099700450898,47.37015914916992,-13.301659679412841,0.6936629507690668,-2.3301963607470193,3.2943453788757324,-262.65989837646487,142.83515625,-146.51345672607422,-4.208128253618876,7.8774270216623945,-4.126621166865031,-3.363710343837738,-1.670688692169885,-2.0139590303103128,0.6946046737333139,-2.3348287840684256,3.2920546531677246,0.8385718415180842,-9.530611197153727,2.0499747594197593
4.2,1.178356273607774,-19.336128191514447,-1.5188441303643314,128.135593220339,0.5356098453877336,5.51298927856704,45.472752845893474,1.2453933600652016,116.17019342972061,43.400001525878906,-122.75341233813559,49.18754830423729,0.02692168409174139,-0.07482905279506337,-0.2357112927870317,0.071102216924456,0.6854849244383249,1.160921118476174,1.4827965606342663,-14.248379898071288,43.98526935577392,7.413939750194549,0.9984719653924307,4.117944409449895,0.1833613986770312,-268.78918075561523,139.45026779174805,-125.79785766601563,-0.3540565859187735,-10.330133481459184,0.37573016773570667,1.184338554739952,-19.353476134213533,-1.4560325619849293,0.9994391575455666,4.113248392939568,0.18101976066827774,1.5325490337881176,-9.005838047374379,-1.8944501199505546
4.3,0.9519400043469486,-9.441942364654757,0.28863423927263776,131.1864406779661,0.5386795755160056,5.382616305755357,45.52847315901417,1.2613019680572768,117.30047943632482,43.400001525878906,-122.75340887118644,49.18754537457627,-0.38427025847362745,0.2598734592849558,-0.08195438412385006,0.04776301518590609,0.5717704257730282,1.1957684168309877,1.5937860264922634,-16.763409852981567,44.70171422958374,8.466799795627594,-1.0854553987582523,-0.6365165342887247,0.5661550146838029,-271.3042079925537,140.16671257019044,-124.74499855041503,-1.082886124199087,-0.30351923090039,1.9242184713031305,0.957922175526619,-9.459290305660529,0.3514458300037817,-1.0844677858054639,-0.6412163510918614,0.5638388104736805,2.0349622518953048,-9.138266548965916,-1.635460065959981
4.4,0.7255237350861231,0.45224346220493317,2.096112608909607,134.23728813559322,0.5417493056442778,5.252243332943674,45.584193472134864,1.2772105760493522,118.43076544292903,43.400001525878906,-122.75340540423728,49.18754244491525,-0.7954622010389963,0.594575971364975,0.07180252453933157,0.024423813447356182,0.4580559271077315,1.2306157151858013,1.7047754923502605,-19.278439807891846,45.418159103393556,9.519659841060639,-3.1693827629089357,-5.390977478027343,0.9489486306905747,-273.81923522949216,140.8831573486328,-123.69213943481445,-1.8117156624794006,9.723095019658405,3.4727067748705545,0.7315057963132858,0.43489552289247513,2.1589242219924927,-3.1683747291564943,-5.395681095123291,0.9466578602790833,2.5373754700024924,-9.270695050557455,-1.3764700119694073
4.5,-1.0326026777426403,-1.804287999868393,1.5832509795824687,137.28813559322035,0.5448190357725499,5.121870360131991,45.63991378525556,1.2931191840414273,119.56105144953324,43.400001525878906,-122.75340193728813,49.18753951525424,-0.8084901769955953,0.5762866735458374,-0.1167131016651789,0.015650697052478735,-0.5037896583477656,1.2099197904268901,-2.8284082810084024,-23.015299606323243,44.93259887695312,-9.617259788513184,-0.8670723140239716,-1.5311337535579999,0.09646580244104068,-277.55609436035155,140.39759674072266,-142.8290588378906,-3.9627354542414346,7.4058252175649,-0.07165684302647908,-1.026620626449585,-1.8216359168291092,1.6460625727971394,-0.8661305805047353,-1.5357915759086609,0.09412415698170662,2.930268883705139,-9.209956804911295,1.6550320188204448
4.6,-8.644072008132934,-23.662862014770507,4.185405725240708,140.33898305084745,0.547888765900822,4.991497387320309,45.69563409837626,1.3090277920335025,120.69133745613745,43.400001525878906,-122.75339847033898,49.18753658559322,-0.47998613119125366,0.35661221742630006,-0.050770540186203986,0.02274730047211048,-0.10323755592107772,1.3118410587310791,-0.6085265636444092,-20.358139991760254,46.71379852294922,-3.140279990434647,1.3799190918604534,3.1402546167373657,-1.2150364468495052,-274.8989318847656,142.17879486083984,-136.3520767211914,-10.937757873535157,-14.158649444580078,3.841784155368805,-8.638089752197265,-23.680210685729982,4.248217290639877,1.3808354238669078,3.1355713307857513,-1.217327172557513,2.2938221216201784,-9.504056358337403,0.343745818734169
4.7,4.050699728230636,-10.445717754463354,-3.776522139708201,143.38983050847457,0.5509584960290941,4.861124414508626,45.751354411496955,1.3249364000255779,121.82162346274166,43.400001525878906,-122.75339500338983,49.1875336559322,0.7153078317642212,-0.6860037495692571,0.06608568353112786,0.0704836281947791,-1.2044147122651339,1.3204458554585774,-1.4075375646352768,-9.006649842858314,48.02773933410644,-9.55503981411457,-1.6267480579289524,-0.8753282725811005,0.16584998911077323,-263.5474479675293,143.49273681640625,-142.766837310791,3.80785803993543,-0.9643370707829794,-5.645139177640279,4.056681891282399,-10.463065649072329,-3.713710606098175,-1.6257623054764487,-0.8800207809968428,0.16355911168185147,0.2429774502913158,-9.481224219004313,1.868741229797403
4.8,4.195640002687773,-10.972612332552671,-4.56094428896904,146.4406779661017,0.5540282261573662,4.730751441696944,45.80707472461765,1.340845008017653,122.95190946934588,43.400001525878906,-122.75339153644067,49.187530726271184,0.21844034393628442,-0.2553414429227511,0.007163458678405732,0.049652230033340496,-0.9418748129780095,1.2559707164764404,-2.059561125934124,-14.90260480195284,45.931779289245604,-11.801059831678867,-0.13625536373618896,-0.7917368734876316,1.166472671158386,-269.44340324401855,141.39677658081055,-145.01285667419432,2.7680670271317167,-1.649779180685679,-6.592332700888315,4.201622026662031,-10.989960059523582,-4.498132656017939,-0.1352788814992616,-0.7963993492903132,1.1641818497217062,1.4277087797721226,-9.32267649968465,2.031512640727063
4.9,4.340580277144909,-11.499506910641989,-5.3453664382298784,149.4915254237288,0.5570979562856383,4.6003784688852605,45.862795037738344,1.3567536160097284,124.08219547595009,43.400001525878906,-122.75338806949152,49.18752779661017,-0.2784271438916524,0.17532086372375488,-0.051758766174316385,0.028820831871901886,-0.679334913690885,1.1914955774943035,-2.711584687232971,-20.798559761047365,43.835819244384766,-14.047079849243165,1.3542373304565747,-0.7081454743941625,2.167095353205999,-275.3393585205078,139.30081634521486,-147.25887603759764,1.728276014328003,-2.3352212905883785,-7.5395262241363525,4.346562162041664,-11.516854469974836,-5.282554705937703,1.3552045424779255,-0.7127779175837835,2.164804587761561,2.6124401092529297,-9.16412878036499,2.194284051656723
5.0,0.24985072513421377,-23.304298003514607,0.1762712597846985,152.54237288135593,0.5601676864139105,4.470005496073577,45.918515350859046,1.3726622240018036,125.2124814825543,43.400001525878906,-122.75338460254237,49.18752486694915,0.4399782617886861,-0.4207041362921397,-0.2785022233923276,0.07690423121675845,1.3981563250223796,1.1879298090934753,2.294126570224762,-11.448479866981506,43.533259582519534,15.195099598169326,2.9239319128294787,10.165077686309814,-2.8635071516036987,-265.98927307128906,138.99825897216797,-118.01669692993164,0.10971746842066447,-14.170902013778687,3.185108800729116,0.25583256781101227,-23.32164518038432,0.23908291260401407,2.9249245977650085,10.160394509633383,-2.8657978773117065,0.1402689764897028,-9.133237997690836,-3.0087132255236306
5.1,2.149711887538433,0.39206398725509645,2.9949764251708983,155.59322033898303,0.5632374165421825,4.339632523261895,45.97423566397974,1.388570831993879,126.3427674891585,43.400001525878906,-122.75338113559322,49.18752193728813,0.43982133865356443,-0.37996478080749513,-0.14997180737555021,0.02523602620931336,0.872207859158516,1.2715602397918702,2.5366583347320555,-12.07555993795395,44.57147903442383,13.878719592094422,-3.0123038093249,-7.652003486951192,2.0333667596181235,-266.61635437011716,140.0364791870117,-119.33307723999023,0.8126532286405563,9.805024337768554,4.94638671875,2.155693934857845,0.37471604347229004,3.057788038253784,-3.0113620162010193,-7.656686822573344,2.0310505628585815,1.3371946454048156,-9.412803840637206,-1.9512860298156738
5.2,-4.097559282556176,-10.17931659022967,1.8934205876042445,158.64406779661016,0.5663071466704547,4.209259550450212,46.029955977100435,1.4044794399859541,127.47305349576271,43.400001525878906,-122.75337766864406,49.18751900762712,0.6638988057772318,-0.49652304251988727,0.06768112008770304,0.00996439589168095,-0.5369425190923115,1.2379227181275685,-2.7320779959360757,-20.170869636535645,44.11397933959961,-8.633329850435256,0.09075516462326054,0.08513237129558217,0.2956448952582749,-274.7116638183594,139.57897720336913,-141.84512634277343,-6.457370599110921,-0.850098729133606,0.2775101065635681,-4.091577160482605,-10.19666479776303,1.9562322335938613,0.09174082495949486,0.08042602105574174,0.29335414956916456,2.359947423140208,-9.329061269760132,1.616034717609485
5.3,-5.14469330975165,-13.221317246556282,1.734846252327164,161.6949152542373,0.5693768767987267,4.07888657763853,46.08567629022113,1.4203880479780293,128.60333950236694,43.400001525878906,-122.75337420169491,49.1875160779661,0.6964547683795292,-0.5837766428788503,0.02867577137658372,0.04593316680742035,-0.7314813595730811,1.2946231414874394,-2.408221423625946,-17.287094676494597,45.07655906677246,-5.19811491034925,-1.175996571779251,-0.12072571570223027,-1.987393371252851,-271.82789001464846,140.541556930542,-138.40991134643554,-6.616867939631144,-3.7695390979448953,0.469624362885952,-5.13871122803539,-13.238665177176397,1.7976578939706087,-1.1750074187011428,-0.125407808206298,-1.9897095978711592,1.4723107119401295,-9.451621572176617,1.2653460515042145
5.4,-6.1918273369471235,-16.263317902882893,1.5762719170500834,164.7457627118644,0.5724466069269989,3.9485136048268465,46.14139660334183,1.4362966559701047,129.73362550897113,43.400001525878906,-122.75337073474576,49.18751314830508,0.7290107309818268,-0.6710302432378134,-0.010329577334535598,0.08190193772315975,-0.9260202000538508,1.3513235648473103,-2.0843648513158164,-14.403319716453552,46.03913879394531,-1.7628999702632426,-2.4427483081817627,-0.3265838027000427,-4.270431637763977,-268.9441162109375,141.50413665771484,-134.97469635009764,-6.776365280151367,-6.688979466756185,0.6617386192083359,-6.185845295588176,-16.280665556589764,1.6390835543473559,-2.4417556623617807,-0.33124163746833774,-4.2727733453114825,0.5846740007400513,-9.5741818745931,0.9146573853989443
5.5,21.23881378173828,-9.512427043914794,2.464248280227184,167.79661016949152,0.5755163370552709,3.818140632015164,46.19711691646253,1.4522052639621799,130.86391151557535,43.400001525878906,-122.7533672677966,49.187510218644064,-0.6113165259361267,0.752460777759552,-0.22302574515342707,0.0722717441618442,-2.484892988204956,1.2609964609146118,-1.0834856390953065,6.396459913253784,46.40025939941406,-10.180899858474731,-1.3729705413182576,-2.58541069428126,1.6831374516089757,-248.1443359375,141.8652587890625,-143.39269561767577,23.77961883544922,-0.2234222412109375,1.0047940254211425,21.24479560852051,-9.529775047302246,2.527060128748417,-1.3719524145126343,-2.59011964003245,1.680821215113004,-2.540669798851013,-9.288848114013671,1.4595788240432739
5.6,-4.173680861790975,-4.259024818738301,-3.611965795358022,170.84745762711864,0.578586067183543,3.687767659203481,46.25283722958322,1.4681138719542552,131.99419752217955,43.400001525878906,-122.75336380084745,49.18750728898305,-0.7415974934895834,0.6208726664384207,-0.22281450529893235,0.09000652562826866,-1.1225117444992065,1.3008262117703755,-2.4709850748380027,-11.47043981552124,45.024099349975586,-13.090599727630615,0.06042475625872612,-2.8931850443283715,4.036164840062459,-266.0112365722656,140.48909606933594,-146.30239868164062,-5.092765132586162,5.240813175837199,-5.697621305783589,-4.167698860168457,-4.276372740666072,-3.5491542418797812,0.061391962071259805,-2.897842893997828,4.033874114354451,0.9192202265063921,-9.49968147277832,2.085779587427775
5.7,0.9213862642645837,-14.79033595820268,1.1545867944757142,173.89830508474574,0.5816557973118152,3.557394686391798,46.308557542703916,1.4840224799463304,133.12448352878377,43.400001525878906,-122.7533603338983,49.187504359322034,-0.16536200046539307,0.08345064520835876,-0.13199139696856338,0.0659849447353432,0.8198100440204144,1.2007864514986675,1.9603569904963176,-15.228039526939392,43.181289482116696,10.260809749364853,0.23493321917273782,3.035556056282737,-0.4907746911048889,-269.76883392333986,138.6462890625,-122.95098762512207,-0.4071558713912964,-5.566349426905314,3.1587205727895102,0.9273683081070582,-14.807683746019999,1.2173983467121918,0.23591893098571076,3.0308912884105337,-0.49307932366024365,1.3286781832575798,-9.223829825719198,-2.0040097584327063
5.8,0.2022682887812456,-7.130412119130294,1.520464307318131,176.94915254237287,0.5847255274400872,3.4270217135801153,46.36427785582462,1.4999310879384056,134.254769535388,43.400001525878906,-122.75335686694915,49.18750142966101,-0.4668419311443965,0.32946986456712085,-0.18981700359533227,0.08142879989463832,-0.023050550992290253,1.2054542501767478,0.11459859212239576,-16.264429557323457,43.74645433425903,-2.0084249526262283,-1.5024462134549113,-1.2762432604125054,-0.33986783896883327,-270.8052238464355,139.21145324707032,-135.22022266387938,-1.2893381069103877,2.1143176555633536,1.2860195934772491,0.20825035125017166,-7.14775999262929,1.5832758899778128,-1.501482480854699,-1.2809045368974856,-0.3421655249302134,1.4917424681286016,-9.244573156038921,0.2345688218871751
5.9,-0.5168496867020925,0.5295117199420929,1.886341820160548,180.0,0.5877952575683594,3.2966487407684326,46.41999816894531,1.515839695930481,135.3850555419922,43.400001525878906,-122.7533534,49.1874985,-0.7683218618233999,0.5754890839258829,-0.24764261022210118,0.09687265505393343,-0.8659111460049947,1.2101220488548279,-1.7311598062515259,-17.30081958770752,44.311619186401366,-14.27765965461731,-3.23982564608256,-5.588042577107747,-0.18896098683277762,-271.84161376953125,139.77661743164063,-147.4894577026367,-2.171520342429479,9.794984738032023,-0.5866813858350118,-0.5108676056067148,0.5121637607614199,1.9491534332434337,-3.238883892695109,-5.592700362205505,-0.1912517262001832,1.6548067529996235,-9.265316486358643,2.4731474022070565
6.0,-2.629712074995041,-5.248656415939331,2.4312274754047394,180.0,0.5877952575683594,3.2742695212364197,44.954623222351074,1.5675390511751175,135.39967918395996,43.400001525878906,-122.7533466,49.1874929125,-0.7565179109573364,0.564356553554535,-0.30810029804706573,0.1085532188415527,-1.0913156270980835,1.1734307050704955,-2.6617650508880617,-14.194699764251709,43.21483879089355,-22.121039485931398,2.0961332619190216,2.5869379738966622,0.0002036169171333313,-268.735498046875,138.67983856201172,-155.33283538818358,-3.992384934425354,3.892938423156738,-0.7595234155654907,-2.623730105161667,-5.266004467010498,2.494039037823677,2.097100337346395,2.5822546929121017,-0.0020871249337991262,1.3628087043762207,-9.141438293457032,3.190875005722046
6.1,-10.36650530497233,-28.33700195948283,3.543471155067285,180.0,0.5877952575683594,3.2518903017044067,43.489248275756836,1.619238406419754,135.41430282592773,43.400001525878906,-122.75333979999999,49.187487325,-0.01635158061981201,-0.02288047472635905,-0.05056357135375336,0.07518379514416056,-0.5500450059771538,1.3978842496871948,-1.5992528398831685,-16.91285982131958,48.4498592376709,-5.134979844093323,-1.4297301173210144,5.509597301483154,-1.9271016716957092,-271.4536529541016,143.91485900878905,-138.3467788696289,-11.34890111287435,-18.63884512583415,2.727474629878998,-10.360523223876953,-28.354350248972576,3.606282863765955,-1.4287883937358856,5.504888653755188,-1.929417888323466,0.982531746228536,-9.698000431060791,0.8161208207408587
6.2,5.322983821233113,-5.844369714458783,-3.075724239150683,180.0,0.5877952575683594,3.229511082172394,42.0238733291626,1.6709377616643906,135.4289264678955,43.400001525878906,-122.753333,49.1874817375,0.08715079228083293,-0.14909071723620096,0.008476984376708643,0.0448221307015046,-1.7557141383488972,1.2282118101914723,-1.638801485300064,-4.457879900932312,47.65014877319336,-16.97263970375061,-0.6430467570369894,-2.7395779856226663,1.4891090393066406,-258.998673248291,143.11514587402343,-150.1844367980957,6.430570820967357,3.37014893690745,-5.831699013710022,5.328965862592061,-5.861717498550813,-3.012912710507711,-0.6421026736497879,-2.744284377856688,1.4868044419722124,-1.107450919225812,-9.214361985524496,2.7560989459355674
6.3,5.729868153731028,-18.65642958531777,-2.1217108463247616,180.0,0.5877952575683594,3.207131862640381,40.55849838256836,1.722637116909027,135.44355010986328,43.400001525878906,-122.7533262,49.187476149999995,-0.19954688946406046,0.08742092351118722,-0.07928323374750713,0.061014544579666055,-0.9875975961486498,1.2057748804489772,-1.1426725417375565,-15.040769612789154,45.51911392211914,-11.457019770145415,0.9639534550634298,3.6443964656103742,1.0306812574466069,-269.58156318664555,140.98411178588867,-144.66881713867187,5.001470269759496,-9.430883459250133,-3.8555732131004334,5.735850123564402,-18.673777049904068,-2.058899287382762,0.964909078553319,3.639701661286932,1.028370860399622,0.7285335754975677,-9.225389019648233,1.7339864591757457
6.4,6.136752486228943,-31.46848945617676,-1.1676974534988402,180.0,0.5877952575683594,3.184752643108368,39.09312343597412,1.7743364721536636,135.45817375183105,43.400001525878906,-122.7533194,49.187470562499996,-0.48624457120895387,0.3239325642585754,-0.1670434518717229,0.07720695845782752,-0.2194810539484024,1.1833379507064818,-0.6465435981750488,-25.623659324645995,43.38807907104492,-5.9413998365402225,2.570953667163849,10.028370916843414,0.5722534755865732,-280.164453125,138.85307769775392,-139.15319747924804,3.5723697185516357,-22.231915855407713,-1.8794474124908447,6.142734384536743,-31.485836601257326,-1.1048858642578125,2.571920830756426,10.023687700430552,0.5699372788270315,2.5645180702209474,-9.236416053771972,0.7118739724159241
6.5,-2.8142585456371307,-9.011968235174814,-0.502991239229838,180.0,0.5877952575683594,3.162373423576355,37.62774848937988,1.8260358273983002,135.47279739379883,43.400001525878906,-122.7533126,49.187464975,0.4612930715084076,-0.42907663186391193,-0.21698899567127225,0.05596792542686058,1.4339475333690643,1.251690924167633,2.1593154668807983,-10.522499942779541,45.59261894226074,21.159679698944093,-1.3926963607470195,-4.246505995591481,-0.2944115996360779,-265.06329650878905,141.0576187133789,-112.05211868286133,-2.73061873515447,0.37424198786417645,2.222629427909851,-2.808276444673538,-9.029316266377768,-0.4401795864105224,-1.3917546222607295,-4.25113832950592,-0.29670232534408575,-0.08350371321042376,-9.386053880055746,-2.7254964311917624
6.6,-0.1888335943222046,1.0950154488285382,2.7723841269810996,180.0,0.5877952575683594,3.139994204044342,36.162373542785645,1.8777351826429367,135.4874210357666,43.400001525878906,-122.75330579999999,49.1874593875,-0.7777798473834991,0.6054612696170807,-0.116761517090102,0.05124097286413107,-0.4023091395696004,1.279062847296397,-0.8872235616048177,-22.09663963317871,45.671918869018555,-5.008099937438965,-3.553224960962931,-6.449337005615234,0.20456349228819212,-276.63743286132814,141.1369186401367,-138.21989517211915,-1.8507255911827087,10.591736316680908,1.6980464259783428,-0.1828515330950419,1.077667511999607,2.8351957400639853,-3.55228324731191,-6.453994989395142,0.20227275416254997,1.6620280345280964,-9.496564229329428,1.0744619021813075
6.7,-4.330909262100856,-14.333606007198492,4.889733071128528,180.0,0.5877952575683594,3.117614984512329,34.696998596191406,1.9294345378875732,135.50204467773438,43.400001525878906,-122.753299,49.1874538,-0.3821534762779872,0.26889529327551526,-0.20756715229557207,0.06947783089708531,-0.9731918523708979,1.2128668626149495,-2.5335357189178467,-18.934399461746217,43.74004993438721,-17.266659712791444,0.5178609761324796,3.824613331393762,-0.6558471254327081,-273.4751968383789,139.2050468444824,-150.47845611572265,-5.527756849924724,-5.084426999092102,2.1604258020718894,-4.324927215774854,-14.350953668355942,4.952544664343198,0.5188467326489362,3.8199485926465555,-0.6581517532467842,1.196983630458514,-9.249022165934244,2.7294313460588455
6.8,11.373854107658069,-14.719029785444338,1.8242879865070183,120.0,0.3918635050455729,2.9293323357899985,33.463998794555664,1.6825680335362752,148.81754048665366,43.400001525878906,-122.75330266666667,49.187452633333336,0.13278275678555168,-0.22788805911938353,-0.03582900306597972,0.09405354674672704,-1.3765476917227109,1.1924144546190898,-1.9616742968559264,-13.631669688224793,45.48495454788208,-15.182289731502534,-1.6184365837411447,-0.5980059312600079,-1.28782191533934,-268.1724655151367,140.94995307922363,-148.3940856933594,11.58597404162089,-5.6314752221107485,-1.1492486019929253,11.379836139579613,-14.73637771308422,1.8870996053020157,-1.6174601156151658,-0.6026672378859739,-1.290132307757934,-0.21198382178942343,-9.087397988637289,2.9736608281731605
6.9,27.07861747741699,-15.104453563690186,-1.2411570981144906,60.0,0.19593175252278644,2.7410496870676675,32.23099899291992,1.4357015291849773,162.1330362955729,43.400001525878906,-122.75330633333333,49.187451466666666,0.6477189898490906,-0.7246714115142823,0.1359091461636126,0.11862926259636877,-1.779903531074524,1.17196204662323,-1.3898128747940064,-8.32893991470337,47.22985916137695,-13.097919750213624,-3.754734143614769,-5.020625193913777,-1.9197967052459717,-262.8697341918945,142.69485931396486,-146.3097152709961,28.699704933166505,-6.178523445129395,-4.45892300605774,27.084599494934082,-15.1218017578125,-1.1783454537391662,-3.7537669638792672,-5.025283068418503,-1.9221128622690837,-1.620951274037361,-8.925773811340331,3.2178903102874754
7.0,-7.788837035497029,-3.84546539435784,-2.3735803961753845,0.0,0.0,2.552767038345337,30.99799919128418,1.1888350248336792,175.4485321044922,43.400001525878906,-122.75331,49.1874503,0.6772223711013794,-0.6963489452997843,0.22594157606363294,0.05112192340311589,-1.7410364349683125,1.1663901209831238,-1.6536413431167603,-6.764899969100952,45.68411865234375,-19.76399955749512,0.9461030066013336,-0.2616030126810074,3.3191872437795005,-261.3056930541992,141.14911499023438,-152.97579650878907,-6.573647737503052,5.161140521367391,-5.956192096074422,-7.782855033874512,-3.862813390791416,-2.310768783092499,0.9470956722895304,-0.2663118466734886,3.3168965180714927,-1.2150532230734825,-9.006449381510416,3.582735816637675
7.1,6.621937135855357,-19.787945727507275,-1.1045868396759033,0.0,0.0,2.552767038345337,30.37979927062988,1.2764771223068239,188.34718322753906,43.400001525878906,-122.75331494,49.18744908,-0.7652568022410074,0.5793522000312805,-0.25558443615833915,0.07583201645563041,-1.0064000636339188,1.1871856451034546,-2.6188865105311074,-19.31503963470459,42.588978958129886,-19.383359813690184,1.0848050937056541,1.321454286575317,2.868837070465088,-273.8558380126953,138.0539794921875,-152.59515838623048,5.283175627390544,-10.53474219640096,-3.836222449938456,6.627919514973958,-19.805292973915737,-1.0417751471201575,1.0857518650591373,1.316781091690063,2.8665463447570803,1.3388978640238445,-9.253046035766602,2.7317598859469094
7.2,-1.2827704657207837,-8.799170262772929,1.8313794190233403,0.0,0.0,2.552767038345337,29.761599349975587,1.3641192197799683,201.24583435058594,43.400001525878906,-122.75331987999999,49.18744786,0.17510533332824707,-0.18936890363693237,-0.13552160425619644,0.05218477009541604,0.8169829520312223,1.3372480219060725,1.408801414749839,-16.15218950510025,45.84820919036865,10.13331972360611,-0.4048891371736924,0.2993748088677723,-0.3937408005197842,-270.69298553466797,141.3132080078125,-123.0784782409668,-1.880745454268022,0.8234909664500847,2.873185244473544,-1.2767884541641583,-8.816518089310689,1.8941910429434343,-0.4039091868326068,0.2946788271268212,-0.39603156844774884,0.5981109128756956,-9.62250449440696,-1.0416815985332837
7.3,-0.7907870888258473,-4.66857828058754,1.4390199757886655,0.0,0.0,2.552767038345337,29.14339942932129,1.451761317253113,214.1444854736328,43.400001525878906,-122.75332482,49.187446640000005,-0.301044762134552,0.1922549357016881,-0.1912279954236565,0.05040052047027552,-0.07881096140904853,1.2501564992196632,-0.5946482528339734,-19.054264479875563,44.13075437545776,-3.932669895887374,-0.7970455217485626,-1.3438781152168908,-0.225186546643575,-273.5950614929199,139.59575347900392,-137.14446830749512,-1.887517627893072,4.730953310475205,0.4649834172292189,-0.7848050698186413,-4.6859261945567345,1.5018315694548867,-0.7960719691279033,-1.348567758997281,-0.22747730960448584,1.096866497713508,-9.399375012426667,0.9741607353542789
7.4,-0.29880371193091076,-0.5379862984021504,1.0466605325539906,0.0,0.0,2.552767038345337,28.525199508666994,1.5394034147262574,227.0431365966797,43.400001525878906,-122.75332976,49.18744542,-0.7771948575973511,0.5738787750403086,-0.24693438659111658,0.048616270845135,-0.9746048748493195,1.163064976533254,-2.5980979204177856,-21.95633945465088,42.413299560546875,-17.998659515380858,-1.189201906323433,-2.987131039301554,-0.056632292767365776,-276.49713745117185,137.8782989501953,-151.21045837402343,-1.8942898015181224,8.638415654500326,-1.9432184100151062,-0.2928216854731242,-0.5553342998027803,1.1094720959663391,-1.1882347514232,-2.9918143451213837,-0.05892305076122284,1.5956220825513203,-9.176245530446371,2.990003069241842
7.5,-6.857430994510651,-17.64148410161336,4.8121657371521,0.0,0.0,2.552767038345337,27.906999588012695,1.627045512199402,239.94178771972656,43.400001525878906,-122.7533347,49.1874442,-0.7529813547929128,0.6202137370904287,-0.20084035396575925,0.05489867925643916,-0.9908956984678904,1.2897872527440388,-2.5195988416671753,-19.16619930267334,45.14731864929199,-14.975499725341797,2.3399192690849304,3.7814850409825644,-1.2324715455373128,-273.7069976806641,140.61231689453126,-148.18729553222656,-7.711182355880737,-8.138672510782877,2.7071911096572876,-6.851448893547058,-17.65883179505666,4.874977231025696,2.3408356408278146,3.776852548122406,-1.2347622911135356,0.8538873493671417,-9.502654711405436,2.105098615090052
7.6,5.352245499690373,-19.55584128697713,-1.558126340309779,0.0,0.0,2.5465832710266114,27.601599502563477,1.6717950105667116,242.17208557128905,43.400001525878906,-122.75333558,49.1874441,0.4401811758677165,-0.48924436171849567,0.07099197991192338,0.044341361538196546,-1.4924047589302063,1.3317474524180095,-1.7223899761835735,-11.894999670982362,48.27295913696289,-7.6237797498703,-2.8237857103347777,-1.3546241998672486,-4.5801759481430055,-266.43579559326173,143.7379577636719,-140.8355743408203,6.320695122083028,-10.111906051635742,-3.2708972096443176,5.358228000501792,-19.573189735412598,-1.4953147768974304,-2.822838854789734,-1.3593278527259827,-4.582497239112854,-0.9683131775818765,-9.443778991699219,1.7128949562708538
7.7,2.5035449158061636,-5.412728027863936,-3.2853455435145986,0.0,0.0,2.540399503707886,27.29619941711426,1.7165445089340212,244.40238342285156,43.400001525878906,-122.75333646,49.187444,-0.20902063087983566,0.15415886857292868,-0.084438063881614,0.048640004179271064,-1.8773416714234785,1.2051817612214522,-1.6918151649561795,-4.235229921340943,46.29167919158935,-17.855919647216798,-0.32426762975713547,-1.549714252895986,3.043267011642456,-258.776025390625,141.7566764831543,-151.06771697998047,4.215049375187267,3.7258672280745073,-5.938155130906538,2.509527011351152,-5.430075889283961,-3.2225339195945044,-0.3233004298963351,-1.5543466334541638,3.0409635305404663,-1.7113683237270876,-9.138438484885476,2.6529337601228193
7.8,3.002521012768601,-16.8713259082852,-2.3458136265928093,0.0,0.0,2.53421573638916,26.990799331665038,1.7612940073013306,246.63268127441404,43.400001525878906,-122.75333734,49.187443900000005,-0.12023738839409569,0.06555057475061127,-0.14495349786893436,0.07241910981952744,-0.6845826052806594,1.2397873519044933,-0.5344708498680231,-11.67631471157074,45.13633909225464,-6.292149817943573,1.277701015783047,5.759504603571259,0.6569664726654687,-266.2171112060547,140.60133628845216,-139.50394706726075,3.4376194025530955,-7.54506407362042,-3.298576452515342,3.0085030315500316,-16.888673745321505,-2.2830020279595344,1.2786809659422336,5.754834089428187,0.6546566337347031,-0.4349623652118626,-9.32610485048005,0.9528869805913982
7.9,3.5014971097310386,-28.329923788706463,-1.4062817096710205,0.0,0.0,2.5280319690704345,26.68539924621582,1.8060435056686401,248.86297912597655,43.400001525878906,-122.75333822,49.187443800000004,-0.03145414590835571,-0.023057719071706135,-0.20546893185625473,0.09619821545978381,0.5081764608621597,1.2743929425875347,0.6228734652201334,-19.117399501800538,43.98099899291992,5.271620011329652,2.8796696613232293,13.068723460038504,-1.7293340663115184,-273.6581970214844,139.44599609375,-127.94017715454102,2.660189429918925,-18.81599537531535,-0.6589977741241455,3.5074790517489114,-28.34727160135905,-1.3434701363245647,2.8806623617808023,13.064014812310537,-1.7316502630710602,0.8414435933033625,-9.513771216074625,-0.7471597989400228
8.0,-0.6772685050964355,-2.8085756140450635,1.6576278855403264,0.0,0.0,2.521848201751709,26.3799991607666,1.8507930040359497,251.09327697753903,43.400001525878906,-122.7533391,49.1874437,0.21891767779986063,-0.22310050328572592,-0.14012238072852293,0.03988658807550862,1.2189389367898305,1.3105278412501018,2.220980962117513,-13.232119798660278,45.20831985473633,17.844939613342284,-1.726793920621276,-7.158057689666748,1.0455874919891357,-267.7729125976563,140.67332153320314,-115.36685791015626,-0.6410973817110062,6.731450478235881,3.697408437728882,-0.6712864687045416,-2.8259235018243394,1.7204394936561584,-1.725877559557557,-7.162792301177978,1.0432967603206635,-0.03603512545426687,-9.539869467417398,-2.039656271537145
8.1,-0.9990034587681293,0.21026928226153055,1.9628124634424846,0.0,0.0,2.521848201751709,26.25599937438965,1.859313106536865,251.92543334960936,43.400001525878906,-122.75333962,49.187443640000005,-0.7570956349372864,0.6214398543039957,-0.16631419242670134,0.06363012331227459,-0.7302055060863495,1.311784267425537,-1.6952780882517497,-21.240199661254884,45.58529930114746,-6.674619859457016,-2.9729029734929404,-5.959830443064372,0.04433863237500191,-275.78098754882814,141.05030059814453,-139.88641586303712,-1.9020742078622181,9.810980955759684,0.5325222214063009,-0.9930213913321495,0.19292132059733072,2.0256240566571555,-2.971935788790385,-5.964513619740804,0.04204789362847805,0.9032067557175955,-9.600555102030436,1.4304144283135731
8.2,-5.17534906484864,-17.580231189727783,2.425071419640021,0.0,0.0,2.521848201751709,26.131999588012697,1.8678332090377807,252.7575897216797,43.400001525878906,-122.75334014,49.18744358,-0.20365176959471268,0.14977453513578934,-0.1337709640237418,0.07637304863469162,-1.2638840404423801,1.3272802504626187,-2.172994689507918,-16.304689598083495,46.52774906158447,-12.5794198513031,-0.044784076511859894,2.696830093860626,-1.3877840489149094,-270.8454833984375,141.99274749755858,-145.79121627807618,-5.171696971763264,-8.000588460402055,0.43585843389684503,-5.16936707361178,-17.597579219124533,2.4878829500891944,-0.04384230077266693,2.6921595136324563,-1.3900747795899708,-0.0035159848630428618,-9.579486153342508,1.9893371300263838
8.3,4.670703556049953,-14.415492097536724,-0.05929933420636457,0.0,0.0,2.521848201751709,26.00799980163574,1.8763533115386961,253.58974609375,43.400001525878906,-122.75334065999999,49.18744352,0.008072016817150696,-0.049037062309005036,-0.04664720854524411,0.05645650006463804,-1.831437276168303,1.227919800715013,-1.600263414960919,-5.795304864645004,46.912354183197024,-14.063549828529357,-0.902076161156098,-0.27689372251431177,-0.6664030974109968,-260.3360984802246,142.37735290527343,-147.2753475189209,6.532163028464172,-5.281638643958352,-2.2662705155936154,4.676685850502866,-14.43284005829782,0.0035121680209129202,-0.9011216908693314,-0.28155793746312474,-0.6686938256025314,-1.861323369666934,-9.133696845083527,2.2070953367334423
8.4,14.516756176948547,-11.250753005345663,-2.5436700880527496,0.0,0.0,2.521848201751709,25.88400001525879,1.8848734140396117,254.42190246582032,43.400001525878906,-122.75334117999999,49.18744346,0.21979580322901407,-0.24784865975379944,0.04047654693325359,0.03653995149458445,-2.398990511894226,1.1285593509674072,-1.0275321404139202,4.714079868793488,47.29695930480957,-15.547679805755616,-1.7593682458003361,-3.2506175388892493,0.054977854092915855,-249.82671356201172,142.76195831298827,-148.7594787597656,18.23602302869161,-2.562688827514649,-4.968399465084076,14.522738774617514,-11.26810089747111,-2.4808586140473685,-1.7584010809659958,-3.255275388558706,0.05268712838490804,-3.719130754470825,-8.687907536824545,2.4248535434405007
8.5,-3.9139599005381265,-0.9025926093260447,-2.2152552803357444,0.0,0.0,2.521848201751709,25.760000228881836,1.8933935165405271,255.25405883789065,43.400001525878906,-122.7533417,49.1874434,-0.46256187558174133,0.4350029528141022,-0.19252914190292358,0.06369756356192129,-1.8017401695251465,1.2613947192827861,-1.824756145477295,-7.618899774551392,46.6283992767334,-17.705859565734862,0.08411615192890168,-2.970851516723633,3.6501947402954102,-262.1597015380859,142.09339752197266,-150.91765747070312,-2.5637762347857156,8.476154247919718,-4.632150888442993,-3.907977898915609,-0.9199406405289968,-2.1524436473846436,0.08506299257278442,-2.9755246162414553,3.6478428840637207,-1.3500477100412052,-9.37859026590983,2.4170198837916055
8.6,6.176572958628337,-29.823243459065754,-2.8789644638697305,0.0,0.0,2.5166614055633545,25.31757164001465,1.9066075938088551,254.44063459123888,43.400001525878906,-122.7533412,49.18744227142857,-0.2755927046140035,0.1707422435283661,-0.20825873843083778,0.10246675213177993,0.07022277514139814,1.2810657421747844,-0.20143268505732215,-21.506159591674805,43.196539306640624,-7.2809600830078125,2.273996808876594,12.238023320833841,-0.12797623872756958,-276.0469573974609,138.66154022216796,-140.49275665283204,5.379692316055298,-20.27376588185628,-3.1457716822624207,6.182554980119069,-29.84059206644694,-2.816152811050415,2.2749130899707475,12.233339806397757,-0.1302669644355774,0.7970161636670431,-9.549321015675863,0.26693140467007953
8.7,-0.8056198792024092,-2.5571660047227684,1.6230406977913596,0.0,0.0,2.511474609375,24.87514305114746,1.9198216710771832,253.62721034458707,43.400001525878906,-122.7533407,49.18744114285714,-0.2276267951185053,0.16066167571327902,-0.16641597470945932,0.06483446387574072,0.4088603149760853,1.3565766269510442,-0.10330876437100497,-13.283969807624818,46.124539375305176,4.542059934139251,-2.4759131856262684,-5.815564413865407,0.2786436518654227,-267.8247634887695,141.58953857421875,-128.66973800659179,-0.42269644953987817,7.059879476373846,1.6894310821186413,-0.7996378202329982,-2.5745140205730093,1.6858523758974941,-2.474958701680104,-5.8202604452768965,0.2763401789901157,-0.38278739526867867,-9.61688908663663,-0.06626605852083726
8.8,-0.5721021337491093,-2.4882047056135805,1.3211417281717965,0.0,0.0,2.5062878131866455,24.432714462280273,1.9330357483455112,252.8137860979353,43.400001525878906,-122.7533402,49.18744001428571,-0.46790048209103674,0.385006719917962,-0.25573148340635904,0.07638986137074724,-0.5561351730968013,1.267611158616615,-1.1794391111894087,-13.19948478937149,44.50803937911987,-9.626409608125686,-1.09951926805079,-3.0908432389299074,0.06533077238127594,-267.7402809143066,139.97303619384766,-142.83820686340331,-0.19510994264573764,6.938938307039665,-0.28005616321708193,-0.5661200823431665,-2.5055527018213812,1.3839533700410165,-1.0985227921356757,-3.0955430974562965,0.0630336656390379,-0.3768561761826277,-9.42698657873905,1.6013221548813763
8.9,-0.33858438829580945,-2.4192434065043926,1.0192427585522335,0.0,0.0,2.501101016998291,23.990285873413086,1.9462498256138392,252.0003618512835,43.400001525878906,-122.7533397,49.187438885714286,-0.7081741690635681,0.609351764122645,-0.3450469921032588,0.08794525886575376,-1.521130661169688,1.1786456902821858,-2.2555694580078125,-13.114999771118164,42.89153938293457,-23.794879150390624,0.2768746495246887,-0.36612206399440766,-0.14798210710287088,-267.6557983398437,138.35653381347657,-157.00667572021484,0.032476564248402916,6.817997137705485,-2.2495434085528054,-0.3326023444533348,-2.4365913830697536,1.0820543641845386,0.27791311740875246,-0.3708257496356964,-0.1502728477120399,-0.3709249570965767,-9.23708407084147,3.26891036828359
9.0,-10.955538471539816,-27.448068459828693,4.73898525039355,0.0,0.0,2.4959142208099365,23.5478572845459,1.9594639028821672,251.1869376046317,43.400001525878906,-122.7533392,49.18743775714286,-0.24549020330111185,0.20666848619778952,-0.10647391776243846,0.05966741364682088,-1.601461410522461,1.3649423718452454,-1.7659408052762349,-14.276439571380616,47.28963928222656,-10.979999589920045,1.3456851939360301,6.130160013834636,-1.9248109310865402,-268.817236328125,142.7546356201172,-144.1917984008789,-10.213084737459818,-17.837936004002888,3.00357723236084,-10.949556549390158,-27.4654168287913,4.801796863476436,1.346728761990865,6.125527699788411,-1.9271017014980316,-0.7423179000616074,-9.609976291656494,1.7355322043100994
9.1,15.81077516078949,-11.853943506876627,-3.0649066666762033,0.0,0.0,2.490727424621582,23.10542869567871,1.9726779801504952,250.3735133579799,43.400001525878906,-122.7533387,49.187436628571426,0.23068894942601523,-0.2427932322025299,0.00013484371205168635,0.07244094337026272,-2.325495262940725,1.1098727385203044,-0.9765295584996542,1.1748600482940674,47.58609886169434,-13.127199745178222,-2.849355459213257,-3.684077421824138,-2.243402620156606,-253.36593627929688,143.0510986328125,-146.33899841308593,19.5444739262263,-3.304478963216146,-5.686686158180237,15.816757023334503,-11.871291637420654,-3.002095103263855,-2.848337392012278,-3.6887352665265407,-2.245693345864614,-3.733562390009562,-8.549308141072592,2.6219036181767783
9.2,1.2339351448145779,-12.274853701618584,-0.38431989062916166,0.0,0.0,2.4855406284332275,22.663000106811523,1.9858920574188232,249.56008911132812,43.400001525878906,-122.7533382,49.1874355,-0.22463897141543301,0.14105090227994052,-0.07311678474599663,0.06134532942351965,-1.6644314906813882,1.2321090373125942,-1.8739887801083652,-7.468839855492115,45.61518936157226,-17.87238974571228,1.25864964343297,3.0464994261662164,2.8548023539284864,-262.0096382141113,141.08018798828124,-151.08418502807618,2.6806984056125986,-3.024534832347523,-2.73706899989735,1.2399170019409873,-12.292201794006608,-0.32150832089510833,1.2596041418922443,3.041854312022527,2.8525115872422853,-1.4466274832375348,-9.25016247142445,2.352873070334846
9.3,-2.8025754455364114,-13.867938913517829,-0.48353591019457043,0.0,0.0,2.4855406284332275,22.26760025024414,1.996299934387207,247.87423706054688,43.400001525878906,-122.7533382,49.18743402,0.2407663898034529,-0.2591722521818045,-0.14975548061457544,0.07956744819371535,-0.11707778681408265,1.2998073236508803,0.15177396301067247,-10.41391974464059,45.443474197387694,-0.5767548799514763,0.9681259553491448,2.430124965806802,0.815344748770197,-264.95471687316893,140.90847244262693,-133.78855094909667,-1.7867250686342069,-4.419217214439854,-0.8837091967915045,-2.7965934764255183,-13.885286905774564,-0.4207243783907457,0.9690918911403665,2.425450576345126,0.8130540025730926,-1.0157144444528967,-9.448565100178573,0.40029729569725925
9.4,-6.839086035887401,-15.461024125417074,-0.5827519297599792,0.0,0.0,2.4855406284332275,21.872200393676756,2.0067078113555907,246.18838500976562,43.400001525878906,-122.7533382,49.187432539999996,0.7061717510223389,-0.6593954066435496,-0.22639417648315427,0.09778956696391104,1.4302759170532227,1.3675056099891663,2.1775367061297097,-13.358999633789063,45.271759033203125,16.718879985809327,0.6776022672653198,1.8137505054473877,-1.224112856388092,-267.89979553222656,140.73675689697265,-116.49291687011718,-6.254148542881012,-5.813899596532186,0.9696506063143412,-6.833103954792023,-15.47837201754252,-0.5199404358863831,0.6785796403884887,1.8090468406677247,-1.2264035820961,-0.5848014056682587,-9.6469677289327,-1.5522784789403279
9.5,-1.317049477249384,0.8437690685192744,2.7016961574554443,0.0,0.0,2.4855406284332275,21.476800537109376,2.0171156883239747,244.50253295898438,43.400001525878906,-122.7533382,49.18743106,-0.5076993306477865,0.4230469862620036,-0.08691364868233598,0.03617720864713187,-0.1403264341255029,1.3806267976760864,0.012073278427124023,-21.124299621582033,45.812218856811526,1.4493599206209185,-2.753220578034719,-6.875899235407512,0.9513971507549286,-275.66509399414065,141.2772186279297,-131.76243591308594,-1.9182001948356628,10.57614803314209,2.493547797203064,-1.311067460725705,0.8264211217562357,2.7645077308019004,-2.7523043155670166,-6.880557219187419,0.9491064250469208,0.6012867589791616,-9.732222557067871,0.2082725539803505
9.6,0.7448856711387635,-0.6396014839410783,1.1319247603416442,0.0,0.0,2.4855406284332275,21.081400680541993,2.027523565292358,242.81668090820312,43.400001525878906,-122.7533382,49.18742958,-0.7532214641571044,0.580346405506134,-0.29766238331794737,0.07889536470174784,-1.176288104057312,1.1737409830093384,-2.5158997058868406,-21.20481948852539,41.559299087524415,-20.487459564208983,-1.458898947884639,-2.014837215344111,0.6471099195381006,-275.74561462402346,137.02429809570313,-153.69925537109376,-0.06028875112533568,8.650901985168456,-1.8811519622802735,0.750867772102356,-0.656949469447136,1.1947363704442977,-1.4579571758707364,-2.019469569126765,0.6447937196741501,0.8053104996681213,-9.290346908569337,3.0132009029388427
9.7,0.3283652414878209,-18.47229152917862,1.995215319097042,0.0,0.0,2.4855406284332275,20.68600082397461,2.037931442260742,241.13082885742188,43.400001525878906,-122.7533382,49.1874281,0.1779577930768331,-0.29460476835568744,-0.013190480569998454,0.06876365832674004,-1.6843975683053334,1.249293218056361,-1.6056820650895436,-13.013739752769471,46.28740940093994,-12.132289671897889,-0.5346875515851107,1.273293064399199,-3.609061311591755,-267.55453262329104,141.75240783691407,-145.34408798217774,1.5682469805081685,-9.253937721252441,-0.35375478863716125,0.3343471586704254,-18.48964015642802,2.058026889959971,-0.5337157412008806,1.2686144330284814,-3.6113520481369714,-1.239745778342088,-9.2181978225708,2.3490941723187766
9.8,-0.021111550430456705,-12.11655585716168,-0.3818047530949116,0.0,0.0,2.438252878189087,19.881800842285156,2.0575028896331786,238.1001220703125,43.400001525878906,-122.75333614,49.18742516,0.3869479397932688,-0.5286676983038584,0.10752266769607857,0.07921113690827038,-1.9117938230435052,1.1495034595330558,-1.4056480775276818,-5.296019896864891,45.686864376068115,-16.619754683971404,-0.606208530872016,0.8804199564214231,-0.2574635202234439,-259.8368137359619,141.15186233520507,-149.83155250549316,2.298749436934789,-3.320724805196126,-3.4019620964924493,-0.015129610896110535,-12.133904178937277,-0.3189931412537894,-0.6052263081056122,0.8757517244384597,-0.2597542513500559,-2.319725117335717,-8.795674800872803,3.0202815234661102
9.9,-0.37058834234873433,-5.760820185144742,-2.7588248252868652,0.0,0.0,2.390965127944946,19.0776008605957,2.077074337005615,235.0694152832031,43.400001525878906,-122.75333408,49.187422219999995,0.5959380865097046,-0.7627306282520294,0.2282358159621556,0.08965861548980071,-2.1391900777816772,1.0497137010097504,-1.2056140899658203,2.421699959039688,45.08631935119629,-21.107219696044922,-0.6777295101589212,0.4875468484436472,3.094134271144867,-252.1190948486328,140.5513168334961,-154.3190170288086,3.0292518933614097,2.612488110860189,-6.450169404347737,-0.36460638046264654,-5.778168201446533,-2.69601317246755,-0.6767368750103439,0.4828890158484381,3.091843545436859,-3.3997044563293457,-8.373151779174805,3.691468874613444
10.0,2.143769670277834,-13.371990263462067,-4.126821418603261,0.0,0.0,2.3436773777008058,18.27340087890625,2.096645784378052,232.03870849609376,43.400001525878906,-122.75333202,49.18741928,-0.25000615914662677,0.19798164566357931,-0.09570636351903279,0.047694506123661946,-1.6310784618059795,1.2221428950627644,-1.9512347181638081,-10.961699819564819,44.49095840454102,-21.110879707336426,1.050000990430514,-1.4328862031300862,3.317227323849996,-265.50249633789065,139.9559539794922,-154.3226760864258,3.216945747534434,-4.064741611480713,-6.861713250478108,2.1497518134613833,-13.389338200290998,-4.06400986512502,1.0509681950012844,-1.4375949501991272,3.3149365981419883,-1.0730400482813518,-9.307092189788818,2.7350159287452698
10.1,-2.2596620619297028,-23.240409088134765,2.6624937295913695,0.0,0.0,2.296389627456665,17.469200897216798,2.1162172317504884,229.00800170898438,43.400001525878906,-122.75332996,49.18741634,0.6980940222740173,-0.6543119788169861,-0.19253582805395125,0.13581329588778313,1.1164030611515046,1.4086391925811768,1.243769359588623,-14.395999884605407,45.72925872802735,8.941379854083062,2.521931752562523,11.06773279607296,-2.0042488873004913,-268.9367980957031,141.1942596435547,-124.27041778564453,-1.7280896186828614,-13.526788330078125,3.1307531595230103,-2.2536799252033233,-23.257758140563965,2.7253054380416875,2.5228734761476517,11.063075045744577,-2.0065396229426065,-0.5314363777637482,-9.713465118408203,-0.46813517808914185
10.2,-0.4242773813505967,-1.2624133303761482,1.58060892795523,0.0,0.0,2.2491018772125244,16.665000915527344,2.135788679122925,225.977294921875,43.400001525878906,-122.7533279,49.1874134,0.36540326476097107,-0.3364901890357335,-0.09543583511064448,0.05608797269330044,-0.2728202094634374,1.349345197280248,-0.7701211869716644,-16.998869729042053,45.65239906311035,-2.4442699253559113,-2.2349199295382607,-6.214845960790461,0.8422859724272381,-271.53966217041017,141.1173973083496,-135.65606575012208,-0.08320295438170429,8.339271903038025,0.5299906631310781,-0.4182953064640363,-1.2797613168756168,1.6434205044060946,-2.2339203166352077,-6.219510663639415,0.8399813568050211,-0.34093839675188065,-9.601528803507486,1.0507424312333267
10.3,-3.376746324822307,-10.335049722343683,2.7443432230502367,0.0,0.0,2.2491018772125244,16.34320068359375,2.132119083404541,225.259375,43.400001525878906,-122.75332746000001,49.1874123,-0.1705906093120575,0.16400785495837528,-0.16522080063199002,0.04701763120829123,-0.9102139646808307,1.3167254577080407,-1.378683403134346,-15.939604675769806,45.28517894744873,-10.509384670853615,-0.4308601588180119,-2.1071947778038904,0.4168669266456907,-270.4803977966309,140.75017738342285,-143.72118167877198,-2.8318628054112196,-0.7841065128644296,1.0783161471287408,-3.3707643064359827,-10.35239770139257,2.8071548575535417,-0.42988948063981347,-2.111868775929465,0.4145565204548113,-0.5447475872933865,-9.550786574681599,1.6661513267705836
10.4,-6.329215268294017,-19.40768611431122,3.908077518145243,0.0,0.0,2.2491018772125244,16.021400451660156,2.128449487686157,224.541455078125,43.400001525878906,-122.75332702,49.1874112,-0.7065844833850861,0.6645058989524841,-0.23500576615333554,0.03794728972328202,-1.5476077198982239,1.2841057181358337,-1.9872456192970276,-14.880339622497559,44.91795883178711,-18.57449941635132,1.373199611902237,2.0004564051826796,-0.008552119135856703,-269.42113342285154,140.3829574584961,-151.7862976074219,-5.580522656440735,-9.907484928766886,1.6266416311264038,-6.3232333064079285,-19.425034085909527,3.9708892107009888,1.3741413553555806,1.9957731117804844,-0.010868315895398458,-0.7485567778348923,-9.500044345855713,2.281560222307841
10.5,-6.089135408401489,-14.855719947814942,-1.0261619985103607,0.0,0.0,2.2491018772125244,15.699600219726564,2.1247798919677736,223.82353515625,43.400001525878906,-122.75332658,49.187410099999994,0.6397131323814392,-0.7529778242111206,0.1283204674720764,0.06514068208634848,-2.0880856037139894,1.2437736988067627,-1.1440757870674134,-9.444019824266434,47.73981971740723,-12.54525966644287,-1.1579968929290771,0.09033169100681941,-4.827617009480794,-263.9848114013672,143.20481872558594,-145.7570571899414,-3.558467745780945,-5.725406074523926,-3.3456940174102785,-6.08315327167511,-14.873067665100098,-0.9633504092693329,-1.1569787760575612,0.08559742445747058,-4.829933285713196,-2.5305315494537353,-9.130157279968262,2.3196562051773073
10.6,15.131911357243856,-7.748657782872518,-1.3324034611384075,0.0,0.0,2.2491018772125244,15.37779998779297,2.1211102962493897,223.105615234375,43.400001525878906,-122.75332614,49.187408999999995,-0.37541980544726056,0.5228590468565623,-0.17072987308104834,0.021127718888844016,-2.5764182011286416,1.0845529437065125,-0.9319992562135061,6.010939878225327,46.87727928161621,-15.878299522399903,-0.8771515836318334,-2.010052094856898,2.651282469431559,-248.52985534667968,142.34227600097657,-149.09009704589843,19.711390535036724,0.6739607652028402,-3.185672481854757,15.137893199920654,-7.766005635261536,-1.269591788450877,-0.8762098401784897,-2.0147098799546557,2.6489917039871216,-4.579344034194946,-8.422461907068888,1.853393296400706
10.7,0.6436693668365479,-16.813915992776554,-1.3095220426718395,0.0,0.0,2.2491018772125244,15.055999755859377,2.117440700531006,222.3876953125,43.400001525878906,-122.7533257,49.1874079,-0.22813997169335684,0.21625356872876486,-0.26641547478114563,0.12115643732249733,-0.4615494276707371,1.3236183722813923,-0.24104950825373325,-12.159739565849303,44.913689041137694,-5.754129958152771,1.1326274465430866,6.484431851993907,1.034375311298804,-266.7005386352539,140.37868957519532,-138.96592864990234,1.6511942346890767,-7.251388589541118,-1.8239575425783794,0.6496512492497762,-16.83126373340686,-1.2467104097207387,1.1335853934288025,6.479725350033153,1.0320429144935175,-1.0073890691661898,-9.562370697657267,0.5145595421393712
10.8,-0.03698901583751035,-9.082930378615856,0.4432953149080274,0.0,0.0,2.290605068206787,15.145399856567384,2.1186368465423584,221.14282531738283,43.400001525878906,-122.7533241,49.18740628,-0.0027799035112062997,-0.00814064343770346,-0.18986966166024405,0.08215564304070233,0.22484882222488528,1.373377482096354,0.5715295672416687,-13.868349540233613,45.47519397735596,3.6743348836898795,-0.33472522144967853,-0.38890717968796196,1.1601106034535351,-268.4091453552246,140.94019470214846,-129.53746299743653,0.7024509236216545,0.5570557316144304,0.6295607189337413,-0.03100702290733659,-9.100278257081905,0.5061069379250209,-0.3337626655896506,-0.3935765876914523,1.1577735761124077,-0.7393040076228015,-9.639829516410828,-0.1861412674188614
10.9,-0.7176473985115687,-1.3519447644551594,2.1961126724878945,0.0,0.0,2.33210825920105,15.234799957275392,2.119832992553711,219.89795532226563,43.400001525878906,-122.7533225,49.18740466,0.2225801646709442,-0.23253485560417175,-0.11332384853934245,0.04315484875890733,0.9112470721205076,1.423136591911316,1.3841086427370708,-15.57695951461792,46.03669891357422,13.102799725532531,-1.8020778894424438,-7.262246211369832,1.2858458956082661,-270.1177520751953,141.50169982910157,-120.1089973449707,-0.24629238744576773,8.36550005276998,3.083078980445862,-0.7116652950644493,-1.3692927807569504,2.2589242855707803,-1.8011107246081035,-7.266878525416057,1.2835042377312977,-0.47121894607941317,-9.717288335164389,-0.886842076977094
