time,TotalAcceleration_z,TotalAcceleration_y,TotalAcceleration_x,Location_bearingAccuracy,Location_speedAccuracy,Location_verticalAccuracy,Location_horizontalAccuracy,Location_speed,Location_bearing,Location_altitude,Location_longitude,Location_latitude,Orientation_qz,Orientation_qy,Orientation_qx,Orientation_qw,Orientation_roll,Orientation_pitch,Orientation_yaw,Magnetometer_z,Magnetometer_y,Magnetometer_x,GyroscopeUncalibrated_z,GyroscopeUncalibrated_y,GyroscopeUncalibrated_x,MagnetometerUncalibrated_z,MagnetometerUncalibrated_y,MagnetometerUncalibrated_x,Accelerometer_z,Accelerometer_y,Accelerometer_x,AccelerometerUncalibrated_z,AccelerometerUncalibrated_y,AccelerometerUncalibrated_x,Gyroscope_z,Gyroscope_y,Gyroscope_x,Gravity_z,Gravity_y,Gravity_x
3.1,10.015358448028564,-3.034497936566671,-7.030212640762329,0.0,0.0,0.9903253480499866,11.834274665982118,0.06372073475344504,0.0,40.20000076293945,-122.75320669411765,49.19038700588236,-0.7569146578510602,0.4688448092025338,0.28356015535466594,0.34062014644344646,1.0901918740886631,0.5517587921384609,1.961489654400132,-37.57234001159668,18.093819618225098,15.966139888763427,-0.29680415367086727,1.4661275049050648,0.32044971982638043,-292.9183349609375,113.1196189880371,-116.75765686035156,0.7115833370974569,0.49179085727893945,0.034903920058048155,6.098507245381673,-4.504688064257304,-5.209673523902893,-0.29573513939976687,1.4616478085517883,0.31813353206962347,3.748771830941691,-5.129504597548283,-7.294173240661621
3.2,7.632234053178267,-3.8001830361106177,-5.673056212338534,0.0,0.0,0.9902435658024806,11.834196221594718,0.06414028972971668,0.0,40.20000076293945,-122.75320675294118,49.190386947058826,-0.7377102027336756,0.4749159241716067,0.366490217546622,0.30722108731667197,1.2476588984330494,0.49659493068854016,1.9923241436481476,-33.38895931243896,18.08405933380127,23.20927963256836,0.052992558479309095,2.711997318267822,-0.0033903092145919577,-288.7349517822266,113.10985870361328,-109.51451797485352,0.7000223596890768,-0.0977399150530497,-0.20254810651143393,5.212963501612346,-4.42961319287618,-6.854639371236165,0.05406157225370406,2.7075379848480225,-0.005681043863296487,2.724292735258738,-4.664219299952189,-8.158946990966797
3.3,6.862379688205141,-4.143761544516592,-5.472770575321082,0.0,0.0,0.9901617835549748,11.83411777720732,0.06455984470598833,0.0,40.20000076293945,-122.75320681176471,49.190386888235295,-0.7118867635726929,0.46573613584041595,0.40164336065451295,0.3386772970358531,1.3033852577209473,0.4015850027402242,1.9449890653292339,-28.311319732666014,15.332959938049317,30.963599967956544,0.7089854677518209,1.6421075860659282,0.701273317138354,-283.6573150634766,110.35875778198242,-101.76019744873047,-0.47216025988260907,1.4258071581522624,2.165083885192871,3.550649722417196,-5.501697460810344,-8.95673402150472,0.710054486989975,1.6376024881998699,0.6989316642284393,2.386753817399343,-3.8339269161224365,-8.70284907023112
3.4,6.092525323232015,-4.487340052922566,-5.27248493830363,0.0,0.0,0.9900800013074688,11.834039332819922,0.06497939968225998,0.0,40.20000076293945,-122.75320687058824,49.190386829411764,-0.6995573856613853,0.5255252048373222,0.379818691674507,0.28336196144421893,1.4040418700738386,0.5505647433526588,1.892641030477755,-27.071799659729002,11.062959671020508,34.523559188842775,0.9526952604452769,-0.2621121034026146,0.25511260827382404,-282.4177947998047,106.08875885009766,-98.20023803710937,-0.6288699015523448,-0.22581886883937963,1.3735664757815274,3.156372404098511,-4.018147420883179,-7.739345455169678,0.9537642598152161,-0.26659176995356876,0.2528218552470207,1.4508770802763828,-5.048381166024642,-8.056074807138154
3.5,5.206981499989827,-4.412265300750732,-6.917450825373332,0.0,0.0,0.9899982190599629,11.833960888432523,0.06539895465853163,0.0,40.20000076293945,-122.75320692941176,49.19038677058824,-0.6872280077500776,0.5853142738342285,0.357994022694501,0.2280466258525848,1.50469848242673,0.6995444839650934,1.8402929956262761,-27.01201972961426,10.237019729614257,35.36048011779785,-0.11667525768280029,0.7583128263552984,-0.7147123316923777,-282.35801391601564,105.26281814575195,-97.3633186340332,-0.7855795432220806,-1.8774448958310215,0.5820490663701837,2.0736799438794455,-2.5370898842811584,-6.591528495152791,-0.11560624713699023,0.753833162287871,-0.717003067334493,0.5150003431534226,-6.262835415926847,-7.4093005440451885
3.6,3.544667641321818,-5.484349489212036,-9.019545396169027,0.0,0.0,0.9899164368124569,11.833882444045125,0.06581850963480328,0.0,40.20000076293945,-122.75320698823529,49.19038671176471,-0.7012125520092067,0.614353209733963,0.28336438547932735,0.1966068530455231,1.4536804294947423,0.8618593164014094,1.8217107978734104,-20.566759300231933,17.996219444274903,35.73135948181152,-2.857566547393799,1.7807332754135132,-1.160705065727234,-275.9127532958984,113.02201766967774,-96.99243927001953,-0.32319741492921655,-0.21023451920711622,0.6395032627112938,0.9988040495663881,-6.110571126143138,-6.222435633341472,-2.8564974784851076,1.776304507255554,-1.1629957914352418,0.6559969769564994,-7.294175859653588,-6.203391928564418
3.7,2.5598307739604604,-3.1929499127648096,-7.176075155084783,0.0,0.0,0.989834654564951,11.833803999657727,0.06623806461107493,0.0,40.20000076293945,-122.75320704705882,49.19038665294118,-0.7151970962683359,0.6433921456336975,0.20873474826415375,0.16516708023846144,1.4026623765627544,1.0241741488377254,1.8031286001205444,-17.74734001159668,27.90383949279785,30.295039558410643,-1.793602168560028,-0.9764426598946253,-0.13833552661041418,-273.0933349609375,122.9296371459961,-102.42875747680664,0.13918471336364746,1.4569758574167888,0.6969574590524038,-1.2634103695551555,-9.821839094161987,-7.260721206665039,-1.7925331393877666,-0.9809477627277374,-0.1406517243012786,0.7969936107595762,-8.325516303380331,-4.997483313083649
3.8,1.7763263799080795,-4.643086593259465,-6.730661161018141,0.0,0.0,0.989752872317445,11.833725555270327,0.06665761958734656,0.0,40.20000076293945,-122.75320710588235,49.19038659411765,0.47570956746737164,-0.46516235669453937,-0.005014710943214582,0.04850023624021555,-0.22231101493040728,1.4542850454648335,0.3289967775344848,-19.346759414672853,32.71551952362061,23.194639587402342,-0.8610654671986898,-1.1642836878697078,-0.3032691453893979,-274.6927551269531,127.74131851196289,-109.52915878295899,-1.7150535931189854,1.2654809951782224,1.8091804385185242,1.3840085864067078,-9.745847129821778,-5.418786144256591,-0.8599964380264282,-1.1687633742888768,-0.3055853346983592,0.4228659722333153,-9.732526779174805,-0.013841132322947184
3.9,0.9928219858556986,-6.09322327375412,-6.285247166951497,0.0,0.0,0.9896710900699391,11.833647110882929,0.06707717456361821,0.0,40.20000076293945,-122.75320716470588,49.19038653529412,-0.04161627771276416,0.06323798226587701,0.00019477138994262663,0.06785826119911767,0.44443752255403635,1.4408640256433776,0.554004203189503,-20.602139472961426,35.41049919128418,16.900659561157227,-3.2687144577503204,0.5183955132961273,-0.043193263069648914,-275.94812927246096,130.43629760742186,-115.82313766479493,-0.6390875209913109,-0.9360437609932639,1.980630781162869,0.7473582749565443,-4.5353959401448565,-3.2978080908457437,-3.2676454186439514,0.5138903905948004,-0.04548400683173288,0.007065137495484319,-9.714706464247271,-0.5701280346874034
4.0,-1.2693924109141033,-9.80449120203654,-7.323532899220784,0.0,0.0,0.9895893078224332,11.83356866649553,0.06749672953988986,0.0,40.20000076293945,-122.75320722352942,49.19038647647059,-0.5589421228928999,0.5916383212262933,0.005404253723099836,0.0872162861580198,1.11118606003848,1.4274430058219216,0.7790116288445212,-19.63589973449707,39.23885917663574,-0.0012200295925140381,-3.796756456295649,-0.050065492590268455,-0.7608072062333425,-274.9818969726563,134.26465911865233,-132.7250183105469,0.43687855113636365,-3.1375685171647505,2.1520811238072137,-0.691625447322925,-6.266603072484334,1.1563315242528915,-3.7956621249516806,-0.054570635159810386,-0.76312339057525,-0.40873569724234665,-9.696886149319736,-1.1264149370518597
4.1,1.3780265510082246,-9.728498840332032,-5.4815977096557615,0.0,0.0,0.9895075255749273,11.833490222108132,0.06791628451616151,0.0,40.20000076293945,-122.75320728235295,49.19038641764706,-0.6231122556509394,0.6556612995989395,0.010381700820289535,0.0918163360011848,1.4533605688449107,1.4166496387033751,1.0049880305022905,-15.171919536590575,41.02127952575684,-5.203299903869629,3.4971119165420532,-2.905427801609039,-0.38453968018293383,-270.5179168701172,136.04707794189454,-137.92709503173828,0.2138346838905956,-1.6447783130587954,1.2063731932730386,1.2541381518046062,-18.876280228296917,2.6644079784552255,3.498180937767029,-2.9098871409893037,-0.38683043271303175,-0.38267141196763876,-9.686904314792518,-1.347865135606491
4.2,0.021884339551130932,-5.383651574452718,-1.1335498541593552,0.0,0.0,0.9894257433274213,11.833411777720734,0.06833583949243316,0.0,40.20000076293945,-122.75320734117648,49.19038635882353,-0.6872823884089788,0.7196842779715856,0.015359147917479233,0.09641638584434982,1.7955350776513417,1.4058562715848286,1.2309644321600597,-12.64041976928711,42.3169189453125,0.8564399801194668,0.042149697585652283,1.3155492146809895,0.19929478069146475,-267.9864166259766,137.34271850585938,-131.8673538208008,-0.009209183355172476,-0.15198810895284018,0.26066526273886365,-1.800898124774297,-7.995716571807861,-0.13758729894955957,0.04321871077020963,1.3109931747118633,0.19700404753287634,-0.3566071266929309,-9.676922480265299,-1.5693153341611226
4.3,0.6350202249983946,-12.121291597684223,0.7340232953429222,0.0,0.0,0.9893439610799154,11.833333333333336,0.06875539446870481,0.0,40.20000076293945,-122.75320740000001,49.1903863,-0.6845768570899964,0.7214681506156921,0.0062411108752711995,0.10382435023784634,1.8250039577484132,1.4064358949661255,1.1780073165893554,-14.56069974899292,41.88869934082031,1.4554599523544312,-0.052712577705581985,-0.4473315353194873,-0.06653340191890796,-269.9066955566406,136.91449584960938,-131.2683364868164,0.0014725565910339578,-0.04966640472412108,0.46734321117401123,-0.19716858863830572,-9.799326515197754,-1.56239355802536,-0.051643566228449324,-0.45183665802081424,-0.06887505801084141,-0.4016557812690735,-9.677838325500488,-1.55368013381958
4.4,1.2481561104456584,-18.85893162091573,2.6015964448451996,0.0,0.0,0.9892621788324094,11.833254888945937,0.06917494944497646,0.0,40.20000076293945,-122.75320745882354,49.190386241176476,-0.6842254911859831,0.7216867978374164,0.004373050888534579,0.10473312741766369,1.830355339248975,1.4074632267157237,1.1687115987141927,-14.078799819946289,42.03265914916992,1.0113799750804902,0.05337435022617377,0.2330959973235925,0.08152506003777187,-269.4247985839844,137.05845794677734,-131.71241455078126,-0.06555725435415902,-0.044683098793029764,0.4387783780694008,-0.2237289231270552,-9.839087327321371,-1.064506987730662,0.05446881862978139,0.22861631959676743,0.0792088620364666,-0.4072979802886645,-9.679486672083538,-1.5418800175189973
4.5,-1.8068802058696747,-7.978368679682414,-0.2003989010117948,0.0,0.0,0.9891803965849035,11.833176444558537,0.0695945044212481,0.0,40.20000076293945,-122.75320751764706,49.190386182352945,-0.6838741252819697,0.7219054450591406,0.0025049909017979583,0.10564190459748103,1.8357067207495372,1.4084905584653218,1.15941588083903,-14.072699737548827,42.077799224853514,1.1809599995613098,-0.05891795307397836,-0.17739527095109223,-0.06020076936110852,-269.4186950683594,137.10359802246094,-131.54283599853517,-0.132587065299352,-0.03969979286193845,0.41021354496479034,-0.4381856396794319,-9.710473219553629,-1.0044870177904766,-0.05784893780946728,-0.18185458183288575,-0.06249151597730812,-0.4129401793082555,-9.681135018666586,-1.5300799012184143
4.6,-0.2031506359577179,-9.781978416442872,-1.625205159187317,0.0,0.0,0.9890986143373975,11.83309800017114,0.07001405939751974,0.0,40.20000076293945,-122.75320757647059,49.190386123529414,-0.6830441777904828,0.7223414977391561,4.0760144959962365e-05,0.10794143999616299,1.8431062350670497,1.4080938001473744,1.1452339539925258,-14.250819683074951,42.21931915283203,0.9808799743652343,0.007508552012344217,0.09603311059375601,0.013031792167263733,-269.59681701660156,137.2451156616211,-131.7429168701172,-0.07763842493295668,-0.044325153032938616,0.36528927087783813,-0.6546363979578018,-9.773085276285807,-1.1211371024449666,0.008577566205834367,0.09150252180794875,0.010690141702070832,-0.4256904013454914,-9.68047285079956,-1.530644173423449
4.7,-0.3369393351798256,-9.757432142893473,-1.0973086009422939,0.0,0.0,0.9890168320898917,11.833019555783741,0.07043361437379139,0.0,40.20000076293945,-122.75320763529412,49.19038606470588,-0.682214230298996,0.7227775504191717,-0.0024234706118780335,0.11024097539484495,1.8505057493845622,1.407697041829427,1.1310520271460216,-14.326459884643555,42.003379821777344,0.905239999294281,0.0074830994320412006,0.06146831686298049,0.0041742452109853325,-269.6724578857422,137.0291763305664,-131.8185546875,-0.022689784566561372,-0.04895051320393879,0.3203649967908859,-0.4193421691656113,-9.734720420837402,-0.9682556867599488,0.008552113315090483,0.05693773273378605,0.0018835008765260345,-0.4384406233827273,-9.679810682932535,-1.531208445628484
4.8,-0.4987788897318145,-9.756584644317627,-1.140628658235073,0.0,0.0,0.9889350498423857,11.832941111396343,0.07085316935006304,0.0,40.20000076293945,-122.75320769411765,49.19038600588235,-0.6815728425979615,0.7231401801109314,-0.0030438715126365,0.1118662223219871,1.854017972946167,1.4058659553527832,1.1243319988250733,-14.416739749908448,42.0509593963623,1.1614399790763854,-0.013948090064028867,-0.08386670728214084,-0.021227567611883064,-269.7627319335937,137.07675476074218,-131.5623580932617,-0.1642932593822479,-0.0797624588012695,0.7614354491233826,-0.6068796465794245,-9.658628463745117,-1.3109677235285442,-0.012879075172046768,-0.08832093488308597,-0.02359466984247165,-0.4480136811733246,-9.676934814453125,-1.5466356515884399
4.9,-0.6606184442838033,-9.755737145741781,-1.1839487155278523,0.0,0.0,0.9888532675948798,11.832862667008945,0.07127272432633469,0.0,40.20000076293945,-122.75320775294118,49.19038594705883,-0.6817243536313375,0.7229795033733051,-0.004167055848908258,0.1119336598863204,1.8539262066284814,1.4074229488770167,1.1227391997973124,-13.872619724273681,42.207119369506835,1.1565599858760833,0.051618113492925936,-0.07740171564122038,-0.03929899788151182,-269.21861877441404,137.23291625976563,-131.5672348022461,-0.19280167793234188,-0.03248675664265949,0.4887360980113347,-0.34476586182912183,-9.822935740152994,-1.0364910264809926,0.05268712714314455,-0.08188139554113147,-0.041640647997458737,-0.44426598300536474,-9.679384994506837,-1.5322714120149612
5.0,-0.42532422542572024,-9.71737232208252,-1.0310672879219056,0.0,0.0,0.9887714853473738,11.832784222621546,0.07169227930260634,0.0,40.20000076293945,-122.75320781176471,49.1903858882353,-0.6818758646647135,0.7228188266356786,-0.005290240185180016,0.11200109745065367,1.853834440310796,1.4089799424012501,1.1211464007695515,-13.000319862365723,42.030219650268556,1.8629399418830872,-0.033108896948397144,0.12892311066389078,0.051526483148336355,-268.3463134765625,137.05601501464844,-130.86085357666016,-0.22131009648243585,0.014788945515950525,0.2160367468992869,-0.595414030055205,-9.768299579620361,-0.7590232839186987,-0.032039882242679577,0.12437216490507122,0.04920519590377802,-0.4405182848374049,-9.681835174560547,-1.5179071724414825
5.1,-0.612861712773641,-9.64128065109253,-1.373779296875,0.0,0.0,0.9886897030998679,11.832705778234146,0.07211183427887798,0.0,40.20000076293945,-122.75320787058824,49.19038582941177,-0.6809526772210093,0.7233795507839231,-0.008362876615578722,0.1137430035142284,1.8669204580964465,1.4099437409278117,1.1012106935183206,-13.509059619903564,42.094878387451175,1.4639999628067017,-0.004734205392499766,-0.051338134061855535,-0.016544267147158568,-268.8550537109375,137.12067718505858,-131.25979614257812,-0.1101511221266154,-0.018689776911880028,0.2946987310142228,-0.5604190081357956,-9.710672537485758,-1.5361921389897664,-0.003665191276619834,-0.055792359790454264,-0.018860464294751467,-0.4576388870676359,-9.683333266865123,-1.5029907538132234
5.2,-0.4760720059275627,-9.77826976776123,-0.9605687409639359,0.0,0.0,0.9886079208523619,11.832627333846748,0.07253138925514963,0.0,40.20000076293945,-122.75320792941177,49.190385770588236,-0.6800294897773049,0.7239402749321677,-0.011435513045977426,0.11548490957780314,1.8800064758820967,1.4109075394543735,1.0812749862670898,-13.785999584197999,42.24859962463379,1.0223599672317505,0.0006363179612284171,-0.0538579520458976,-0.001654426800087084,-269.1319946289062,137.27439727783204,-131.7014358520508,0.001007852229205055,-0.05216849933971057,0.3733607151291587,-0.749192762374878,-9.6502534866333,-0.8930014133453369,0.0017053321838224004,-0.05833763070404525,-0.003945170591274884,-0.4747594892978668,-9.6848313591697,-1.4880743351849643
5.3,-0.52123653019468,-9.735797087351482,-1.2797862365841866,0.0,0.0,0.988526138604856,11.83254888945935,0.07295094423142127,0.0,40.20000076293945,-122.7532079882353,49.190385711764705,-0.6800267100334167,0.7239050467809042,-0.011896245802442184,0.11568766087293621,1.8801304697990417,1.4112658500671387,1.080209195613861,-13.607879734039306,42.270559310913086,1.0162599861621857,-0.0324013111336777,-0.069511375700434,-0.04214970100050169,-268.95387573242186,137.29635925292968,-131.70753631591796,0.00048059721787769893,-0.09349075953165686,0.5246967176596323,-0.4475575387477875,-9.790433406829834,-0.876371294260025,-0.03133229686257733,-0.07396559976041316,-0.04444044735282657,-0.4737246682246526,-9.6854198773702,-1.4846926132837932
5.4,-0.5664010544617971,-9.693324406941732,-1.5990037322044373,0.0,0.0,0.9884443563573501,11.832470445071952,0.07337049920769292,0.0,40.20000076293945,-122.75320804705883,49.19038565294118,-0.6800357401371002,0.7238231971859932,-0.012546420563012313,0.11607074147711192,1.879573086897532,1.4116638004779816,1.0792971700429916,-13.581039714813233,42.32057914733887,0.7661599814891815,-0.0007941255578771206,0.03539964144874824,0.02715296074748036,-268.9270324707031,137.34637756347655,-131.9576400756836,-0.04546190177400907,-0.06269367535909015,0.425623004635175,-0.5279165059328079,-9.732706228892008,-1.2183455228805542,0.00027488993655425955,0.03090978208929298,0.02483167238533492,-0.4718250545362631,-9.6860324939092,-1.4812819560368857
5.5,-0.7551748156547546,-9.632905960083008,-0.9558130025863647,0.0,0.0,0.9883625741098442,11.832392000684553,0.07379005418396457,0.0,40.20000076293945,-122.75320810588235,49.19038559411765,-0.6800447702407837,0.7237413475910822,-0.013196595323582442,0.11645382208128764,1.8790157039960225,1.4120617508888245,1.0783851444721222,-13.703039836883544,42.326678085327146,0.7990999788045883,0.01511891457873085,0.017206038037935866,0.010613783573110899,-269.0490386962891,137.35247497558595,-131.92469787597656,-0.09140440076589584,-0.03189659118652343,0.3265492916107177,-0.4730809728304545,-9.7845508257548,-0.9004989266395569,0.016187928573344817,0.012726359340983116,0.0083230387729903,-0.4699254408478737,-9.686645110448202,-1.477871298789978
5.6,-0.45353958507378894,-9.773085276285807,-0.9391828775405884,0.0,0.0,0.9882807918623382,11.832313556297155,0.07420960916023622,0.0,40.20000076293945,-122.75320816470588,49.19038553529412,-0.6797834201292559,0.7237816780354037,-0.01418697714071829,0.11760046454428719,1.8794241538553527,1.4116916250098837,1.0749285857785833,-13.699379825592041,42.28397903442383,0.9113399803638458,-0.003563380606162033,-0.019064085713277234,-0.019089538448800618,-269.0453674316406,137.30977935791014,-131.8124572753906,-0.07107048176906325,-0.030333735726096385,0.3219244480133056,-0.625244551897049,-9.691529846191406,-1.1761919736862183,-0.0024943663738667666,-0.023594669648446132,-0.021431188719968002,-0.47162208469076594,-9.686071197191875,-1.4811001745137302
5.7,-0.5064807881911596,-9.741280714670816,-1.1222338130076726,0.0,0.0,0.9881990096148323,11.832235111909755,0.07462916413650786,0.0,40.20000076293945,-122.75320822352941,49.19038547647059,-0.6795220700177279,0.7238220084797252,-0.015177358957854136,0.11874710700728673,1.8798326037146829,1.4113214991309426,1.0714720270850442,-13.849439716339111,42.364498901367185,0.6880799949169158,0.009366600463787634,-0.03588833357207475,0.008628471482855567,-269.1954315185547,137.39029846191406,-132.03571624755858,-0.05073656277223066,-0.028770880265669343,0.3172996044158935,-0.49102714161078137,-9.777272701263428,-1.02662060658137,0.010435614734888,-0.040368012113807035,0.006312274364366499,-0.47331872853365814,-9.685497283935547,-1.4843290502374822
5.8,-0.5688536937038104,-9.7077313264211,-1.1806186879674594,0.0,0.0,0.9881172273673263,11.832156667522357,0.07504871911277951,0.0,40.20000076293945,-122.75320828235294,49.190385417647065,-0.679574211438497,0.7236771782239279,-0.015060480839262334,0.11934309080243106,1.8754209478696187,1.4104996522267659,1.0751945972442627,-13.776239585876464,42.12537956237793,0.8918199717998505,0.005828672534941366,-0.0075085524392003505,-0.005523239863881217,-269.1222351074219,137.15117645263672,-131.83197784423828,-0.08511387805143988,-0.04654534657796222,0.39332108696301776,-0.5348955591519674,-9.725029468536377,-1.0841480592886608,0.0068976869418596,-0.01201368301796415,-0.007839437292811132,-0.46918703615665436,-9.684209823608397,-1.4939950108528137
5.9,-0.6312265992164612,-9.674181938171387,-1.239003562927246,0.0,0.0,0.9880354451198204,11.832078223134959,0.07546827408905116,0.0,40.20000076293945,-122.75320834117647,49.190385358823534,-0.6799206634362539,0.7236419220765432,-0.01343508573093755,0.11774289608001703,1.8745165268580117,1.4106763899326324,1.0806968659162521,-13.688399696350098,42.210778427124026,0.6246399849653244,0.01084285797551266,0.00842994060367346,0.00613919571042056,-269.0343963623047,137.23657684326173,-132.09915771484376,-0.09197660038868583,-0.008268992106119782,0.25112738460302353,-0.502991259098053,-9.726325511932373,-1.1160523295402527,0.01191187221556894,0.0039706241339445,0.00384845114895142,-0.4674838396410147,-9.684475183486938,-1.4928033699591956
6.0,-0.49700920283794403,-9.759924729665121,-1.0894322395324707,0.0,0.0,0.9879536628723145,11.83199977874756,0.0758878290653228,0.0,40.20000076293945,-122.7532084,49.1903853,-0.6802671154340109,0.7236066659291586,-0.011809690622612766,0.11614270135760302,1.873612105846405,1.410853127638499,1.0861991345882416,-13.840899753570557,42.211999130249026,0.9698999881744385,0.022143865159402237,0.04619668377563357,0.017002416153748767,-269.18689880371096,137.23779907226563,-131.75389556884767,-0.09883932272593177,0.03000736236572266,0.10893368224302928,-0.5517450173695883,-9.752347628275553,-1.0205388565858204,0.023212879120061734,0.041717006514469766,0.014686218715117584,-0.4657806431253751,-9.684740543365479,-1.4916117290655773
6.1,-0.54087762037913,-9.70768149693807,-1.146959662437439,0.0,0.0,0.988952616850535,11.863916436831158,0.07682660780847066,0.0,40.20000076293945,-122.75320841666667,49.190385175,-0.6797477485555592,0.7236723484414997,-0.01424309155184093,0.11842003109102896,1.8755470758134667,1.4107342913295284,1.0775495672767814,-13.770139694213867,42.31447906494141,1.4774199843406677,-0.0018835012257719839,0.08050694937507309,0.02275473042391235,-269.1161376953125,137.34027862548828,-131.24637756347656,-0.08756585374022974,-0.024598121643066396,0.3523461170720331,-0.5569294810295105,-9.699067497253418,-1.090528929233551,-0.0008144869158665004,0.07602727040648456,0.02046398554618153,-0.4692525160357808,-9.684537779201161,-1.4918150409604565
6.2,-0.5333501994609833,-9.721988519032797,-1.1311072061459224,0.0,0.0,0.9899515708287557,11.895833094914757,0.0777653865516185,0.0,40.20000076293945,-122.75320843333334,49.19038505,-0.6792283816771074,0.7237380309538408,-0.016676492481069092,0.1206973608244549,1.8774820457805286,1.4106154550205579,1.068899999965321,-13.684739780426025,41.924079513549806,1.0882399559020997,-0.017129679520924816,-0.05660684639587996,-0.007686720889372049,-269.0307312011719,136.9498779296875,-131.63555755615235,-0.0762923847545277,-0.07920360565185545,0.595758551901037,-0.5498506923516592,-9.654341538747152,-1.517448365688324,-0.01606066556026532,-0.06111197755672038,-0.010002918230990483,-0.4727243889461864,-9.684335015036844,-1.4920183528553357
6.3,-0.5481308668851852,-9.701853958765666,-1.142223868270715,0.0,0.0,0.9909505248069763,11.927749752998354,0.07870416529476636,0.0,40.20000076293945,-122.75320845,49.190384925000004,-0.6805568834145864,0.7237839102745056,-0.010596604241679033,0.11338792492945986,1.880806823571523,1.4129286607106526,1.08467040459315,-13.68717975616455,42.316918563842776,1.1211799800395965,0.01860084757208822,-0.1569618210196495,-0.033200525492429675,-269.0331756591797,137.34272003173828,-131.6026184082031,0.08196298281351723,-0.06073125203450519,0.11202891667683916,-0.5340979546308517,-9.711769104003906,-1.1431710223356883,0.01966986060142516,-0.16145168542861937,-0.035521813482046076,-0.47036154568195343,-9.68796968460083,-1.469033936659495
6.4,-0.5629115343093872,-9.681719398498535,-1.1533405303955078,0.0,0.0,0.9919494787851969,11.959666411081951,0.0796429440379142,0.0,40.20000076293945,-122.75320846666668,49.190384800000004,-0.6812298918763797,0.7235902672012646,-0.007619118182143751,0.11073854317267733,1.876506562034289,1.412966842452685,1.0969818830490112,-13.556639575958252,42.218099212646486,1.2285399913787842,0.00537052385819455,0.131590557595094,0.023492859366039415,-268.9026306152344,137.243896484375,-131.49525756835936,-0.02934324368834497,-0.03909885883331298,0.20740712930758792,-0.5446662505467733,-9.830214023590088,-0.6049853265285492,0.0064395370427519005,0.12713632980982456,0.021202114876359684,-0.4641151850422224,-9.688017010688782,-1.4706932703653972
6.5,-0.5558327585458755,-9.636993249257406,-1.5802599589029949,0.0,0.0,0.9929484327634176,11.991583069165548,0.08058172278106206,0.0,40.20000076293945,-122.75320848333334,49.190384675000004,-0.6819029003381729,0.7233966241280237,-0.004641632122608467,0.1080891614158948,1.872206300497055,1.4130050241947174,1.1092933615048726,-13.727439689636231,42.06681938171387,1.357859992980957,0.0009926559869199998,0.20794870952765143,0.05032002460211512,-269.0734344482422,137.09261779785157,-131.36593780517578,-0.14064947019020715,-0.017466465632120773,0.30278534193833667,-0.37100714445114136,-9.778508949279786,-1.3227523565292358,0.002061670258020367,0.20349448174238202,0.048003826756030266,-0.45786882440249127,-9.688064336776733,-1.4723526040712993
6.6,-0.5400800108909607,-9.694421291351318,-1.2059826056162517,0.0,0.0,0.9939473867416382,12.023499727249147,0.0815205015242099,0.0,40.20000076293945,-122.7532085,49.190384550000005,-0.6824297545985742,0.7231005608583941,-0.0027735326424810428,0.10677072552568981,1.8658255731517617,1.4127006896517493,1.120206333471067,-13.861639785766602,42.01923866271973,1.751919949054718,0.005854125396581317,0.07600181611875688,0.016009759875790484,-269.20762939453124,137.04503936767577,-130.9718765258789,-0.11389206609491143,-0.015111059853524882,0.2694413415861852,-0.6000002721945444,-9.660622755686441,-1.2469597061475117,0.006923139366942066,0.07149668472508587,0.013668110225504867,-0.4494884443102461,-9.687582763758574,-1.4780369951869503
6.7,-0.471712356263941,-9.789363687688654,-0.9940546588464216,0.0,0.0,0.9949463407198588,12.055416385332745,0.08245928026735776,0.0,40.20000076293945,-122.75320851666667,49.190384425000005,-0.6829566088589755,0.7228044975887645,-0.000905433162353618,0.10545228963548481,1.8594448458064685,1.4123963551087813,1.1311193054372615,-14.006819725036621,42.14001960754395,1.9166199326515199,0.01020654007637245,0.013693562553574632,-0.009621127615294716,-269.3528167724609,137.1658187866211,-130.8071762084961,-0.08713466199961571,-0.012755654074928992,0.23609734123403373,-0.5963113456964493,-9.766804218292236,-1.0040882031122844,0.011275554463888135,0.009213884205867816,-0.011937324850199084,-0.4411080642180009,-9.687101190740412,-1.4837213863026013
6.8,-0.5388473498098778,-9.716319156415535,-1.1519129791043021,0.0,0.0,0.9959452946980795,12.087333043416342,0.0833980590105056,0.0,40.20000076293945,-122.75320853333334,49.190384300000005,-0.6830995778242747,0.7225778698921204,-0.0004287713018129,0.10609414428472513,1.8527173797289531,1.4111046592394512,1.1376044750213623,-14.226419830322266,42.10463943481445,1.7897399425506593,0.02076941840350622,0.10418306738138194,0.06169738993048664,-269.5724151611328,137.13043823242188,-130.9340576171875,0.07215816030899684,0.007193724314371731,0.27478237946828205,-0.5763711432615916,-9.748259862263998,-1.0134600698947906,0.02183843236416572,0.0997237510979175,0.05940664485096928,-0.4344350794951121,-9.685107231140137,-1.498686691125234
6.9,-0.6059823433558146,-9.643274625142416,-1.3097712993621826,0.0,0.0,0.9969442486763,12.11924970149994,0.08433683775365346,0.0,40.20000076293945,-122.75320855,49.190384175000005,-0.6825264823256116,0.7227896831252358,-0.003165224460231368,0.10819492285901845,1.8578242018367306,1.4115441342194877,1.1256158568642356,-14.326459693908692,41.97531967163086,2.1166999340057373,0.01519527286291115,-0.010104729095473898,0.0009672030961761831,-269.6724517822266,137.0011184692383,-130.6070983886719,0.04448853489575964,0.008902585867679464,0.19184728824731073,-0.43001016477743786,-9.699705441792807,-1.3318052291870117,0.016264287134011516,-0.014584406938714283,-0.00134899420663715,-0.44074987778157904,-9.68579643422907,-1.4923264483610788
7.0,-0.6022934019565582,-9.749456087748209,-1.066899796326955,0.0,0.0,0.9979432026545206,12.151166359583538,0.08527561649680131,0.0,40.20000076293945,-122.75320856666667,49.190384050000006,-0.6819533868269487,0.7230014963583513,-0.005901677618649836,0.11029570143331177,1.862931023944508,1.411983609199524,1.113627238707109,-14.198359870910645,41.98507957458496,1.9288199543952942,-0.0016544270329177495,-0.009264790142575901,0.00244346084461235,-269.5443542480469,137.01087799072266,-130.79497680664062,0.01681890948252244,0.010611447420987198,0.10891219702633942,-0.3571287840604782,-9.688778305053711,-1.1313265323638917,-0.0005854122961560839,-0.013769921070585648,7.635822597270037e-05,-0.4470646760680459,-9.686485637318004,-1.4859662055969238
7.1,-0.5823532193899155,-9.73091173171997,-1.0762716730435689,0.0,0.0,0.9989421566327413,12.183083017667135,0.08621439523994916,0.0,40.20000076293945,-122.75320858333333,49.190383925000006,-0.6804458828586522,0.7239909650701466,-0.009999016963058313,0.11268537567759099,1.884906928196098,1.4128263940413794,1.0824194667917308,-14.250819873809814,42.00703887939453,1.8580599427223206,-0.002647082675442417,-0.10265081313749151,-0.03179044462740415,-269.59681701660156,137.0328399658203,-130.86573638916016,-0.012138147584416642,-0.009619001186255258,0.212495705620809,-0.33888350427150726,-9.717751344045004,-1.3983057339986165,-0.0015780684479978163,-0.10713049272696173,-0.03408119082450862,-0.4767453686305971,-9.687788302248174,-1.4676856994628906
7.2,-0.402864319357005,-9.677390445362438,-1.3034901293841274,0.0,0.0,0.9999411106109619,12.214999675750734,0.08715317398309701,0.0,40.20000076293945,-122.7532086,49.1903838,-0.6789383788903555,0.7249804337819418,-0.014096356307466792,0.11507504992187019,1.9068828324476879,1.4136691788832347,1.051211694876353,-14.366719722747803,42.15587959289551,1.5213399648666381,-0.03338378611952062,-0.12476922571659084,-0.0384234238415956,-269.71271362304685,137.18168029785156,-131.20245513916015,-0.04109520465135572,-0.029849449793497716,0.31607921421527857,-0.5221338421106339,-9.668100198109945,-1.238584836324056,-0.03231477215886108,-0.1293201684951782,-0.0407141681760549,-0.5064260611931483,-9.689090967178345,-1.4494051933288574
7.3,-0.37386493870254717,-9.688896829431707,-1.3823037282987074,0.0,0.0,1.0009400645891826,12.246916333834331,0.08809195272624484,0.0,40.20000076293945,-122.75320861666667,49.190383675,-0.6779798467954,0.7261445919672648,-0.015250558344026367,0.11324441805481907,1.9363950888315837,1.416221797466278,1.0226818521817524,-13.947039890289307,42.04851951599121,1.1992599725723267,-0.02069306001067155,-0.07737626445790126,-0.04937827338774994,-269.29303283691405,137.0743179321289,-131.5245391845703,-0.0377418299516042,-0.03389072418212887,0.21732451518376664,-0.5378865847984949,-9.724431355794271,-1.1704890727996826,-0.019624045739571185,-0.08183049100140727,-0.05166901834309096,-0.5401882231235504,-9.692975838979086,-1.4108200271924336
7.4,-0.3448655580480893,-9.700403213500977,-1.4611173272132874,0.0,0.0,1.001939018567403,12.278832991917929,0.0890307314693927,0.0,40.20000076293945,-122.75320863333333,49.19038355,-0.6776358069795552,0.726770691799395,-0.014880713061288405,0.11129754629324778,1.9526916074030327,1.4175849746574056,1.0096940605929403,-13.798199558258057,42.304718780517575,1.035779994726181,-0.009112073409293433,0.017409659146020797,-0.016722436024186483,-269.1441925048828,137.33051605224608,-131.68801574707032,-0.0634476276058139,-0.0284371809525923,0.20653942407983716,-0.5686941792567571,-9.74736245473226,-0.9368897577126821,-0.008043059060582867,0.012980886424581166,-0.01901318057207385,-0.5578613863749937,-9.695012533303464,-1.3894394356192965
7.5,-0.5281158884366354,-9.650752067565918,-1.301396409670512,0.0,0.0,1.0029379725456238,12.310749650001526,0.08996951021254054,0.0,40.20000076293945,-122.75320865,49.190383425,-0.6772917671637102,0.7273967916315253,-0.014510867778550445,0.10935067453167652,1.9689881259744817,1.418948151848533,0.9967062690041282,-13.678639793395996,42.34009857177735,1.0382199823856353,-0.02947424848874405,0.04449135158210988,-0.0083484916637341,-269.0246337890625,137.36589660644532,-131.68557891845703,-0.0891534252600236,-0.022983637723055728,0.19575433297590772,-0.5478367328643798,-9.743693351745605,-1.1492727279663086,-0.028405233596761965,0.0400371262803673,-0.01066468899565125,-0.5755345496264371,-9.697049227627842,-1.3680588440461592
7.6,-0.5438686509927114,-9.707083225250244,-1.2333006858825684,0.0,0.0,1.0039369265238445,12.342666308085125,0.0909082889556884,0.0,40.20000076293945,-122.75320866666667,49.1903833,-0.676598874908505,0.7278164006543882,-0.017009068266347457,0.11043626662682399,1.9819179899764783,1.4199509263941736,0.9786792729388584,-13.723779678344727,42.27421913146973,1.2041399896144866,-0.019191349701334966,0.06126469311614827,-0.022627466707490333,-269.069775390625,137.30001983642578,-131.51965942382813,-0.12708053060553287,-0.03196506066755811,0.2624976578535455,-0.614556610584259,-9.730413436889648,-1.0670992136001587,-0.018122335430234598,0.05675956327468152,-0.024918211235975166,-0.589442877606912,-9.69851363066471,-1.351579071897449
7.7,-0.5651955821297385,-9.728346651250666,-1.0962390628728,0.0,0.0,1.004935880502065,12.374582966168722,0.09184706769883624,0.0,40.20000076293945,-122.75320868333333,49.190383175,-0.6759059826532999,0.7282360096772512,-0.019507268754144467,0.11152185872197147,1.9948478539784749,1.4209537009398143,0.9606522768735886,-13.239439582824707,42.35107917785645,0.9137799978256226,-0.03686571754515168,-0.018600846268236597,-0.00968221407383672,-268.58543701171874,137.3768768310547,-131.81001892089844,-0.16500763595104215,-0.0409464836120605,0.32924098273118335,-0.7080760995546976,-9.741480032602945,-1.1659028728802998,-0.0357967043295502,-0.02306016292423008,-0.01197295896708958,-0.6033512055873871,-9.699978033701578,-1.3350992997487385
7.8,-0.5928671319376339,-9.720705978798144,-1.1130749447779222,0.0,0.0,1.0059348344802856,12.40649962425232,0.0927858464419841,0.0,40.20000076293945,-122.7532087,49.19038305,-0.6761988997459412,0.7276710867881775,-0.021061621295909033,0.11316297203302378,1.985089619954427,1.4214418927828472,0.9658623039722443,-13.468799686431884,42.42549934387207,0.6258599877357482,-0.004174245860970816,-0.08419759447375928,-0.017893260689258218,-268.81479797363284,137.4512969970703,-132.09793701171876,-0.04137085874875385,-0.040338993072509745,0.24246250589688614,-0.7931209901968638,-9.735498110453287,-0.9747761189937592,-0.003105231711136433,-0.08872817705074942,-0.0202349115473528,-0.5885033706823984,-9.700685183207193,-1.3365561763445537
7.9,-0.6205386817455292,-9.713065306345621,-1.1299108266830444,0.0,0.0,1.0069337884585063,12.438416282335918,0.09372462518513194,0.0,40.20000076293945,-122.75320871666666,49.190382925,-0.676716536283493,0.727176609364423,-0.020266185782736847,0.11338679052212017,1.9725294239593274,1.4208556639425682,0.9792327596382662,-13.46635980606079,42.4474594116211,0.8137399792671204,0.0005854125677918166,-0.04828380653634664,-0.007355835754424282,-268.812353515625,137.47325744628907,-131.9100570678711,0.003141110142072065,-0.027814539996060445,0.23713415364424384,-0.7490731239318847,-9.787123489379884,-0.8852247476577759,0.0016544266448666335,-0.0527380329246322,-0.009646580476934667,-0.5736887504657109,-9.699831543546734,-1.3489881817138558
8.0,-0.7140581607818604,-9.724132061004639,-1.228714406490326,0.0,0.0,1.0079327424367268,12.470332940419516,0.0946634039282798,0.0,40.20000076293945,-122.75320873333334,49.1903828,-0.6772341728210449,0.7266821319406683,-0.019470750269564664,0.11361060901121657,1.9599692279642278,1.4202694351022893,0.992603215304288,-13.319959735870361,42.343759536743164,0.684419971704483,0.013617204502224851,0.020514891172448767,0.0402662015209595,-268.66595458984375,137.36955718994142,-132.03937530517578,0.04765307903289797,-0.015290086919611144,0.23180580139160153,-0.627218633890152,-9.759525934855143,-1.0113663772741954,0.014711671198407732,0.016060664827818934,0.03795000320921337,-0.5588741302490234,-9.698977903886275,-1.3614201870831577
8.1,-0.7991030712922415,-9.71815013885498,-1.0375877022743225,0.0,0.0,1.0089316964149475,12.502249598503113,0.09560218267142764,0.0,40.20000076293945,-122.75320875,49.190382675,-0.6772595023115475,0.7262847922516592,-0.02088267701169979,0.11567036988157212,1.951164854295326,1.4197298762473194,0.9964560110009077,-13.135739517211913,42.34131927490235,1.1650999784469604,0.02553416714072222,0.0149051115848124,0.02095267754048102,-268.4817352294922,137.36711883544922,-131.55869903564454,-0.016490894059340143,0.005981929374463612,0.1469376385211944,-0.549850712219874,-9.717352549235025,-1.1217353145281475,0.026603181287646237,0.0104457963258028,0.01866193283349268,-0.5487476711471875,-9.698184349320151,-1.3711047682798272
8.2,-0.6885891014879401,-9.754722161726518,-1.016840864311565,0.0,0.0,1.0099306503931682,12.53416625658671,0.0965409614145755,0.0,40.20000076293945,-122.75320876666666,49.19038255,-0.6772848318020502,0.7258874525626501,-0.022294603753834918,0.11773013075192766,1.942360480626424,1.4191903173923492,1.0003088066975276,-13.452939701080322,42.343759536743164,1.1882799744606019,0.017613281263038485,0.009824749276352417,0.012751812076506499,-268.79893798828124,137.36955871582032,-131.53551788330077,-0.08063486715157825,0.027253945668538365,0.0620694756507873,-0.4657031049331029,-9.749356587727865,-1.0231310824553173,0.018682295689359283,0.005345070657009882,0.010435614967718715,-0.5386212120453516,-9.697390794754028,-1.3807893494764965
8.3,-0.6222109275333809,-9.727363210735898,-1.1006938860271915,0.0,0.0,1.0109296043713887,12.566082914670309,0.09747974015772334,0.0,40.20000076293945,-122.75320878333333,49.190382425,-0.6757548352082571,0.7256601552168528,-0.029637778177857354,0.12606794883807496,1.9377148548762004,1.4170920848846436,0.9825741350650787,-13.550539684295654,42.32789916992188,1.0577399790287019,0.003868813255394317,-0.06185010634362692,0.004046981999029683,-268.896533203125,137.35369720458985,-131.6660583496094,-0.0010723074277241829,-0.03500795364379882,0.29523090521494544,-0.6271189351876577,-9.683753172556559,-1.248056411743164,0.004937827334894433,-0.06632978407045204,0.0017562374317397326,-0.5395695765813192,-9.694251696268717,-1.402285675207774
8.4,-0.5558327535788218,-9.70000425974528,-1.1845469077428181,0.0,0.0,1.0119285583496094,12.597999572753906,0.0984185189008712,0.0,40.20000076293945,-122.7532088,49.1903823,-0.6763390388452646,0.7251597448731913,-0.02920375696637409,0.12591102087136466,1.9280058398391262,1.4174301678484138,0.9931293387304653,-13.50051965713501,42.401099395751956,0.7612799882888794,-0.0005854125120094667,-0.1754710401097933,-0.024943664359549634,-268.8465148925781,137.42689819335936,-131.96251983642577,-0.057990078673218225,-0.024744749069213867,0.2730092740420139,-0.615553617477417,-9.695837211608886,-1.2709477424621582,0.00048360166450339996,-0.17992526541153586,-0.02725986173997318,-0.5247709254423778,-9.694762287717877,-1.4042324595379108
8.5,-0.4716851661602656,-9.732008457183838,-1.0859426856040955,0.0,0.0,1.0129661679267883,12.639599609375,0.11078720241785041,18.336802673339843,40.20000076293945,-122.7532087,49.19038141,-0.6769232424822721,0.7246593345295299,-0.02876973575489082,0.12575409290465436,1.918296824802052,1.4177682508121838,1.0036845423958518,-13.638379764556884,42.47429885864258,0.6417199820280075,0.024536420746395934,-0.07238753155494727,-0.012115494037667833,-268.9843719482422,137.50009765625,-132.0820770263672,-0.11490784991871227,-0.014481544494628917,0.25078764286908234,-0.5410770177841187,-9.736893812815348,-1.0826525290807087,0.025605434939886068,-0.07689266325905918,-0.014431691418091383,-0.5099722743034363,-9.695272879167037,-1.4061792438680476
8.6,-0.6331009864807129,-9.666405200958252,-1.3108680248260498,0.0,0.0,1.0140037775039672,12.681199645996093,0.12315588593482964,36.673605346679686,40.20000076293945,-122.7532086,49.190380520000005,-0.6767066529754436,0.7242834150339618,-0.03174750834957438,0.12817293332155902,1.915476133877581,1.4185792659268235,0.9988057200204242,-13.524919795989991,42.39255981445312,0.6868599861860275,0.005523239863881184,0.04248058733840778,0.05215262062847609,-268.87091369628905,137.4183609008789,-132.0369384765625,-0.03860228711908513,-0.02204442024230957,0.2602920071645216,-0.5047858754793803,-9.796215852101644,-0.9327023327350616,0.006592254093751133,0.037950002898772504,0.04986187505225335,-0.5034308868149916,-9.696465589783408,-1.4002141081022494
8.7,-0.5809120806780729,-9.700883691961115,-1.2310528592629866,0.0,0.0,1.0150413870811463,12.722799682617188,0.13552456945180885,55.010408020019526,40.20000076293945,-122.7532085,49.19037963,-0.6764900634686152,0.7239074955383936,-0.03472528094425793,0.13059177373846367,1.9126554429531097,1.4193902810414631,0.9939268976449966,-13.46147985458374,42.27299880981445,0.8161799848079682,-0.021349740400910318,0.00012217275798320215,0.015118914656341081,-268.80747375488284,137.29879913330078,-131.9076171875,0.03770327568054201,-0.029607295989990224,0.26979637145996094,-0.7169494926929474,-9.669097264607748,-1.2582258979479473,-0.0202807262539863,-0.00436768662184478,0.012797626387327898,-0.49688949932654697,-9.69765830039978,-1.3942489723364513
8.8,-0.5458400086923079,-9.739875786232226,-1.1132833926063594,0.0,0.0,1.0160789966583252,12.76439971923828,0.14789325296878808,73.34721069335937,40.20000076293945,-122.75320839999999,49.19037874,-0.6769510626792907,0.7214073419570923,-0.045243668556213326,0.1387704730033874,1.883501648902893,1.4241843938827514,0.9964090824127197,-13.738419723510741,42.34741897583008,0.5575399786233902,0.027081691815207365,-0.04494950051108995,-0.019573140472251265,-269.08441162109375,137.3732177734375,-132.1662582397461,-0.6087595760822296,0.07727890014648435,0.028737473487854003,-0.613998293876648,-9.766425323486327,-1.0279566049575806,0.028150706319138366,-0.049454632525642694,-0.021863884913424583,-0.44203209280967715,-9.704644012451173,-1.3636887073516846
8.9,-0.510767936706543,-9.778867880503336,-0.9955139259497324,0.0,0.0,1.0171166062355042,12.805999755859375,0.16026193648576728,91.68401336669922,40.20000076293945,-122.7532083,49.19037785,-0.6743275309602419,0.7237186173597971,-0.04610520595063761,0.13915175423026083,1.925937513510386,1.4214854647715887,0.9521678134799003,-13.350459671020507,42.475518798828126,0.33671998903155326,-0.06612616218626494,-0.3222568693260352,0.0105119732518991,-268.6964569091797,137.50131530761718,-132.38707733154297,-0.25847866088151933,0.02508296966552733,0.06015468537807464,-0.27387848993142444,-9.748159885406494,-1.0442676842212677,-0.06503169611096377,-0.32678745438655216,0.008221229848762349,-0.509122455616792,-9.700703406333924,-1.3664019952217736
9.0,-0.7229315439860026,-9.65174929300944,-1.321037511030833,0.0,0.0,1.018154215812683,12.84759979248047,0.1726306200027465,110.02081604003905,40.20000076293945,-122.7532082,49.19037696,-0.6717039992411932,0.7260298927625021,-0.04696674334506188,0.13953303545713422,1.9683733781178792,1.418786535660426,0.907926544547081,-13.810399627685547,42.28153915405274,-0.0280599981546402,0.0041487930963436835,-0.05194899796818691,-0.09552405433108407,-269.15639343261716,137.30733642578124,-132.75185546875,0.09180225431919099,-0.02711296081542969,0.09157189726829529,-0.9920244018236796,-9.638189951578775,-1.238883912563324,0.005217807057003184,-0.056403224977354144,-0.09781479804466164,-0.5762128184239069,-9.696762800216675,-1.369115283091863
9.1,-0.6199803411960602,-9.749077224731446,-1.0907682061195374,0.0,0.0,1.019191825389862,12.889199829101562,0.18499930351972574,128.3576187133789,40.20000076293945,-122.7532081,49.19037607,-0.6716428274909656,0.7259118979175886,-0.04728800632680451,0.14036014676094052,1.9649689495563507,1.4182443966468177,0.9096830834945042,-12.656279754638671,42.49747886657715,-0.07198000401258468,-0.0004276055376976805,-0.11218540295958519,-0.08301658630371092,-268.0022735595703,137.52327880859374,-132.7957748413086,0.06052968526879947,-0.019333958625793454,0.11365565905968349,0.018743777647614476,-9.87647533416748,-0.9244271516799927,0.0006414088420569799,-0.11664472073316572,-0.08530733063817023,-0.5733550166090329,-9.69596751530965,-1.3763186832269032
9.2,-0.6389334934453169,-9.675827185312906,-1.2043873866399128,0.0,0.0,1.020229434967041,12.930799865722657,0.19736798703670494,146.69442138671874,40.20000076293945,-122.753208,49.19037518,-0.6715816557407379,0.7257939030726751,-0.04760926930854714,0.14118725806474683,1.9615645209948223,1.4177022576332092,0.9114396224419276,-12.951519680023193,42.47063941955567,0.24887999445199965,0.00117082509677855,0.13395765299598372,0.0919861253350973,-268.2975158691406,137.4964385986328,-132.47491760253905,0.029257116218407944,-0.011554956436157218,0.13573942085107168,-0.9617153058449427,-9.601101080576578,-1.5411771734555562,0.0022398392126584663,0.1294779765109221,0.08964447366694607,-0.5704972147941589,-9.695172230402628,-1.3835220833619435
9.3,-0.31308588696022827,-9.76747719446818,-1.0958130608002343,0.0,0.0,1.02126704454422,12.97239990234375,0.20973667055368417,165.03122406005858,40.20000076293945,-122.75320789999999,49.19037429,-0.6712662577629089,0.7257001399993896,-0.0487004995346069,0.14279001653194426,1.9590598821640015,1.4169184207916259,0.9100791454315186,-12.548919677734375,42.54383926391601,0.31719998419284823,0.029550605763991617,-0.04945463128387928,-0.04382957952717942,-267.89491577148436,137.56963500976562,-132.4065963745117,-0.05460897684097288,-0.01986618041992186,0.24201703071594238,-0.38117665052413935,-9.77408218383789,-0.973878812789917,0.030619620345532814,-0.0539088568960627,-0.046120325724283845,-0.5699013471603394,-9.693999481201171,-1.3920030355453492
9.4,0.012761719524860368,-9.859127203623453,-0.987238734960556,0.0,0.0,1.022304654121399,13.013999938964844,0.2221053540706634,183.36802673339844,40.20000076293945,-122.7532078,49.1903734,-0.6714629977941513,0.7255271350344021,-0.048875908770908874,0.1426760160674651,1.9573769609133402,1.41753491461277,0.9116806258757909,-12.748999786376952,42.435258865356445,0.019519992172718048,-0.02466368423483795,-0.022169317041213332,0.00595593615435065,-268.09499206542966,137.4610595703125,-132.70427856445312,-0.061916503310203534,-0.013353959719340008,0.23258067170778907,-0.6873383025328318,-9.68006451924642,-1.3009975949923198,-0.02359467008500357,-0.02667444831846905,0.0036651917422811336,-0.565300705532233,-9.694923456509908,-1.3873971978823345
9.5,-0.9676973621050516,-9.583753108978273,-1.603988786538442,0.0,0.0,1.023372972011566,13.024199962615967,0.21882900744676584,183.39986267089844,40.20000076293945,-122.7532078,49.19037343,-0.6716597378253937,0.7253541300694147,-0.049051318007210847,0.14256201560298598,1.955694039662679,1.4181514084339142,0.9132821063200632,-12.764859771728515,42.43891983032226,-0.2537599913775921,0.02428189315833147,-0.03100141106794273,-0.00437786761904135,-268.11085510253906,137.4647186279297,-132.97755584716796,-0.06922402977943419,-0.006841739018758158,0.22314431269963578,-0.6209374765555064,-9.734102249145508,-1.1207383175690968,0.02535090814732632,-0.035481089415649515,-0.006694065018867434,-0.5607000639041265,-9.695847431818644,-1.3827913602193196
9.6,-0.38715870678424835,-9.756734275817871,-1.0366904258728027,0.0,0.0,1.0244412899017334,13.03439998626709,0.2155526608228683,183.43169860839845,40.20000076293945,-122.7532078,49.190373459999996,-0.672036510976878,0.7256457834984317,-0.04715070231450773,0.13987416102353367,1.9619785565318484,1.4191782894459637,0.9135737143682711,-12.973479747772217,42.665839767456056,-0.3013399876654148,-0.0083688536658883,0.003084868192672718,0.0074525561183691,-268.31947326660156,137.69163665771484,-133.02513885498047,-0.04723380506038665,-0.012164892572345166,0.17443898771748395,-0.5373880912860235,-9.738488833109537,-1.0770692924658458,-0.0072998397052288,-0.001435534819029302,0.005161811702419081,-0.5654850762450334,-9.697374217437975,-1.3700259508508625
9.7,-0.660119945804278,-9.689735253651937,-1.2736795594294865,0.0,0.0,1.0255096077919006,13.044600009918213,0.21227631419897075,183.46353454589843,40.20000076293945,-122.7532078,49.19037349,-0.6724132841283624,0.7259374369274486,-0.04525008662180461,0.13718630644408136,1.9682630734010176,1.4202051704580134,0.9138653224164789,-13.2552996635437,42.331559371948245,-0.04025999754667279,-0.0131336025660857,0.08877908252179618,0.021100304399927453,-268.60129699707034,137.35735778808595,-132.7640594482422,-0.025243580341339115,-0.017488046125932175,0.12573366273533212,-0.7117451071739197,-9.691888809204102,-1.1181660413742065,-0.012064588411400666,0.08429940355320766,0.01878410616579153,-0.5702700885859403,-9.698901003057307,-1.3572605414824053
9.8,-0.6017450441916783,-9.705438296000164,-1.2067802275220552,0.0,0.0,1.026577925682068,13.054800033569336,0.2089999675750732,183.49537048339843,40.20000076293945,-122.7532078,49.19037352,-0.6730497479438782,0.7261772950490316,-0.04199053285022572,0.1338178291916847,1.9703075488408406,1.4206233024597168,0.9213025768597921,-12.697759819030761,42.595079040527345,0.028059994429349887,0.0043269619733716,0.06877324474044141,-0.0035379274437824814,-268.0437530517578,137.6208755493164,-132.69573669433595,-0.011818413933118182,-0.02067200342814128,0.10862131913503009,-0.45862433811028797,-9.780263741811117,-1.172682483990987,0.00539597612805665,0.06421720945703173,-0.005854125522697967,-0.5714954833189646,-9.699514865875244,-1.3523660898208618
9.9,-0.5433701425790787,-9.721141338348389,-1.139880895614624,0.0,0.0,1.027646243572235,13.065000057220459,0.20572362095117563,183.52720642089844,40.20000076293945,-122.7532078,49.190373550000004,-0.6732487827539444,0.726090098420779,-0.04143925445775186,0.1334586286296447,1.9677133460839589,1.4205890148878098,0.9251974026362102,-13.16867971420288,42.36571922302246,0.17324000019580127,-0.008933904347941267,0.08121962410708262,0.0163406451077511,-268.5146728515625,137.39151916503906,-132.5505569458008,-0.030961479991674416,-0.009656349817911787,0.10104882717132566,-0.7298109034697214,-9.691031297047934,-1.194616715113322,-0.007864889960425567,0.07676539942622182,0.014049901006122432,-0.5681300908327103,-9.699463645617168,-1.3541405697663627
10.0,-0.7177271485328675,-9.674540901184082,-1.1809776067733764,0.0,0.0,1.0287145614624023,13.075200080871582,0.2024472743272781,183.55904235839844,40.20000076293945,-122.7532078,49.19037358,-0.6734478175640106,0.7260029017925262,-0.040887976065278,0.13309942806760466,1.9651191433270772,1.4205547273159027,0.9290922284126282,-13.05155963897705,42.30959930419922,0.24155998528003692,0.00641408516094088,0.0335975885391235,0.018753562821075258,-268.3975555419922,137.33539733886718,-132.48223724365235,-0.050104546050230646,0.0013593037923177078,0.09347633520762123,-0.5815556049346924,-9.731410344441732,-1.1578270594278972,0.0074830993078648985,0.029138271696865496,0.01646281793946396,-0.5647646983464559,-9.69941242535909,-1.3559150497118633
10.1,-0.4646063894033432,-9.762915770212809,-1.2354940871397655,0.0,0.0,1.0297828793525696,13.085400104522705,0.19917092770338055,183.59087829589845,40.20000076293945,-122.7532078,49.19037361,-0.6728188192302531,0.726074149662798,-0.04289519304240287,0.13520539862414194,1.9673987672184452,1.4199369996786118,0.9209259748458862,-13.11743974685669,42.36450004577637,0.12931999936699867,0.004708752807346134,0.017027868578831335,0.011301007015087315,-268.46343688964845,137.39029998779296,-132.59447784423827,-0.023946246527361152,-0.0018421230894146593,0.15881680177919794,-0.6321039845546087,-9.68425178527832,-1.176371435324351,0.00577776707359585,0.012522737728431784,0.00898480997420845,-0.5701784049019669,-9.698499589255363,-1.3601456293554017
10.2,-0.6616653054952621,-9.693872849146524,-1.2390334804852803,0.0,0.0,1.0308511972427368,13.095600128173828,0.195894581079483,183.62271423339843,40.20000076293945,-122.7532078,49.190373640000004,-0.6721898208964955,0.72614539753307,-0.044902410019527744,0.13731136918067924,1.9696783911098132,1.4193192720413208,0.9127597212791443,-13.104019927978516,42.365719604492185,0.527039983868599,0.0007635814836248663,-0.026318110874854,-0.015984307198474733,-268.45001220703125,137.39151458740236,-132.1967575073242,0.0022120529955083445,-0.005043549971147026,0.2241572683507746,-0.5904289901256561,-9.760443115234375,-1.2136396169662476,0.0018325956383098835,-0.030823242462550565,-0.018275051688154468,-0.5755921114574779,-9.697586753151633,-1.3643762089989402
10.3,-0.6498756681879361,-9.680388251940409,-1.239108254512151,0.0,0.0,1.0319195151329041,13.105800151824951,0.19261823445558546,183.65455017089843,40.20000076293945,-122.7532078,49.19037367,-0.6721439162890116,0.7265474597613016,-0.04365884450574711,0.13580999026695884,1.9765191475550334,1.4193112254142761,0.9098449448744456,-13.263839721679688,42.46819915771484,0.1671399988234043,0.0034106644646574834,-0.07714719045907252,-0.014915292927374433,-268.6098327636719,137.4939987182617,-132.55665740966796,0.04797857503096262,0.04789193471272782,0.05119486649831134,-0.6558327972888947,-9.663713296254477,-1.2313066522280376,0.004479678308901651,-0.08162686632325249,-0.017206037533469484,-0.5847321252028147,-9.697590192159018,-1.3604431947072346
10.4,-0.6380860308806101,-9.666903654734293,-1.2391830285390217,0.0,0.0,1.0329878330230713,13.116000175476074,0.1893418878316879,183.68638610839844,40.20000076293945,-122.7532078,49.1903737,-0.67160398264726,0.7274454434712727,-0.042959249733636726,0.13386034655074275,1.9960323572158813,1.4197495331366858,0.8941229581832886,-13.01129970550537,42.49747924804687,0.03293999880552292,0.01926770759746425,0.024129178668469312,0.004937827276686833,-268.35729064941404,137.52327728271484,-132.69085693359375,0.017949912697076804,0.011879126230875642,0.07433739056189853,-0.48574299613634747,-9.77358373006185,-0.9483553866545359,0.020362175302579947,0.01964949738855162,0.002570724269996084,-0.6091401825348536,-9.698242425918579,-1.3446275542179742
10.5,-0.5964110374450684,-9.743095397949219,-1.2764512062072755,0.0,0.0,1.0247736076513927,13.10700019200643,0.18543206403652823,183.51627349853516,40.20000076293945,-122.75320773333333,49.1903738,-0.6710640490055084,0.7283434271812439,-0.042259654961526345,0.1319107028345267,2.0155455668767295,1.4201878408590953,0.8784009714921316,-12.910039710998536,42.37181968688965,0.10979999601840976,-0.0316733624786138,0.06020077094435687,-0.01353066480951382,-268.25603942871095,137.39761962890626,-132.61399841308594,-0.012078749636809008,-0.024133682250976535,0.09747991462548573,-0.5243272682030996,-9.666903972625732,-1.2849457661310832,-0.030604348704218798,0.0556803680956363,-0.01585195350926366,-0.6335482398668925,-9.69889465967814,-1.328811913728714
10.6,-0.6618148585160574,-9.646365483601889,-1.2941182653109233,0.0,0.0,1.0165593822797139,13.098000208536783,0.18152224024136857,183.34616088867188,40.20000076293945,-122.75320766666667,49.190373900000004,-0.6704058281399987,0.7289461466399105,-0.042969616849652705,0.13169211662854208,2.029894440463095,1.4203075653675832,0.8633507386301503,-12.863679885864258,42.565799713134766,0.11101999431848526,-0.004123340516040733,0.07493280371030164,-0.022423845288964583,-268.2096740722656,137.5915985107422,-132.61277618408204,-0.10266665899843878,-0.010040369900790108,0.11987259284113391,-0.5222335457801819,-9.726943588256836,-1.0884950160980225,-0.0030543259344995,0.07050403021275993,-0.024714589671930246,-0.6520648797353108,-9.699063727349944,-1.3184823000972923
10.7,-0.5110171834627787,-9.702895800272623,-1.179462159673373,0.0,0.0,1.0083451569080353,13.089000225067139,0.1776124164462089,183.1760482788086,40.20000076293945,-122.7532076,49.190374000000006,-0.669747607274489,0.7295488660985773,-0.043679578737779064,0.13147353042255744,2.0442433140494605,1.4204272898760708,0.8483005057681691,-12.940539836883545,42.59019889831543,0.026839999854564655,-0.02071851328946647,0.012293663186331584,-0.0266744489781558,-268.2865356445312,137.61599884033203,-132.69695587158202,-0.19325456836006855,0.004052942449396319,0.1422652710567821,-0.7374878823757172,-9.75135056177775,-1.215553919474284,-0.0196494985527048,0.007839437622654566,-0.028965193390225314,-0.6705815196037292,-9.69923279502175,-1.3081526864658704
10.8,-0.5196163912614187,-9.706245740254719,-1.1653843944271407,0.0,0.0,1.0001309315363565,13.080000241597494,0.17370259265104923,183.0059356689453,40.20000076293945,-122.75320753333332,49.1903741,-0.6690078477064768,0.729784776767095,-0.04557391814887516,0.13328641156355533,2.049548069636027,1.419737418492635,0.8376899162928263,-12.706299686431885,42.57067947387695,0.18177999779582024,-0.01323541323654355,-0.023747387031714137,-0.0027743464039910667,-268.0522979736328,137.59647674560546,-132.5420166015625,-0.014694084723790484,-0.03314272562662759,0.21131950616836545,-0.8514460424582163,-9.709974447886148,-1.0355936884880066,-0.012166399857960667,-0.028227064234670248,-0.005065090976131583,-0.6806836624940237,-9.69821055730184,-1.3104978998502095
10.9,-0.5282155990600585,-9.709595680236816,-1.1513066291809082,0.0,0.0,0.9919167061646779,13.071000258127848,0.16979276885588956,182.83582305908203,40.20000076293945,-122.75320746666667,49.1903742,-0.6695219005147616,0.7295378322402637,-0.04448198061436409,0.13241266459226603,2.0439144174257913,1.4200911670923233,0.8461371660232544,-12.670919799804688,42.63533935546875,-0.11468000151216984,0.010231992928311184,-0.04502585864004987,-0.02211841233656735,-268.01691284179685,137.66113739013673,-132.8384796142578,0.021006084978580468,-0.019034345944722482,0.1722769737243652,-0.8516454696655273,-9.725228627522787,-1.1547363201777139,0.011301007044191116,-0.049530989939133414,-0.024460062384605352,-0.6716928879419963,-9.698734680811565,-1.3112360487381616
